     3.04           OBSERVATION DATA    M                   RINEX VERSION / TYPE
BNC 2.12.8          Wiesensarter        20190927 095943 UTC PGM / RUN BY / DATE
PORTIONS OF THIS HEADER GENERATED BY BKG AT 26-Sep-19 23:51 COMMENT
FROM SITELOG reyk_20190613.log                              COMMENT
OBS TYPES from www.igs-ip.net/REYK00ISL0                    COMMENT
RTCM_3 www.igs-ip.net/REYK00ISL0                            COMMENT
REYK00ISL                                                   MARKER NAME
10202M001                                                   MARKER NUMBER
                                                            MARKER TYPE
                    FSW                                     OBSERVER / AGENCY
1830137             LEICA GR50          4.31/7.403          REC # / TYPE / VERS
725281              LEIAR25.R4      LEIT                    ANT # / TYPE
  2587384.5330 -1043033.4970  5716564.0080                  APPROX POSITION XYZ
        0.0635        0.0000        0.0000                  ANTENNA: DELTA H/E/N
C    8 C2I L2I D2I S2I C7I L7I D7I S7I                      SYS / # / OBS TYPES
E   16 C1C L1C D1C S1C C7Q L7Q D7Q S7Q C8Q L8Q D8Q S8Q C5Q  SYS / # / OBS TYPES
       L5Q D5Q S5Q                                          SYS / # / OBS TYPES
G   16 C1C L1C D1C S1C C2W L2W D2W S2W C2S L2S D2S S2S C5Q  SYS / # / OBS TYPES
       L5Q D5Q S5Q                                          SYS / # / OBS TYPES
R   12 C1C L1C D1C S1C C2C L2C D2C S2C C2P L2P D2P S2P      SYS / # / OBS TYPES
  2019     9    27    10     0    0.0000000     GPS         TIME OF FIRST OBS
C L2I  0.00000                                              SYS / PHASE SHIFT
C L7I  0.00000                                              SYS / PHASE SHIFT
E L1C  0.00000                                              SYS / PHASE SHIFT
E L7Q  0.00000                                              SYS / PHASE SHIFT
E L8Q  0.00000                                              SYS / PHASE SHIFT
E L5Q  0.00000                                              SYS / PHASE SHIFT
G L1C  0.00000                                              SYS / PHASE SHIFT
G L2W  0.00000                                              SYS / PHASE SHIFT
G L2S  0.00000                                              SYS / PHASE SHIFT
G L5Q  0.00000                                              SYS / PHASE SHIFT
R L1C  0.00000                                              SYS / PHASE SHIFT
R L2C  0.00000                                              SYS / PHASE SHIFT
R L2P  0.00000                                              SYS / PHASE SHIFT
                                                            GLONASS COD/PHS/BIS
 24 R01  1 R02 -4 R03  5 R04  6 R05  1 R06 -4 R07  5 R08  6 GLONASS SLOT / FRQ #
    R09 -2 R10 -7 R11  0 R12 -1 R13 -2 R14 -7 R15  0 R16 -1 GLONASS SLOT / FRQ #
    R17  4 R18 -3 R19  3 R20  2 R21  4 R22 -3 R23  3 R24  2 GLONASS SLOT / FRQ #
                                                            END OF HEADER
> 2019 09 27 10 00  0.0000000  0 39
G01  20526252.501   107866192.408        1551.516          54.000    20526253.895    84051598.910        1208.974          50.000    20526254.002    84051594.915        1208.974          52.000    20526252.251    80549450.036        1158.553          56.000  
G03  24790445.541   130274671.619        4020.953          44.000    24790446.792   101512739.478        3133.213          39.000    24790447.471   101512742.476        3133.212          41.000    24790447.721    97283044.485        3002.609          42.000  
G08  21909591.920   115135679.564       -2803.169          54.000    21909593.063    89716120.687       -2184.289          48.000    21909593.832    89716123.694       -2184.289          50.000    21909591.830    85977932.739       -2093.276          53.000  
G10  23271983.358   122295106.499       -2751.001          47.000    23271984.698    95294881.178       -2143.639          45.000    23271984.787    95294898.178       -2143.639          48.000    23271982.500    91324274.772       -2054.212          50.000  
G11  20182171.473   106058033.736         708.563          51.000    20182168.739    82642616.517         552.127          49.000                                                                                                                                  
G14  25036551.573   131567973.763        3065.457          42.000    25036551.020   102520498.334        2388.673          37.000                                                                                                                                  
G17  24564622.779   129087961.651        3405.206          51.000    24564621.331   100588010.626        2653.407          40.000    24564621.635   100588017.627        2653.407          43.000                                                                  
G18  19912259.809   104639671.604        -241.988          53.000    19912258.612    81537378.537        -188.563          48.000                                                                                                                                  
G22  23192405.808   121876929.244        3240.436          51.000    23192401.806    94969025.579        2525.016          42.000                                                                                                                                  
G24  24551577.034   129019408.185        1719.541          46.000    24551579.089   100534603.977        1339.903          40.000    24551579.643   100534624.986        1339.902          43.000    24551579.232    96345675.008        1284.184          45.000  
G27  25046717.993   131621372.508       -3866.910          47.000    25046719.852   102562102.356       -3013.176          38.000    25046720.406   102562109.355       -3013.177          41.000    25046719.816    98288683.316       -2887.518          45.000  
G28  21843695.305   114789398.053         673.339          51.000    21843692.750    89446274.879         524.679          45.000                                                                                                                                  
G30  25566120.654   134350865.649       -3334.749          43.000    25566121.744   104688963.821       -2598.506          39.000    25566122.370   104688986.817       -2598.507          40.000    25566121.619   100326932.582       -2490.124          42.000  
G32  23723405.197   124667345.679        2223.195          50.000    23723406.412    97143397.445        1732.360          40.000    23723406.859    97143397.441        1732.359          41.000    23723404.572    93095755.710        1660.107          46.000  
R03  22625707.757   121117202.616       -3452.189          49.000    22625706.881    94202264.528       -2685.038          43.000    22625706.667    94202268.538       -2685.037          43.000  
R05  21902991.585   117084065.201        3944.530          50.000    21902993.283    91065396.411        3067.968          47.000    21902993.318    91065396.411        3067.969          46.000  
R11  21044789.407   112456983.896       -1403.434          53.000    21044790.712    87466547.723       -1091.560          48.000    21044790.730    87466546.715       -1091.561          48.000  
R12  22021208.877   117633347.271        2418.574          47.000    22021210.629    91492632.093        1881.111          44.000    22021210.646    91492639.085        1881.113          44.000  
R19  22472965.761   120215206.531       -3889.760          38.000    22472966.154    93500722.408       -3025.368          42.000    22472965.797    93500718.407       -3025.369          41.000  
R20  19319322.098   103309106.646        -579.318          47.000    19319324.779    80351531.894        -450.581          49.000    19319323.707    80351529.892        -450.581          49.000  
R21  21246758.453   113695696.681        3386.078          52.000    21246758.578    88429984.432        2633.618          48.000    21246758.614    88429990.431        2633.618          47.000  
E01  25400852.616   133482378.022        -141.706          51.000    25400852.705   102278703.441        -108.563          51.000    25400852.813   100978555.180        -107.187          54.000    25400854.028    99678409.553        -105.814          51.000  
E03  25747702.949   135305116.384        1301.991          51.000    25747704.218   103675358.829         997.590          49.000    25747704.951   102357454.802         984.992          52.000    25747705.451   101039555.411         972.296          48.000  
E05  26834238.308   141014882.848       -1469.900          49.000    26834239.344   108050374.023       -1126.290          47.000    26834239.791   106676855.261       -1111.953          51.000    26834240.917   105303337.135       -1097.621          47.000  
E08  25618674.148   134627051.891        3158.454          45.000    25618674.559   103155800.904        2420.006          43.000    25618675.166   101844500.308        2389.338          46.000    25618676.167   100533202.342        2358.588          43.000  
E13  23229087.660   122069678.002         390.865          54.000    23229087.482    93533933.409         299.545          54.000    23229087.875    92344940.827         295.726          57.000    23229088.875    91155952.883         291.878          54.000  
E15  24785348.563   130247896.694       -2265.801          53.000    24785350.135    99800348.972       -1736.168          52.000    24785350.439    98531702.453       -1714.087          55.000    24785351.404    97263056.570       -1692.034          51.000  
E18  17806162.548    93572015.811       -2028.967          56.000    17806162.262    71698032.749       -1554.657          57.000    17806162.530    70786617.822       -1534.868          60.000    17806163.602    69875207.539       -1515.110          57.000  
E21  26298768.786   138200952.725       -2760.938          51.000    26298769.894   105894233.549       -2115.577          49.000    26298770.198   104548122.009       -2088.602          52.000    26298771.217   103202013.117       -2061.730          48.000  
E26  24884980.409   130771451.617        2681.402          49.000    24884982.393   100201514.538        2054.566          49.000    24884982.697    98927766.303        2028.477          52.000    24884983.787    97654019.703        2002.342          48.000  
E31  27552869.996   144791309.488        2425.125          47.000    27552871.908   110944000.822        1858.278          44.000    27552872.105   109533696.561        1834.749          47.000    27552873.141   108123396.945        1811.075          43.000  
C06  39266633.891   204471670.070        -109.319          45.000    39266628.798   158110458.914         -84.593          44.000  
C09  39039513.409   203289010.451         852.857          45.000    39039511.622   157195962.327         659.386          45.000  
C11  21916950.651   114127333.352       -1155.262          50.000    21916948.078    88250485.940        -893.272          52.000  
C16  39133473.467   203778272.344          88.736          47.000    39133473.717   157574295.849          68.542          44.000  
C21  22976455.217   119644455.503         478.927          52.000                                                                  
C22  25098761.469   130695844.267       -2464.142          50.000                                                                  
C23  26189351.541   136374811.820       -3140.748          45.000                                                                  
C28  24429393.623   127210260.392        2981.714          48.000                                                                  
> 2019 09 27 10 00 30.0000000  0 39
G01  20517445.967   107819913.994        1534.013          54.000    20517447.397    84015537.787        1195.330          51.000    20517447.522    84015533.793        1195.330          52.000    20517445.753    80514891.475        1145.588          56.000  
G03  24767497.748   130154080.397        4018.588          45.000    24767499.339   101418772.349        3131.365          43.000    24767499.928   101418775.351        3131.365          44.000    24767499.267    97192992.589        3001.166          42.000  
G08  21925628.564   115219951.705       -2814.585          54.000    21925629.671    89781787.240       -2193.190          49.000    21925630.368    89781790.249       -2193.190          51.000    21925628.278    86040863.207       -2101.780          53.000  
G10  23287725.181   122377830.399       -2763.696          45.000    23287726.432    95359341.316       -2153.540          45.000    23287726.575    95359358.326       -2153.539          49.000    23287724.466    91386049.064       -2063.726          50.000  
G11  20178181.927   106037068.549         689.441          51.000    20178179.211    82626279.987         537.222          50.000                                                                                                                                  
G14  25019070.505   131476109.975        3059.021          44.000    25019069.915   102448916.182        2383.647          36.000                                                                                                                                  
G17  24545193.040   128985856.729        3402.273          50.000    24545191.360   100508448.328        2651.117          40.000    24545191.735   100508455.325        2651.117          42.000                                                                  
G18  19913700.160   104647240.635        -262.163          53.000    19913698.945    81543276.458        -204.288          49.000                                                                                                                                  
G22  23173933.366   121779856.672        3231.427          51.000    23173929.399    94893384.616        2517.991          44.000                                                                                                                                  
G24  24541810.291   128968083.317        1702.755          45.000    24541812.221   100494610.562        1326.815          41.000    24541812.703   100494631.576        1326.817          43.000    24541812.471    96307348.047        1271.275          44.000  
G27  25068799.210   131737409.158       -3868.427          46.000    25068800.764   102652520.422       -3014.368          39.000    25068801.372   102652527.428       -3014.369          42.000    25068800.907    98375333.973       -2888.749          45.000  
G28  21839903.034   114769469.225         655.718          51.000    21839900.425    89430745.902         510.944          44.000                                                                                                                                  
G30  25585167.853   134450958.846       -3337.915          47.000    25585168.854   104766958.544       -2600.977          37.000    25585169.426   104766981.557       -2600.976          38.000    25585168.997   100401677.535       -2492.573          44.000  
G32  23710756.538   124600878.321        2208.468          50.000    23710757.163    97091604.681        1720.878          40.000    23710757.896    97091604.687        1720.878          42.000    23710756.859    93046121.065        1649.200          46.000  
R03  22645102.169   121221022.330       -3468.687          49.000    22645101.222    94283013.141       -2697.874          42.000    22645101.025    94283017.151       -2697.874          42.000  
R05  21880894.483   116965943.967        3930.512          49.000    21880896.145    90973524.349        3057.063          46.000    21880896.199    90973524.351        3057.063          45.000  
R11  21052744.500   112499493.190       -1430.126          53.000    21052745.644    87499610.477       -1112.326          47.000    21052745.644    87499609.479       -1112.325          47.000  
R12  22007689.085   117561136.958        2395.770          45.000    22007692.641    91436468.488        1863.372          44.000    22007692.641    91436475.478        1863.372          43.000  
R19  22494801.260   120332011.379       -3896.276          39.000    22494801.564    93591570.563       -3030.442          40.000    22494801.242    93591566.557       -3030.442          40.000  
R20  19322629.655   103326793.617        -599.415          47.000    19322632.299    80365288.402        -466.216          48.000    19322631.209    80365286.398        -466.216          48.000  
R21  21227805.460   113594275.904        3375.754          51.000    21227805.656    88351101.580        2625.581          47.000    21227805.674    88351107.581        2625.582          47.000  
E01  25401707.345   133486869.548        -157.244          51.000    25401707.434   102282145.002        -120.528          51.000    25401707.524   100981952.992        -119.013          53.000    25401708.757    99681763.618        -117.488          50.000  
E03  25740311.214   135266270.755        1288.137          52.000    25740312.250   103645594.014         987.019          49.000    25740312.786   102328068.355         974.476          52.000    25740313.644   101010547.333         961.911          48.000  
E05  26842667.823   141059180.152       -1482.962          49.000    26842668.824   108084316.095       -1136.259          47.000    26842669.306   106710365.861       -1121.782          50.000    26842670.432   105336416.270       -1107.342          47.000  
E08  25600654.382   134532358.130        3155.030          46.000    25600654.882   103083243.380        2417.417          43.000    25600655.507   101772865.137        2386.717          46.000    25600656.544   100462489.529        2356.013          44.000  
E13  23226888.055   122058118.687         380.198          54.000    23226887.823    93525076.274         291.298          54.000    23226888.216    92336196.278         287.601          57.000    23226889.199    91147320.925         283.888          54.000  
E15  24798303.587   130315975.645       -2272.347          52.000    24798305.195    99852513.334       -1741.124          52.000    24798305.445    98583203.710       -1719.018          54.000    24798306.428    97313894.719       -1696.898          50.000  
E18  17817887.576    93633631.017       -2078.298          56.000    17817887.290    71745244.396       -1592.470          57.000    17817887.522    70833229.323       -1572.251          60.000    17817888.612    69921218.888       -1551.992          56.000  
E21  26314555.282   138283911.478       -2769.175          50.000    26314556.408   105957799.318       -2121.926          49.000    26314556.765   104610879.738       -2094.916          52.000    26314557.659   103263962.802       -2067.922          48.000  
E26  24869686.384   130691081.641        2677.043          49.000    24869688.600   100139932.373        2051.198          49.000    24869688.814    98866966.960        2025.093          52.000    24869689.761    97594003.180        1999.029          48.000  
E31  27539053.150   144718701.459        2415.709          46.000    27539054.847   110888366.115        1850.878          44.000    27539055.169   109478769.082        1827.524          46.000    27539056.223   108069176.703        1803.840          43.000  
C06  39267280.285   204475035.848        -114.451          45.000    39267275.174   158113061.556         -88.609          44.000  
C09  39034616.653   203263511.285         847.673          45.000    39034614.723   157176244.764         655.440          45.000  
C11  21923643.994   114162188.380       -1168.094          50.000    21923641.546    88277438.041        -903.209          52.000  
C16  39132980.943   203775707.730          82.735          47.000    39132981.300   157572312.735          64.003          44.000  
C21  22973748.292   119630359.737         461.230          52.000                                                                  
C22  25112992.252   130769947.186       -2475.697          50.000                                                                  
C23  26207461.921   136469118.234       -3145.940          46.000                                                                  
C28  24412232.642   127120898.197        2976.228          49.000                                                                                                                                  
> 2019 09 27 10 02 30.0000000  0 39
G01  20483224.072   107640075.697        1462.837          54.000    20483225.323    83875404.077        1139.872          50.000    20483225.412    83875400.080        1139.872          52.000    20483223.643    80380596.648        1092.351          56.000  
G03  24675836.111   129672394.016        4008.738          45.000    24675837.023   101043432.479        3123.690          34.000    24675837.755   101043435.483        3123.689          39.000    24675838.130    96833291.907        2993.477          48.000  
G08  21990426.108   115560465.710       -2860.798          53.000    21990427.395    90047122.742       -2229.193          48.000    21990428.127    90047125.751       -2229.192          50.000    21990425.983    86295143.021       -2136.323          53.000  
G10  23351421.690   122712555.392       -2815.034          47.000    23351422.690    95620165.903       -2193.532          45.000    23351422.708    95620182.906       -2193.532          48.000    23351420.332    91636005.925       -2102.257          50.000  
G11  20163330.929   105959027.051         610.929          51.000    20163328.409    82565468.438         476.048          50.000                                                                                                                                  
G14  24949513.242   131110585.842        3032.616          43.000    24949512.492   102164092.473        2363.082          39.000                                                                                                                                  
G17  24467658.134   128578407.706        3388.286          47.000    24467656.383   100190955.604        2640.225          38.000    24467656.704   100190962.605        2640.225          41.000                                                                  
G18  19920622.852   104683619.808        -344.431          53.000    19920621.672    81571623.866        -268.389          48.000                                                                                                                                  
G22  23100583.082   121394399.647        3192.425          50.000    23100579.687    94593028.641        2487.606          45.000                                                                                                                                  
G24  24503742.660   128768035.988        1631.343          46.000    24503744.358   100338729.609        1271.176          41.000    24503744.894   100338750.614        1271.176          43.000    24503744.501    96157962.096        1218.130          45.000  
G27  25157221.532   132202069.716       -3875.809          45.000    25157223.123   103014593.235       -3020.117          40.000    25157223.730   103014600.241       -3020.114          42.000    25157223.319    98722320.322       -2894.355          44.000  
G28  21825751.179   114695099.307         583.454          51.000    21825748.302    89372795.330         454.639          45.000                                                                                                                                  
G30  25661539.521   134852299.905       -3351.256          41.000    25661540.594   105079718.973       -2611.362          34.000    25661541.380   105079710.976       -2611.364          38.000    25661540.522   100701376.505       -2502.609          37.000  
G32  23661015.057   124339484.722        2147.632          51.000    23661015.593    96887921.457        1673.478          40.000    23661016.272    96887921.455        1673.478          43.000    23661014.896    92850924.638        1603.768          46.000  
R03  22723597.821   121641213.717       -3534.406          49.000    22723596.695    94609828.494       -2748.984          43.000    22723596.856    94609832.498       -2748.985          42.000  
R05  21793313.237   116497771.359        3871.664          51.000    21793314.792    90609390.244        3011.294          47.000    21793314.917    90609390.249        3011.295          46.000  
R11  21086063.938   112677542.284       -1537.478          53.000    21086065.189    87638093.085       -1195.818          48.000    21086065.153    87638092.082       -1195.817          47.000  
R12  21954924.666   117279267.989        2301.514          53.000    21954926.381    91217237.105        1790.064          45.000    21954926.310    91217244.107        1790.067          44.000  
R19  22582503.926   120801160.645       -3922.730          39.000    22582504.087    93956464.290       -3051.014          40.000    22582503.712    93956460.289       -3051.012          39.000  
R20  19336994.544   103403609.816        -681.086          47.000    19336997.350    80425034.351        -529.734          48.000    19336996.313    80425032.344        -529.733          48.000  
R21  21152590.007   113191785.437        3332.102          51.000    21152590.632    88038053.473        2591.634          48.000    21152590.596    88038059.476        2591.635          47.000  
E01  25406027.092   133509570.699        -221.312          52.000    25406027.199   102299539.368        -169.566          50.000    25406027.467   100999126.239        -167.430          53.000    25406028.772    99698715.748        -165.307          51.000  
E03  25711538.924   135115071.932        1231.545          52.000    25711540.032   103529740.456         943.611          49.000    25711540.639   102213687.510         931.610          52.000    25711541.461   100897639.201         919.606          49.000  
E05  26877136.239   141240313.634       -1535.982          49.000    26877137.490   108223106.656       -1177.134          47.000    26877137.883   106847392.131       -1162.168          49.000    26877138.741   105471678.243       -1147.149          47.000  
E08  25528783.241   134154674.112        3139.229          47.000    25528783.938   102793849.317        2405.464          43.000    25528784.278   101487149.830        2374.760          46.000    25528785.832   100180452.978        2344.280          43.000  
E13  23218710.654   122015146.067         335.757          54.000    23218710.422    93492149.192         257.261          54.000    23218710.833    92303687.761         254.001          56.000    23218711.816    91115230.969         250.735          54.000  
E15  24850502.005   130590281.615       -2299.576          53.000    24850503.970   100062695.720       -1762.071          51.000    24850504.185    98790714.278       -1739.652          53.000    24850505.185    97518733.471       -1717.260          50.000  
E18  17867600.234    93894871.682       -2275.577          56.000    17867599.859    71945415.767       -1743.597          57.000    17867600.055    71030856.138       -1721.444          59.000    17867601.145    70116301.143       -1699.273          57.000  
E21  26378178.993   138618256.345       -2803.181          51.000    26378180.351   106213985.485       -2147.939          49.000    26378180.601   104863809.299       -2120.644          51.000    26378181.423   103513635.750       -2093.381          48.000  
E26  24808780.338   130371018.012        2657.144          50.000    24808782.142    99894688.834        2035.920          48.000    24808782.571    98624840.930        2009.999          51.000    24808783.840    97354994.661        1984.160          49.000  
E31  27484342.150   144431197.038        2375.562          46.000    27484344.330   110668070.670        1820.311          43.000    27484344.884   109261274.023        1796.994          46.000    27484345.671   107854482.008        1773.744          44.000  
C06  39270180.695   204490138.796        -137.193          45.000    39270175.495   158124740.116        -106.146          43.000  
C09  39015342.196   203163137.303         824.939          47.000    39015339.373   157098629.232         637.928          45.000  
C11  21951171.349   114305531.407       -1221.171          50.000    21951168.901    88388279.951        -944.271          52.000  
C16  39131355.845   203767244.577          58.066          47.000    39131356.023   157565768.502          44.905          43.000  
C21  22963949.438   119579334.731         388.968          52.000                                                                  
C22  25170592.297   131069884.980       -2523.215          50.000                                                                  
C23  26280211.199   136847942.703       -3167.717          45.000                                                                  
C28  24343916.669   126765157.460        2952.402          50.000                                                                  
> 2019 09 27 10 03  0.0000000  0 39
G01  20474920.355   107596439.032        1445.498          55.000    20474921.534    83841401.483        1126.363          49.000    20474921.642    83841397.491        1126.363          51.000    20474919.855    80348010.835        1079.409          56.000  
G03  24652954.881   129552153.267        4006.415          43.000    24652955.203   100949738.377        3121.885          37.000    24652956.060   100949741.381        3121.885          37.000    24652957.257    96743501.809        2991.887          47.000  
G08  22006786.771   115646441.601       -2871.671          53.000    22006788.040    90114116.903       -2237.666          47.000    22006788.772    90114119.910       -2237.666          49.000    22006786.718    86359345.762       -2144.484          53.000  
G10  23367525.450   122797180.938       -2827.311          46.000    23367526.433    95686107.852       -2203.099          45.000    23367526.450    95686124.858       -2203.099          48.000    23367524.092    91699200.282       -2111.330          50.000  
G11  20159895.538   105940974.078         591.715          51.000    20159893.036    82551401.186         461.077          49.000                                                                                                                                  
G14  24932218.369   131019701.041        3025.967          43.000    24932217.708   102093273.209        2357.897          34.000                                                                                                                                  
G17  24448321.796   128476795.178        3385.081          49.000    24448319.831   100111777.011        2637.725          37.000    24448320.206   100111784.008        2637.724          39.000                                                                  
G18  19922643.338   104694237.215        -364.381          53.000    19922642.105    81579897.170        -283.932          48.000                                                                                                                                  
G22  23082382.178   121298753.851        3183.009          50.000    23082378.765    94518499.481        2480.268          43.000                                                                                                                                  
G24  24494477.268   128719345.909        1614.248          47.000    24494479.073   100300789.295        1257.855          40.000    24494479.484   100300810.308        1257.856          42.000    24494479.287    96121602.641        1205.217          46.000  
G27  25179349.690   132318354.683       -3877.222          44.000    25179351.602   103105204.803       -3021.214          38.000    25179352.139   103105211.818       -3021.212          42.000    25179351.728    98809156.382       -2895.300          45.000  
G28  21822468.067   114677846.159         565.838          52.000    21822465.172    89359351.318         440.913          44.000                                                                                                                                  
G30  25680674.993   134952872.394       -3353.559          39.000    25680676.673   105158082.780       -2613.158          37.000    25680677.799   105158082.776       -2613.159          39.000    25680676.298   100776470.419       -2504.357          42.000  
G32  23648794.843   124275266.721        2132.674          50.000    23648795.790    96837881.489        1661.826          41.000    23648796.254    96837881.491        1661.827          43.000    23648794.414    92802969.651        1592.649          45.000  
R03  22743447.250   121747468.839       -3550.031          49.000    22743446.142    94692471.342       -2761.133          43.000    22743446.285    94692475.348       -2761.133          42.000  
R05  21771623.138   116381826.253        3857.136          50.000    21771624.836    90519210.762        2999.994          46.000    21771624.907    90519210.762        2999.994          45.000  
R11  21094766.420   112724045.910       -1563.526          52.000    21094767.742    87674262.563       -1216.075          48.000    21094767.760    87674261.558       -1216.075          47.000  
R12  21942063.705   117210559.093        2278.207          53.000    21942063.883    91163796.924        1771.942          45.000    21942063.919    91163803.933        1771.943          44.000  
R19  22604517.705   120918919.654       -3928.782          40.000    22604518.151    94048054.549       -3055.721          41.000    22604517.705    94048050.562       -3055.720          39.000  
R20  19340868.888   103424327.864        -701.012          47.000    19340871.747    80441148.390        -545.230          49.000    19340870.675    80441146.386        -545.229          49.000  
R21  21133937.230   113091971.390        3321.418          51.000    21133938.088    87960420.342        2583.327          48.000    21133938.052    87960426.338        2583.327          47.000  
E01  25407332.156   133516428.696        -236.854          51.000    25407332.263   102304794.195        -181.401          50.000    25407332.496   101004314.266        -179.089          53.000    25407333.818    99703836.975        -176.793          51.000  
E03  25704546.114   135078322.288        1217.644          52.000    25704546.757   103501581.638         933.069          49.000    25704547.347   102185886.650         921.199          52.000    25704548.312   100870196.298         909.319          49.000  
E05  26885939.663   141286576.188       -1548.759          49.000    26885941.075   108258554.549       -1186.721          47.000    26885941.361   106882389.419       -1171.616          50.000    26885942.379   105506224.931       -1156.609          47.000  
E08  25510869.081   134060534.407        3135.927          45.000    25510869.707   102721716.339        2402.812          43.000    25510870.225   101415933.792        2372.270          46.000    25510871.315   100110153.875        2341.754          43.000  
E13  23216821.577   122005218.875         325.201          54.000    23216821.344    93484542.649         249.188          54.000    23216821.737    92296177.910         246.028          57.000    23216822.738    91107817.812         242.864          54.000  
E15  24863645.582   130659350.708       -2305.861          53.000    24863647.316   100115618.773       -1766.812          51.000    24863647.619    98842964.585       -1744.382          54.000    24863648.584    97570311.024       -1721.875          51.000  
E18  17880726.193    93963849.023       -2323.824          56.000    17880725.817    71998268.528       -1780.569          57.000    17880726.014    71083037.042       -1757.918          60.000    17880727.068    70167810.194       -1735.272          57.000  
E21  26394202.521   138702460.246       -2811.262          51.000    26394203.914   106278505.318       -2154.040          48.000    26394204.040   104927508.966       -2126.653          51.000    26394204.879   103576515.245       -2099.235          47.000  
E26  24793621.867   130291359.390        2652.577          51.000    24793623.600    99833651.710        2032.548          48.000    24793624.011    98564579.702        2006.757          51.000    24793625.208    97295509.333        1980.888          49.000  
E31  27470805.347   144360060.703        2366.043          46.000    27470807.616   110613563.630        1812.800          44.000    27470807.902   109207459.865        1789.818          47.000    27470809.046   107801360.738        1766.760          44.000  
C06  39270984.194   204494322.966        -142.527          45.000    39270978.904   158127975.566        -110.108          43.000  
C09  39010601.169   203138449.398         819.979          47.000    39010598.310   157079538.986         634.068          45.000  
C11  21958240.978   114342344.555       -1233.863          50.000    21958238.494    88416746.214        -954.077          52.000  
C16  39131035.507   203765576.371          52.262          47.000    39131035.578   157564478.544          40.469          43.000  
C21  22961757.070   119567918.683         371.272          52.000                                                                  
C22  25185159.357   131145739.873       -2534.449          51.000                                                                  
C23  26298472.858   136943035.607       -3172.574          45.000                                                                  
C28  24326920.691   126676655.171        2946.896          50.000                                                                  
> 2019 09 27 10 03 30.0000000  0 39
G01  20466717.044   107553330.080        1428.252          54.000    20466718.152    83807810.097        1112.924          50.000    20466718.277    83807806.102        1112.924          52.000    20466716.526    80315819.090        1066.503          57.000  
G03  24630087.856   129431986.339        4004.608          46.000    24630088.178   100856101.801        3120.473          38.000    24630089.018   100856104.808        3120.473          40.000    24630090.305    96653766.825        2990.221          45.000  
G08  22023210.673   115732749.146       -2882.442          54.000    22023211.798    90181369.513       -2246.058          48.000    22023212.531    90181372.520       -2246.059          49.000    22023210.530    86423796.164       -2152.439          53.000  
G10  23383699.542   122882175.910       -2839.221          46.000    23383700.382    95752337.664       -2212.382          45.000    23383700.471    95752354.681       -2212.381          48.000    23383698.148    91762670.514       -2120.227          50.000  
G11  20156570.613   105923501.959         572.700          51.000    20156568.201    82537786.545         446.260          49.000                                                                                                                                  
G14  24914961.771   130929016.790        3019.584          44.000    24914961.020   102022610.225        2352.926          35.000                                                                                                                                  
G17  24429004.668   128375282.607        3382.085          50.000    24429002.613   100032676.264        2635.390          39.000    24429003.077   100032683.268        2635.391          42.000                                                                  
G18  19924778.865   104705459.179        -384.121          53.000    19924777.596    81588641.555        -299.315          48.000                                                                                                                                  
G22  23064236.149   121203396.690        3173.777          49.000    23064232.718    94444195.232        2473.075          44.000                                                                                                                                  
G24  24485312.675   128671185.061        1596.399          47.000    24485314.176   100263261.388        1243.948          41.000    24485314.676   100263282.388        1243.948          42.000    24485314.623    96085638.360        1192.312          47.000  
G27  25201485.872   132434680.989       -3877.880          46.000    25201488.070   103195848.569       -3021.727          38.000    25201488.570   103195855.561       -3021.728          41.000    25201488.016    98896023.318       -2896.115          45.000  
G28  21819286.577   114661127.048         548.417          52.000    21819283.682    89346323.435         427.337          44.000                                                                                                                                  
G30  25699828.531   135053514.229       -3355.702          32.000    25699828.638   105236505.365       -2614.798          25.000    25699828.924   105236505.379       -2614.796          37.000    25699827.799   100851625.442       -2506.162          38.000  
G32  23636660.633   124211502.354        2117.942          50.000    23636662.205    96788195.006        1650.345          41.000    23636662.580    96788195.010        1650.345          43.000    23636659.793    92755353.409        1581.544          45.000  
R03  22763384.808   121854195.744       -3565.318          49.000    22763383.629    94775481.112       -2773.026          42.000    22763383.826    94775485.118       -2773.025          42.000  
R05  21750016.094   116266325.268        3842.619          51.000    21750017.828    90429376.711        2988.706          46.000    21750018.006    90429376.713        2988.706          45.000  
R11  21103616.483   112771338.253       -1589.385          52.000    21103617.858    87711045.489       -1236.188          48.000    21103617.823    87711044.482       -1236.187          47.000  
R12  21929333.062   117142556.339        2255.077          47.000    21929333.652    91110905.918        1753.947          45.000    21929333.580    91110912.920        1753.946          44.000  
R19  22626565.309   121036860.234       -3934.414          40.000    22626565.738    94139786.104       -3060.100          39.000    22626565.238    94139782.092       -3060.101          39.000  
R20  19344855.681   103445647.088        -720.562          48.000    19344858.594    80457730.004        -560.437          48.000    19344857.486    80457727.998        -560.437          48.000  
R21  21115345.084   112992481.724        3310.919          52.000    21115346.049    87883039.493        2575.159          48.000    21115346.067    87883045.494        2575.159          47.000  
E01  25408726.512   133523756.277        -251.924          51.000    25408726.690   102310408.840        -193.080          50.000    25408726.887   101009857.539        -190.651          53.000    25408728.245    99709308.877        -188.201          51.000  
E03  25697632.482   135041991.205        1204.100          50.000    25697633.340   103473743.560         922.614          50.000    25697633.733   102158402.444         910.910          52.000    25697634.823   100843065.963         899.140          50.000  
E05  26894816.511   141333224.619       -1561.342          49.000    26894818.048   108294298.145       -1196.317          47.000    26894818.280   106917678.648       -1181.108          49.000    26894819.120   105541059.783       -1165.834          47.000  
E08  25492976.203   133966507.578        3132.125          45.000    25492976.936   102649669.864        2400.108          43.000    25492977.400   101344803.171        2369.590          46.000    25492978.544   100039939.106        2339.231          44.000  
E13  23214994.004   121995614.968         314.845          54.000    23214993.790    93477183.805         241.189          54.000    23214994.165    92288912.614         238.110          56.000    23214995.166    91100646.062         235.068          54.000  
E15  24876825.684   130728611.836       -2311.964          53.000    24876827.275   100168688.969       -1771.433          51.000    24876827.614    98895360.152       -1748.943          53.000    24876828.579    97622031.971       -1726.374          51.000  
E18  17894128.532    94034278.763       -2371.732          56.000    17894128.174    72052234.164       -1817.336          57.000    17894128.353    71136316.673       -1794.201          59.000    17894129.389    70220403.819       -1771.102          57.000  
E21  26410271.651   138786904.266       -2818.724          50.000    26410273.098   106343209.133       -2159.837          49.000    26410273.205   104991390.274       -2132.328          51.000    26410274.116   103639574.048       -2104.854          48.000  
E26  24778490.235   130211841.912        2648.276          51.000    24778491.897    99772722.754        2029.179          48.000    24778492.272    98504425.273        2003.339          51.000    24778493.541    97236129.427        1977.605          49.000  
E31  27457324.777   144289220.442        2356.365          45.000    27457327.279   110559283.475        1805.482          44.000    27457327.511   109153869.712        1782.567          47.000    27457328.440   107748460.578        1759.687          44.000  
C06  39271818.427   204498666.935        -147.491          45.000    39271813.084   158131334.594        -113.910          43.000  
C09  39005890.805   203113920.713         815.076          47.000    39005887.839   157060571.847         630.304          45.000  
C11  21965384.870   114379544.285       -1246.449          50.000    21965382.351    88445511.401        -963.789          52.000  
C16  39130748.762   203764083.692          46.758          47.000    39130748.870   157563324.326          36.157          44.000  
C21  22959667.181   119557035.906         353.875          52.000                                                                  
C22  25199791.942   131221935.516       -2545.426          51.000                                                                  
C23  26316762.517   137038275.084       -3177.078          44.000                                                                  
C28  24309957.984   126588325.461        2941.426          49.000                                                                  
> 2019 09 27 10 04  0.0000000  0 38
G01  20458615.211   107510754.588        1410.321          54.000    20458616.283    83774634.384        1098.952          50.000    20458616.408    83774630.389        1098.952          51.000    20458614.675    80284025.702        1053.116          56.000  
G03  24607236.307   129311900.596        4001.314          46.000    24607237.200   100762528.531        3117.912          41.000    24607237.861   100762531.531        3117.912          43.000    24607238.183    96564092.362        2988.143          41.000  
G08  22039698.527   115819392.304       -2893.836          54.000    22039699.403    90248883.639       -2254.937          47.000    22039700.189    90248886.653       -2254.936          49.000    22039698.206    86488497.193       -2160.921          52.000  
G10  23399944.307   122967542.671       -2851.628          45.000    23399945.254    95818857.186       -2222.048          45.000    23399945.272    95818874.194       -2222.047          47.000    23399942.895    91826418.398       -2129.625          50.000  
G11  20153357.387   105906616.400         552.999          51.000    20153355.011    82524628.962         430.910          49.000                                                                                                                                  
G14  24897744.753   130838540.664        3012.552          43.000    24897743.985   101952109.387        2347.444          37.000                                                                                                                                  
G17  24409707.588   128273875.992        3378.502          45.000    24409705.801    99953658.185        2632.606          39.000    24409706.176    99953665.184        2632.604          42.000                                                                  
G18  19927030.308   104717290.139        -404.572          54.000    19927028.968    81597860.482        -315.248          48.000                                                                                                                                  
G22  23046146.372   121108335.307        3163.748          51.000    23046142.977    94370121.466        2465.259          43.000                                                                                                                                  
G24  24476249.935   128623559.981        1578.596          47.000    24476251.240   100226150.921        1230.073          39.000    24476251.865   100226171.927        1230.074          42.000    24476252.044    96050074.186        1178.716          46.000  
G27  25223630.416   132551052.052       -3879.623          45.000    25223632.596   103286527.186       -3023.088          37.000    25223633.186   103286534.213       -3023.085          41.000    25223632.775    98982923.653       -2897.258          44.000  
G28  21816207.762   114644947.547         530.287          52.000    21816204.814    89333716.032         413.212          45.000                                                                                                                                  
G32  23624614.463   124148198.951        2102.328          50.000    23624615.535    96738867.681        1638.179          40.000    23624616.071    96738867.679        1638.178          42.000    23624613.784    92708081.405        1569.998          46.000  
R03  22783410.569   121961395.055       -3581.104          49.000    22783409.282    94858858.343       -2785.303          43.000    22783409.497    94858862.342       -2785.302          42.000  
R05  21728493.964   116151277.562        3827.240          52.000    21728495.662    90339895.215        2976.747          46.000    21728495.751    90339895.206        2976.745          46.000  
R11  21112614.590   112819422.055       -1616.006          52.000    21112616.073    87748443.995       -1256.892          48.000    21112616.109    87748442.987       -1256.892          48.000  
R12  21916734.168   117075267.940        2230.946          50.000    21916737.045    91058570.430        1735.184          44.000    21916737.081    91058577.425        1735.182          44.000  
R19  22648647.526   121154985.073       -3940.351          39.000    22648648.044    94231660.905       -3064.719          40.000    22648647.705    94231656.913       -3064.718          39.000  
R20  19348955.800   103467572.328        -741.050          47.000    19348958.784    80474782.962        -576.370          49.000    19348957.659    80474780.958        -576.370          49.000  
R21  21096815.193   112893323.764        3299.679          52.000    21096816.086    87805916.654        2566.420          48.000    21096816.140    87805922.648        2566.421          48.000  
E01  25410211.106   133531558.248        -268.070          51.000    25410211.392   102316386.948        -205.348          50.000    25410211.570   101015759.657        -202.753          53.000    25410212.982    99715134.998        -200.152          51.000  
E03  25690799.135   135006084.508        1189.838          50.000    25690800.779   103446230.677         911.638          50.000    25690800.922   102131239.298         900.047          52.000    25690802.101   100816252.556         888.519          49.000  
E05  26903767.588   141380262.524       -1574.394          49.000    26903769.196   108330340.167       -1206.430          47.000    26903769.303   106953262.506       -1191.102          50.000    26903770.232   105576185.482       -1175.731          46.000  
E08  25475106.519   133872600.395        3128.091          46.000    25475107.001   102577715.064        2396.885          43.000    25475107.323   101273763.055        2366.394          46.000    25475108.753    99969813.680        2335.983          43.000  
E13  23213228.849   121986339.320         303.695          54.000    23213228.688    93470076.486         232.712          54.000    23213229.081    92281895.640         229.739          56.000    23213230.046    91093719.437         226.751          54.000  
E15  24890043.043   130798069.024       -2318.543          52.000    24890044.598   100221909.391       -1776.549          51.000    24890044.902    98947904.042       -1753.960          53.000    24890045.867    97673899.330       -1731.371          50.000  
E18  17907807.054    94106160.011       -2420.243          56.000    17907806.751    72107311.988       -1854.461          57.000    17907806.911    71190694.354       -1830.906          59.000    17907807.912    70274081.361       -1807.351          56.000  
E21  26426387.133   138871591.447       -2826.942          51.000    26426388.509   106408099.273       -2166.116          48.000    26426388.705   105055455.535       -2138.590          50.000    26426389.402   103702814.440       -2111.024          47.000  
E26  24763386.586   130132471.289        2643.122          51.000    24763388.177    99711906.300        2025.236          48.000    24763388.552    98444381.905        1999.513          51.000    24763389.678    97176859.150        1973.824          48.000  
E31  27443901.871   144218682.816        2345.931          46.000    27443904.373   110505235.216        1797.655          44.000    27443904.623   109100508.516        1774.690          47.000    27443905.731   107695786.447        1751.892          44.000  
C06  39272684.234   204503175.319        -153.064          45.000    39272678.874   158134820.774        -118.444          43.000  
C09  39001212.105   203089556.259         809.327          47.000    39001208.889   157041731.705         625.803          45.000  
C11  21972603.831   114417134.787       -1259.466          50.000    21972601.257    88474578.764        -973.953          52.000  
C16  39130496.684   203762771.249          40.858          47.000    39130496.863   157562309.464          31.535          44.000  
C21  22957680.646   119546691.421         335.746          52.000                                                                  
C22  25214490.518   131298474.648       -2556.986          50.000                                                                  
C23  26335080.696   137133663.529       -3182.113          43.000                                                                  
C28  24293029.426   126500174.413        2935.284          50.000                                                                  
> 2019 09 27 10 04 30.0000000  0 38
G01  20450614.785   107468712.279        1392.200          55.000    20450615.893    83741874.150        1084.831          50.000    20450616.018    83741870.153        1084.831          52.000    20450614.285    80252630.474        1039.654          56.000  
G03  24584400.553   129191897.237        3998.460          46.000    24584401.732   100669019.437        3115.683          43.000    24584402.286   100669022.439        3115.684          45.000    24584401.661    96474479.388        2985.805          43.000  
G08  22056249.603   115906368.094       -2905.004          54.000    22056250.442    90316656.950       -2263.640          48.000    22056251.157    90316659.956       -2263.640          49.000    22056249.192    86553446.618       -2169.300          53.000  
G10  23416259.082   123053277.631       -2864.365          46.000    23416260.065    95885663.624       -2231.975          45.000    23416260.101    95885680.627       -2231.976          48.000    23416257.867    91890441.200       -2138.865          50.000  
G11  20150255.772   105890316.918         533.145          51.000    20150253.306    82511928.058         415.437          49.000                                                                                                                                  
G14  24880567.458   130748274.481        3004.866          43.000    24880566.957   101881772.188        2341.457          39.000                                                                                                                                  
G17  24390430.450   128172575.863        3374.538          50.000    24390428.824    99874723.045        2629.508          38.000    24390429.271    99874730.046        2629.508          41.000                                                                  
G18  19929397.275   104729728.324        -425.054          54.000    19929395.863    81607552.570        -331.211          48.000                                                                                                                                  
G22  23028113.151   121013570.711        3153.566          50.000    23028109.809    94296278.951        2457.327          44.000                                                                                                                                  
G24  24467289.246   128576471.524        1560.237          44.000    24467290.532   100189458.605        1215.768          40.000    24467291.176   100189479.619        1215.768          42.000    24467291.444    96014910.732        1165.195          47.000  
G27  25245783.323   132667464.993       -3881.695          45.000    25245785.574   103377238.509       -3024.701          39.000    25245786.021   103377245.513       -3024.700          41.000    25245785.413    99069855.274       -2898.471          45.000  
G28  21813231.444   114629306.975         512.042          52.000    21813228.514    89321528.578         398.994          45.000                                                                                                                                  
G32  23612656.245   124085357.662        2086.774          50.000    23612656.906    96689900.433        1626.057          40.000    23612657.531    96689900.431        1626.057          43.000    23612655.798    92661154.492        1558.219          46.000  
R03  22803523.762   122069061.607       -3597.030          50.000    22803522.369    94942598.946       -2797.691          42.000    22803522.547    94942602.952       -2797.691          41.000  
R05  21707057.391   116036685.947        3811.754          50.000    21707058.945    90250768.401        2964.698          46.000    21707059.017    90250768.399        2964.698          45.000  
R11  21121760.135   112868293.729       -1642.468          51.000    21121761.832    87786455.276       -1277.476          47.000    21121761.832    87786454.269       -1277.476          47.000  
R12  21904271.990   117008695.356        2206.857          52.000    21904274.366    91006791.807        1716.448          44.000    21904274.474    91006798.793        1716.447          43.000  
R19  22670763.784   121273291.367       -3946.640          40.000    22670764.069    94323676.906       -3069.610          39.000    22670763.819    94323672.891       -3069.611          39.000  
R20  19353168.869   103490101.581        -761.311          47.000    19353171.835    80492305.701        -592.132          48.000    19353170.763    80492303.699        -592.131          48.000  
R21  21078347.486   112794498.597        3288.270          52.000    21078348.272    87729052.621        2557.544          48.000    21078348.308    87729058.620        2557.544          47.000  
E01  25411785.724   133539833.246        -284.074          51.000    25411786.099   102322727.526        -217.611          50.000    25411786.260   101022019.632        -214.849          54.000    25411787.672    99721314.377        -212.089          51.000  
E03  25684047.057   134970601.950        1175.356          52.000    25684048.790   103419042.763         900.563          50.000    25684048.844   102104397.000         889.084          53.000    25684050.023   100789755.869         877.617          50.000  
E05  26912792.141   141427687.465       -1587.446          49.000    26912794.089   108366678.741       -1216.431          47.000    26912793.982   106989139.149       -1200.958          50.000    26912795.000   105611600.189       -1185.459          47.000  
E08  25457259.368   133778813.484        3123.733          45.000    25457259.886   102505852.444        2393.696          43.000    25457260.368   101202813.936        2363.234          46.000    25457261.566    99899778.064        2332.790          43.000  
E13  23211525.967   121977390.817         292.584          54.000    23211525.824    93463219.840         224.158          54.000    23211526.253    92275126.158         221.314          57.000    23211527.217    91087037.115         218.469          54.000  
E15  24903297.194   130867720.271       -2325.219          52.000    24903298.767   100275278.503       -1781.673          51.000    24903299.124    99000594.735       -1759.025          53.000    24903300.053    97725911.598       -1736.358          50.000  
E18  17921760.403    94179485.709       -2468.509          55.000    17921760.206    72163496.600       -1891.420          57.000    17921760.331    71246164.753       -1867.368          59.000    17921761.332    70328837.546       -1843.331          57.000  
E21  26442548.360   138956518.789       -2835.138          51.000    26442549.682   106473173.427       -2172.366          48.000    26442549.861   105119702.477       -2144.795          50.000    26442550.468   103766234.164       -2117.206          47.000  
E26  24748310.724   130053247.112        2638.112          51.000    24748312.422    99651202.085        2021.347          48.000    24748312.725    98384449.343        1995.739          51.000    24748313.798    97117698.251        1970.039          48.000  
E31  27430536.807   144148448.305        2335.741          47.000    27430539.094   110451419.207        1789.736          44.000    27430539.344   109047376.608        1767.008          47.000    27430540.470   107643338.646        1744.301          44.000  
C06  39273581.349   204507846.828        -158.772          46.000    39273575.970   158138433.072        -122.666          43.000  
C09  38996564.676   203065354.978         803.553          47.000    38996561.263   157023017.719         621.501          45.000  
C11  21979897.573   114455114.478       -1272.712          50.000    21979894.874    88503947.066        -984.176          52.000  
C16  39130279.039   203761637.780          34.383          47.000    39130279.254   157561432.993          26.723          44.000  
C21  22955797.286   119536884.298         317.635          52.000                                                                  
C22  25229254.494   131375354.004       -2568.640          51.000                                                                  
C23  26353426.929   137229197.330       -3187.198          43.000                                                                  
C28  24276135.265   126412202.249        2929.175          50.000                                                                  
> 2019 09 27 10 05  0.0000000  0 38
G01  20442716.409   107427206.181        1374.537          54.000    20442717.552    83709531.736        1071.068          50.000    20442717.677    83709527.741        1071.068          52.000    20442715.944    80221635.663        1026.409          56.000  
G03  24561581.024   129071980.745        3995.492          46.000    24561582.722   100575578.080        3113.373          43.000    24561583.222   100575581.084        3113.373          45.000    24561582.293    96384931.390        2983.687          46.000  
G08  22072863.773   115993676.573       -2915.873          53.000    22072864.703    90384689.494       -2272.110          48.000    22072865.435    90384692.506       -2272.110          49.000    22072863.470    86618644.464       -2177.453          53.000  
G10  23432643.868   123139380.305       -2876.261          45.000    23432644.905    95952756.596       -2241.244          45.000    23432644.958    95952773.608       -2241.243          48.000    23432642.814    91954738.640       -2147.894          50.000  
G11  20147266.159   105874606.157         513.771          51.000    20147263.657    82499685.909         400.342          49.000                                                                                                                                  
G14  24863431.243   130658222.914        2998.111          42.000    24863430.421   101811602.159        2336.192          37.000                                                                                                                                  
G17  24371174.898   128071386.486        3371.037          50.000    24371173.111    99795874.113        2626.782          39.000    24371173.522    99795881.119        2626.782          42.000                                                                  
G18  19931880.050   104742774.958        -445.045          54.000    19931878.531    81617718.776        -346.789          48.000                                                                                                                                  
G22  23010137.289   120919107.336        3143.798          49.000    23010134.144    94222671.149        2449.715          45.000                                                                                                                                  
G24  24458431.303   128529923.223        1542.395          44.000    24458432.751   100153187.215        1201.864          40.000    24458433.322   100153208.210        1201.864          43.000    24458433.733    95980150.659        1151.840          47.000  
G27  25267944.181   132783920.310       -3882.657          44.000    25267946.504   103467982.786       -3025.449          39.000    25267946.897   103467989.788       -3025.451          41.000    25267946.361    99156818.570       -2899.356          45.000  
G28  21810358.266   114614208.263         494.160          51.000    21810355.336    89309763.341         385.060          45.000                                                                                                                                  
G32  23600786.728   124022982.971        2071.554          49.000    23600787.497    96641296.798        1614.198          41.000    23600788.087    96641296.803        1614.198          44.000    23600786.032    92614576.006        1546.741          45.000  
R03  22823723.799   122177193.458       -3612.195          49.000    22823722.334    95026701.489       -2809.485          42.000    22823722.513    95026705.483       -2809.485          42.000  
R05  21685707.250   115922556.817        3796.471          51.000    21685708.876    90162001.356        2952.811          46.000    21685708.947    90162001.354        2952.812          46.000  
R11  21131053.117   112917953.150       -1668.503          51.000    21131054.886    87825079.256       -1297.725          48.000    21131054.903    87825078.256       -1297.725          47.000  
R12  21891944.884   116942844.001        2182.929          51.000    21891946.885    90955574.126        1697.836          44.000    21891946.956    90955581.112        1697.835          44.000  
R19  22692914.064   121391779.040       -3952.707          39.000    22692914.278    94415833.906       -3074.329          39.000    22692914.046    94415829.910       -3074.329          38.000  
R20  19357495.103   103513235.937        -781.231          47.000    19357498.122    80510299.096        -607.625          49.000    19357497.050    80510297.091        -607.625          49.000  
R21  21059942.857   112696010.541        3277.239          52.000    21059943.357    87652450.811        2548.965          48.000    21059943.393    87652456.805        2548.965          48.000  
E01  25413450.760   133548583.293        -299.676          51.000    25413451.189   102329432.108        -229.597          51.000    25413451.349   101028638.979        -226.676          53.000    25413452.743    99727848.492        -223.788          51.000  
E03  25677376.747   134935546.542        1161.283          52.000    25677377.766   103392182.114         889.857          50.000    25677377.998   102077877.798         878.518          52.000    25677379.142   100763578.118         867.255          49.000  
E05  26921890.619   141475500.250       -1600.270          48.000    26921892.441   108403314.508       -1226.188          48.000    26921892.477   107025309.206       -1210.588          49.000    26921893.353   105647304.544       -1195.052          46.000  
E08  25439436.000   133685150.856        3119.928          46.000    25439436.215   102434085.023        2390.591          43.000    25439436.911   101131958.817        2360.264          46.000    25439438.037    99829835.255        2329.854          44.000  
E13  23209885.805   121968771.714         281.780          54.000    23209885.644    93456615.597         215.877          54.000    23209886.091    92268605.869         213.149          56.000    23209887.038    91080600.774         210.413          54.000  
E15  24916588.460   130937566.848       -2331.550          52.000    24916590.193   100328797.280       -1786.510          51.000    24916590.515    99053433.186       -1763.815          53.000    24916591.426    97778069.726       -1741.097          50.000  
E18  17935987.879    94254252.069       -2516.227          55.000    17935987.772    72220785.087       -1928.019          57.000    17935987.915    71302725.001       -1903.505          59.000    17935988.880    70384669.548       -1879.000          56.000  
E21  26458755.260   139041686.562       -2842.903          50.000    26458756.493   106538431.819       -2178.422          48.000    26458756.689   105184131.311       -2150.666          49.000    26458757.189   103829833.447       -2122.967          46.000  
E26  24733263.381   129974172.319        2633.189          51.000    24733264.900    99590612.287        2017.670          48.000    24733265.239    98324629.769        1992.049          50.000    24733266.436    97058648.889        1966.410          48.000  
E31  27417230.013   144078520.707        2325.722          46.000    27417232.265   110397838.370        1782.106          45.000    27417232.426   108994476.890        1759.393          46.000    27417233.641   107591120.053        1736.681          44.000  
C06  39274510.145   204512683.412        -164.028          45.000    39274504.731   158142173.030        -126.837          43.000  
C09  38991948.875   203041318.939         798.478          47.000    38991945.426   157004431.550         617.352          45.000  
C11  21987266.293   114493484.827       -1285.589          50.000    21987263.523    88533617.442        -994.096          53.000  
C16  39130096.061   203760685.231          28.786          47.000    39130096.364   157560696.429          22.219          44.000  
C21  22954017.496   119527616.759         299.860          52.000                                                                  
C22  25244083.603   131452573.624       -2579.667          50.000                                                                  
C23  26371801.091   137324876.104       -3191.844          42.000                                                                  
C28  24259276.057   126324412.364        2923.298          49.000                                                                  
> 2019 09 27 10 05 30.0000000  0 38
G01  20434919.261   107386232.006        1356.841          54.000    20434920.422    83677603.809        1057.278          50.000    20434920.547    83677599.815        1057.278          51.000    20434918.814    80191038.060        1013.298          56.000  
G03  24538777.542   128952148.394        3992.920          45.000    24538779.526   100482202.298        3111.369          40.000    24538780.026   100482205.311        3111.369          43.000    24538779.222    96295446.240        2981.863          47.000  
G08  22089539.914   116081311.102       -2926.572          53.000    22089541.111    90452976.106       -2280.448          47.000    22089541.844    90452979.113       -2280.448          49.000    22089539.825    86684085.787       -2185.385          52.000  
G10  23449097.039   123225843.159       -2888.070          47.000    23449098.326    96020130.214       -2250.445          45.000    23449098.362    96020147.226       -2250.445          48.000    23449096.146    92019305.015       -2156.636          49.000  
G11  20144387.638   105859479.501         494.539          51.000    20144385.136    82487898.913         385.356          49.000                                                                                                                                  
G14  24846335.252   130568383.608        2991.050          43.000    24846334.698   101741597.559        2330.690          35.000                                                                                                                                  
G17  24351939.413   127970303.852        3367.790          46.000    24351938.002    99717108.500        2624.257          41.000    24351938.359    99717115.506        2624.258          42.000                                                                  
G18  19934477.581   104756424.677        -465.086          54.000    19934475.937    81628354.921        -362.405          48.000                                                                                                                                  
G22  22992218.251   120824942.394        3133.794          49.000    22992215.284    94149295.902        2441.919          45.000                                                                                                                                  
G24  24449675.553   128483911.908        1524.928          44.000    24449677.108   100117334.313        1188.255          39.000    24449677.608   100117355.325        1188.257          42.000    24449678.037    95945791.635        1138.617          46.000  
G27  25290111.705   132900411.283       -3883.465          44.000    25290113.903   103558754.916       -3026.079          40.000    25290114.332   103558761.913       -3026.078          41.000    25290113.939    99243808.469       -2900.085          44.000  
G28  21807587.299   114599646.923         476.437          52.000    21807584.440    89298416.842         371.249          45.000                                                                                                                                  
G32  23589005.574   123961072.130        2055.846          50.000    23589006.521    96593054.603        1601.959          42.000    23589006.986    96593054.613        1601.959          44.000    23589004.663    92568343.872        1535.282          45.000  
R03  22844009.018   122285781.379       -3627.164          49.000    22844007.499    95111158.726       -2821.129          42.000    22844007.696    95111162.725       -2821.128          42.000  
R05  21664443.184   115808888.694        3781.194          51.000    21664444.828    90073592.846        2940.932          46.000    21664444.899    90073592.837        2940.931          46.000  
R11  21140492.124   112968392.411       -1694.357          52.000    21140493.911    87864309.799       -1317.831          48.000    21140493.893    87864308.790       -1317.833          47.000  
R12  21879752.009   116877711.677        2159.061          51.000    21879753.921    90904915.633        1679.269          44.000    21879753.993    90904922.623        1679.269          44.000  
R19  22715096.704   121510441.049       -3958.448          39.000    22715096.901    94508126.571       -3078.794          39.000    22715096.544    94508122.566       -3078.795          39.000  
R20  19361933.571   103536970.248        -801.140          47.000    19361936.555    80528759.106        -623.110          49.000    19361935.519    80528757.104        -623.110          49.000  
R21  21041600.609   112597856.574        3266.212          52.000    21041600.877    87576108.840        2540.386          48.000    21041600.895    87576114.829        2540.386          48.000  
E01  25415205.212   133557803.051        -315.154          51.000    25415205.659   102336496.587        -241.427          50.000    25415205.837   101035613.660        -238.379          54.000    25415207.249    99734733.372        -235.323          50.000  
E03  25670786.455   134900914.003        1147.341          50.000    25670787.205   103365645.493         879.166          50.000    25670787.616   102051678.509         867.988          53.000    25670788.599   100737716.159         856.853          48.000  
E05  26931061.662   141523694.498       -1612.852          49.000    26931063.592   108440242.553       -1235.785          47.000    26931063.557   107061767.826       -1220.075          50.000    26931064.593   105683293.735       -1204.358          46.000  
E08  25421635.594   133591609.173        3116.049          47.000    25421635.987   102362410.297        2387.619          43.000    25421636.345   101061195.217        2357.287          46.000    25421637.738    99759982.766        2327.006          43.000  
E13  23208307.380   121960476.891         271.038          54.000    23208307.202    93450259.814         207.754          54.000    23208307.630    92262330.878         205.125          57.000    23208308.613    91074406.580         202.464          53.000  
E15  24929915.731   131007602.742       -2337.628          52.000    24929917.679   100382461.115       -1791.216          51.000    24929917.911    99106414.850       -1768.444          54.000    24929918.858    97830369.224       -1745.657          49.000  
E18  17950487.377    94330447.874       -2563.599          55.000    17950487.341    72279168.881       -1964.315          57.000    17950487.502    71360366.624       -1939.339          60.000    17950488.449    70441569.004       -1914.371          55.000  
E21  26475006.636   139127087.797       -2850.549          51.000    26475007.833   106603869.091       -2184.242          48.000    26475007.994   105248736.753       -2156.490          50.000    26475008.637   103893607.052       -2128.713          46.000  
E26  24718243.520   129895242.473        2628.586          50.000    24718245.074    99530133.587        2014.115          48.000    24718245.378    98264919.860        1988.562          51.000    24718246.468    96999707.777        1962.932          47.000  
E31  27403980.919   144008896.549        2315.632          46.000    27403983.099   110344490.016        1774.433          44.000    27403983.403   108941806.687        1751.941          47.000    27403984.350   107539128.000        1729.325          43.000  
C06  39275469.622   204517679.766        -169.316          45.000    39275464.190   158146036.526        -130.879          43.000  
C09  38987363.809   203017443.313         793.255          47.000    38987360.307   156985969.392         613.351          45.000  
C11  21994708.866   114532240.107       -1298.203          50.000    21994706.097    88563585.486       -1003.865          52.000  
C16  39129946.926   203759908.429          23.030          47.000    39129947.283   157560095.747          17.884          43.000  
C21  22952340.381   119518883.886         282.200          52.000                                                                  
C22  25258976.880   131530126.254       -2590.622          50.000                                                                  
C23  26390201.414   137420692.410       -3195.859          42.000                                                                  
C28  24242451.103   126236801.036        2917.397          49.000                                                                  
> 2019 09 27 10 06  0.0000000  0 38
G01  20427224.198   107345794.661        1339.109          54.000    20427225.449    83646094.190        1043.460          50.000    20427225.574    83646090.195        1043.461          52.000    20427223.859    80160841.341        1000.025          57.000  
G03  24515991.339   128832406.774        3990.000          45.000    24515993.180   100388897.205        3109.093          38.000    24515993.787   100388900.221        3109.093          41.000    24515993.645    96206028.899        2979.587          49.000  
G08  22106278.721   116169274.087       -2937.357          53.000    22106280.008    90521518.669       -2288.851          48.000    22106280.723    90521521.673       -2288.852          49.000    22106278.668    86749772.408       -2193.448          53.000  
G10  23465619.238   123312667.730       -2900.070          47.000    23465620.489    96087785.703       -2259.794          45.000    23465620.561    96087802.713       -2259.794          48.000    23465618.434    92084141.510       -2165.539          50.000  
G11  20141621.192   105844941.677         474.868          51.000    20141618.690    82476570.725         370.027          50.000                                                                                                                                  
G14  24829281.039   130478763.660        2984.083          44.000    24829280.467   101671763.884        2325.259          37.000                                                                                                                                  
G17  24332725.568   127869333.628        3363.994          50.000    24332723.924    99638430.406        2621.292          39.000    24332724.317    99638437.407        2621.292          42.000                                                                  
G18  19937190.456   104770680.702        -485.142          54.000    19937188.740    81639463.508        -378.034          48.000                                                                                                                                  
G22  22974357.054   120731081.990        3123.733          50.000    22974354.374    94076157.966        2434.078          45.000                                                                                                                                  
G24  24441023.158   128438443.460        1506.648          43.000    24441024.713   100081904.379        1174.012          39.000    24441025.195   100081925.390        1174.013          42.000    24441025.713    95911837.937        1125.187          48.000  
G27  25312286.555   133016940.504       -3884.713          45.000    25312288.646   103649556.799       -3027.054          39.000    25312289.182   103649563.796       -3027.054          42.000    25312288.914    99330826.887       -2900.790          44.000  
G28  21804919.454   114585627.745         458.532          52.000    21804916.684    89287492.810         357.298          45.000                                                                                                                                  
G32  23577313.855   123899631.459        2040.253          50.000    23577314.784    96545178.765        1589.809          41.000    23577315.213    96545178.769        1589.810          44.000    23577313.247    92522462.871        1523.649          47.000  
R03  22864379.275   122394825.392       -3642.177          48.000    22864377.900    95195970.692       -2832.806          41.000    22864377.971    95195974.691       -2832.806          41.000  
R05  21643266.962   115695690.172        3765.593          51.000    21643268.767    89985549.588        2928.794          46.000    21643268.767    89985549.591        2928.795          45.000  
R11  21150077.515   113019613.835       -1720.202          52.000    21150079.337    87904148.659       -1337.936          47.000    21150079.373    87904147.654       -1337.936          47.000  
R12  21867694.618   116813305.497        2134.939          50.000    21867696.798    90854821.956        1660.507          43.000    21867696.887    90854828.944        1660.508          44.000  
R19  22737312.314   121629279.597       -3963.991          40.000    22737312.653    94600556.466       -3083.107          39.000    22737312.331    94600552.484       -3083.105          38.000  
R20  19366484.847   103561307.781        -821.120          47.000    19366487.831    80547688.293        -638.649          48.000    19366486.795    80547686.291        -638.649          48.000  
R21  21023321.974   112500043.096        3254.997          53.000    21023322.153    87500031.697        2531.665          48.000    21023322.171    87500037.695        2531.665          47.000  
E01  25417049.813   133567496.482        -330.738          51.000    25417050.242   102343924.021        -253.478          50.000    25417050.439   101042946.675        -250.232          54.000    25417051.850    99741971.966        -246.999          51.000  
E03  25664276.823   134866709.274        1133.186          49.000    25664278.235   103339436.711         868.283          50.000    25664278.664   102025802.887         857.246          53.000    25664279.504   100712173.697         846.245          50.000  
E05  26940305.826   141572272.980       -1625.563          49.000    26940307.720   108477465.022       -1245.484          47.000    26940307.774   107098517.132       -1229.713          50.000    26940308.757   105719569.872       -1213.899          46.000  
E08  25403859.151   133498194.385        3111.785          46.000    25403859.830   102290832.804        2384.431          43.000    25403860.151   100990527.610        2354.162          46.000    25403861.581    99690225.060        2323.793          44.000  
E13  23206791.426   121952510.553         260.259          54.000    23206791.283    93444155.739         199.451          54.000    23206791.694    92256304.397         196.921          57.000    23206792.659    91068457.691         194.381          54.000  
E15  24943279.794   131077831.235       -2343.985          52.000    24943281.742   100436272.531       -1795.984          51.000    24943281.957    99159542.220       -1773.145          53.000    24943282.922    97882812.548       -1750.320          50.000  
E18  17965258.554    94408071.095       -2610.980          55.000    17965258.518    72338646.405       -2000.598          57.000    17965258.715    71419088.082       -1975.167          59.000    17965259.608    70499534.392       -1949.740          56.000  
E21  26491302.899   139212724.759       -2858.389          51.000    26491303.774   106669486.993       -2190.080          47.000    26491304.292   105313520.523       -2162.301          50.000    26491304.775   103957556.692       -2134.413          47.000  
E26  24703252.124   129816462.537        2623.682          51.000    24703253.607    99469769.735        2010.331          48.000    24703254.018    98205323.356        1984.778          51.000    24703255.198    96940878.614        1959.233          49.000  
E31  27390790.757   143939581.634        2305.417          47.000    27390792.883   110291378.613        1766.562          44.000    27390793.276   108889370.428        1744.136          47.000    27390793.955   107487366.880        1721.734          44.000  
C06  39276460.567   204522839.726        -174.585          45.000    39276455.152   158150026.518        -134.858          43.000  
C09  38982810.246   202993732.245         787.863          47.000    38982806.815   156967634.490         609.126          45.000  
C11  22002225.953   114571383.805       -1311.099          49.000    22002223.237    88593853.860       -1013.730          52.000  
C16  39129832.296   203759311.274          17.053          47.000    39129832.546   157559634.012          13.276          44.000  
C21  22950766.745   119510689.858         264.291          52.000                                                                  
C22  25273934.414   131608013.909       -2601.772          50.000                                                                  
C23  26408628.844   137516647.835       -3200.511          43.000                                                                  
C28  24225661.512   126149373.608        2911.296          48.000                                                                  
> 2019 09 27 10 06 30.0000000  0 38
G01  20419631.132   107305893.108        1321.004          55.000    20419632.419    83615002.066        1029.354          50.000    20419632.544    83614998.069        1029.354          52.000    20419630.864    80131044.727         986.389          56.000  
G03  24493222.738   128712756.318        3986.859          47.000    24493223.685   100295663.095        3106.642          34.000    24493224.382   100295666.102        3106.642          38.000    24493225.168    96116679.659        2977.042          48.000  
G08  22123079.355   116257561.760       -2948.344          53.000    22123080.606    90590314.224       -2297.413          48.000    22123081.357    90590317.233       -2297.413          49.000    22123079.266    86815701.481       -2201.773          52.000  
G10  23482209.447   123399849.603       -2912.167          48.000    23482210.590    96155719.589       -2269.220          44.000    23482210.715    96155736.597       -2269.220          47.000    23482208.643    92149244.824       -2174.616          50.000  
G11  20138966.588   105830991.198         455.065          52.000    20138964.032    82465700.217         354.596          49.000                                                                                                                                  
G14  24812268.603   130389363.770        2976.206          43.000    24812268.139   101602101.694        2319.126          36.000                                                                                                                                  
G17  24313533.004   127768475.958        3360.011          48.000    24313531.092    99559839.988        2618.190          39.000    24313531.592    99559846.983        2618.190          42.000                                                                  
G18  19940018.157   104785540.465        -505.390          54.000    19940016.460    81651042.536        -393.810          48.000                                                                                                                                  
G22  22956553.968   120637526.648        3113.398          50.000    22956551.448    94003257.733        2426.025          45.000                                                                                                                                  
G24  24432474.046   128393517.477        1488.398          44.000    24432475.600   100046897.113        1159.789          39.000    24432476.101   100046918.127        1159.791          42.000    24432476.404    95878289.313        1111.419          47.000  
G27  25334468.177   133133504.428       -3885.760          44.000    25334470.179   103740385.732       -3027.869          37.000    25334470.697   103740392.729       -3027.869          41.000    25334470.375    99417871.323       -2901.958          44.000  
G28  21802354.570   114572149.460         440.344          52.000    21802351.890    89276990.245         343.127          45.000                                                                                                                                  
G32  23565711.266   123838661.482        2024.358          49.000    23565712.499    96497669.704        1577.425          41.000    23565712.892    96497669.701        1577.423          44.000    23565711.141    92476933.372        1511.526          46.000  
R03  22884833.660   122504319.554       -3657.263          48.000    22884832.391    95281132.734       -2844.542          41.000    22884832.391    95281136.740       -2844.541          42.000  
R05  21622178.996   115582963.308        3749.535          51.000    21622180.657    89897873.169        2916.307          46.000    21622180.657    89897873.173        2916.307          45.000  
R11  21159808.592   113071612.560       -1746.173          52.000    21159810.146    87944592.109       -1358.135          47.000    21159810.110    87944591.102       -1358.134          47.000  
R12  21855773.639   116749626.479        2110.356          51.000    21855775.998    90805293.803        1641.388          43.000    21855776.087    90805300.793        1641.388          43.000  
R19  22759560.087   121748290.744       -3969.883          39.000    22759560.534    94693120.708       -3087.687          39.000    22759560.123    94693116.701       -3087.687          38.000  
R20  19371148.466   103586246.119        -841.286          47.000    19371151.450    80567084.776        -654.332          49.000    19371150.378    80567082.772        -654.333          49.000  
R21  21005106.936   112402570.320        3243.319          53.000    21005107.043    87424219.538        2522.582          48.000    21005107.061    87424225.539        2522.583          47.000  
E01  25418984.153   133577661.473        -346.763          51.000    25418984.564   102351712.776        -265.787          50.000    25418984.796   101050636.414        -262.390          54.000    25418986.190    99749562.691        -259.031          51.000  
E03  25657848.978   134832931.360        1118.781          51.000    25657850.658   103313554.963         857.103          50.000    25657850.962   102000250.139         846.249          53.000    25657851.784   100686949.955         835.402          49.000  
E05  26949622.431   141621232.459       -1638.358          49.000    26949624.397   108514979.421       -1255.504          47.000    26949624.486   107135554.642       -1239.522          50.000    26949625.397   105756130.496       -1223.522          46.000  
E08  25386107.116   133404906.427        3107.351          45.000    25386107.402   102219352.470        2380.838          43.000    25386107.920   100919955.922        2350.774          46.000    25386109.332    99620562.022        2320.503          43.000  
E13  23205337.638   121944870.854         249.149          54.000    23205337.513    93438301.942         190.861          54.000    23205337.906    92250525.006         188.438          57.000    23205338.853    91062752.712         185.985          54.000  
E15  24956680.025   131148249.569       -2350.502          52.000    24956681.901   100490229.416       -1801.124          51.000    24956682.151    99212813.210       -1778.227          54.000    24956683.116    97935397.640       -1755.319          50.000  
E18  17980299.769    94487113.586       -2658.374          55.000    17980299.804    72399211.419       -2037.036          57.000    17980299.983    71478883.198       -2011.118          60.000    17980300.841    70558559.611       -1985.221          56.000  
E21  26507643.227   139298593.680       -2866.193          51.000    26507644.192   106735282.629       -2196.209          48.000    26507644.674   105378479.774       -2168.292          50.000    26507645.317   104021679.547       -2140.350          46.000  
E26  24688288.980   129737831.356        2618.406          50.000    24688290.588    99409519.883        2006.276          48.000    24688290.910    98145839.394        1980.773          51.000    24688292.107    96882160.534        1955.322          48.000  
E31  27377659.384   143870575.738        2294.980          47.000    27377661.349   110238503.990        1758.394          44.000    27377661.850   108837167.943        1736.070          47.000    27377662.636   107435836.536        1713.663          44.000  
C06  39277482.496   204528161.251        -180.057          46.000    39277477.171   158154141.477        -139.286          43.000  
C09  38978287.918   202970183.953         782.194          47.000    38978284.612   156949425.464         604.685          45.000  
C11  22009817.197   114610913.532       -1324.129          49.000    22009814.516    88624420.759       -1023.952          52.000  
C16  39129751.796   203758891.744          11.036          47.000    39129751.885   157559309.616           8.422          44.000  
C21  22949296.303   119503032.931         246.163          52.000                                                                  
C22  25288955.454   131686232.544       -2612.896          50.000                                                                  
C23  26427082.327   137612738.047       -3205.130          44.000                                                                  
C28  24208907.230   126062129.575        2904.936          49.000                                                                  
> 2019 09 27 10 07  0.0000000  0 38
G01  20412140.652   107266530.584        1303.000          54.000    20412141.974    83584329.979        1015.325          50.000    20412142.082    83584325.984        1015.325          52.000    20412140.420    80101650.641         973.001          56.000  
G03  24470472.416   128593202.018        3983.300          48.000    24470472.612   100202503.907        3103.872          37.000    24470473.345   100202506.903        3103.870          39.000    24470474.864    96027402.194        2974.578          47.000  
G08  22139942.049   116346174.954       -2959.337          53.000    22139943.210    90659363.452       -2305.979          47.000    22139943.961    90659366.461       -2305.978          49.000    22139941.781    86881873.650       -2209.856          52.000  
G10  23498867.683   123487388.768       -2924.061          48.000    23498868.790    96223931.907       -2278.490          45.000    23498868.862    96223948.915       -2278.489          47.000    23498866.753    92214614.960       -2183.550          49.000  
G11  20136424.237   105817630.883         435.367          51.000    20136421.646    82455289.587         339.247          49.000                                                                                                                                  
G14  24795299.089   130300189.266        2968.504          43.000    24795298.660   101532615.079        2313.117          36.000                                                                                                                                  
G17  24294362.116   127667734.360        3355.809          49.000    24294360.865    99481340.140        2614.919          41.000    24294361.294    99481347.137        2614.919          43.000                                                                  
G18  19942961.060   104801005.785        -525.737          54.000    19942959.381    81663093.442        -409.666          48.000                                                                                                                                  
G22  22938809.849   120544280.813        3102.948          49.000    22938807.330    93930598.692        2417.884          45.000                                                                                                                                  
G24  24424028.931   128349138.115        1470.121          44.000    24424030.539   100012315.782        1145.547          40.000    24424030.968   100012336.796        1145.548          42.000    24424031.200    95845148.893        1097.729          47.000  
G27  25356656.214   133250103.991       -3887.163          44.000    25356658.269   103831242.452       -3028.963          38.000    25356658.841   103831249.463       -3028.962          40.000    25356658.734    99504942.287       -2902.889          45.000  
G28  21799893.184   114559215.077         422.103          51.000    21799890.610    89266911.506         328.911          45.000                                                                                                                                  
G32  23554199.452   123778166.971        2008.357          50.000    23554200.506    96450531.123        1564.953          41.000    23554201.006    96450531.121        1564.952          44.000    23554199.112    92431758.886        1499.759          46.000  
R03  22905371.904   122614262.448       -3672.275          48.000    22905370.653    95366643.814       -2856.213          41.000    22905370.635    95366647.817       -2856.214          41.000  
R05  21601180.517   115470714.555        3733.590          51.000    21601182.090    89810568.636        2903.907          45.000    21601182.197    89810568.625        2903.905          45.000  
R11  21169685.051   113124388.957       -1772.320          52.000    21169686.552    87985640.407       -1378.472          47.000    21169686.570    87985639.402       -1378.472          46.000  
R12  21843989.947   116686680.019        2085.853          50.000    21843992.253    90756335.471        1622.330          44.000    21843992.413    90756342.463        1622.330          43.000  
R19  22781840.382   121867474.998       -3975.911          38.000    22781841.115    94785819.491       -3092.378          39.000    22781840.668    94785815.490       -3092.378          38.000  
R20  19375924.784   103611786.986        -861.586          47.000    19375927.750    80586949.897        -670.122          48.000    19375926.642    80586947.893        -670.122          48.000  
R21  20986956.440   112305443.069        3231.703          53.000    20986956.493    87348676.137        2513.548          48.000    20986956.458    87348682.131        2513.548          47.000  
E01  25421008.695   133588300.316        -362.699          51.000    25421009.053   102359864.600        -277.846          50.000    25421009.321   101058684.618        -274.310          54.000    25421010.697    99757507.275        -270.804          51.000  
E03  25651503.492   134799583.613        1104.367          51.000    25651504.939   103288002.791         846.155          50.000    25651505.118   101975022.783         835.424          53.000    25651506.029   100662047.421         824.600          50.000  
E05  26959011.888   141670574.132       -1651.240          49.000    26959013.907   108552786.657       -1265.246          47.000    26959013.871   107172881.280       -1249.091          50.000    26959014.818   105792976.542       -1232.989          46.000  
E08  25368379.920   133311749.571        3103.028          46.000    25368380.295   102147972.634        2377.495          42.000    25368380.742   100849483.461        2347.345          46.000    25368381.832    99550996.932        2317.094          43.000  
E13  23203946.499   121937560.351         238.083          54.000    23203946.392    93432700.385         182.400          54.000    23203946.767    92244994.658         180.093          57.000    23203947.696    91057293.568         177.767          54.000  
E15  24970116.744   131218859.385       -2357.003          53.000    24970118.584   100544333.017       -1806.011          50.000    24970118.745    99266229.053       -1783.063          53.000    24970119.764    97988125.725       -1760.061          50.000  
E18  17995610.376    94567571.501       -2705.524          55.000    17995610.430    72460860.973       -2073.080          56.000    17995610.609    71539749.073       -2046.721          59.000    17995611.431    70618641.808       -2020.368          56.000  
E21  26524027.870   139384695.198       -2873.959          51.000    26524028.835   106801256.489       -2202.170          47.000    26524029.192   105443614.984       -2174.140          50.000    26524029.782   104085976.119       -2146.187          46.000  
E26  24673354.783   129659352.227        2613.202          50.000    24673356.534    99349386.526        2002.333          48.000    24673356.838    98086470.436        1976.958          51.000    24673357.946    96823555.991        1951.512          48.000  
E31  27364587.729   143801883.030        2284.493          47.000    27364589.659   110185869.335        1750.379          44.000    27364590.070   108785202.368        1728.184          47.000    27364590.784   107384540.046        1705.904          44.000  
C06  39278535.929   204533646.675        -185.782          46.000    39278530.621   158158383.132        -143.557          43.000  
C09  38973797.271   202946800.936         776.579          47.000    38973794.198   156931344.232         600.496          45.000  
C11  22017482.918   114650830.985       -1337.212          49.000    22017480.256    88655287.459       -1033.974          52.000  
C16  39129705.819   203758652.184           4.854          48.000    39129705.837   157559124.377           3.804          44.000  
C21  22947929.520   119495915.622         228.098          52.000                                                                  
C22  25304040.090   131764782.517       -2623.947          50.000                                                                  
C23  26445561.470   137708963.067       -3209.947          43.000                                                                  
C28  24192188.668   125975072.725        2898.566          49.000                                                                  
> 2019 09 27 10 07 30.0000000  0 38
G01  20404752.008   107227702.872        1285.401          54.000    20404753.294    83554074.612        1001.611          50.000    20404753.419    83554070.618        1001.611          52.000    20404751.757    80072655.915         959.907          57.000  
G03  24447739.766   128473741.116        3980.568          47.000    24447740.124   100109417.543        3101.745          41.000    24447740.838   100109420.538        3101.745          43.000    24447741.928    95938194.448        2972.517          45.000  
G08  22156865.264   116435106.703       -2969.504          54.000    22156866.265    90728660.887       -2313.900          47.000    22156867.051    90728663.894       -2313.900          49.000    22156864.889    86948283.691       -2217.516          52.000  
G10  23515592.284   123575277.594       -2935.152          48.000    23515593.463    96292416.674       -2287.131          45.000    23515593.499    96292433.680       -2287.131          47.000    23515591.408    92280246.184       -2191.874          50.000  
G11  20133993.353   105804856.504         416.183          52.000    20133990.744    82445335.516         324.298          49.000                                                                                                                                  
G14  24778372.175   130211237.657        2961.604          44.000    24778371.728   101463302.214        2307.745          35.000                                                                                                                                  
G17  24275213.456   127567105.873        3352.531          51.000    24275211.919    99402928.302        2612.362          42.000    24275212.313    99402935.299        2612.362          43.000                                                                  
G18  19946018.075   104817070.784        -545.293          53.000    19946016.431    81675611.621        -424.904          48.000                                                                                                                                  
G22  22921124.073   120451341.708        3092.995          49.000    22921121.554    93858178.628        2410.126          45.000                                                                                                                                  
G24  24415687.296   128305302.203        1452.337          44.000    24415688.779    99978157.932        1131.693          39.000    24415689.297    99978178.945        1131.692          42.000    24415689.690    95812414.275        1084.467          48.000  
G27  25378849.738   133366732.384       -3887.862          44.000    25378852.203   103922121.628       -3029.508          39.000    25378852.668   103922128.628       -3029.508          42.000    25378852.382    99592034.829       -2903.383          44.000  
G28  21797534.455   114546820.099         404.257          51.000    21797531.971    89257253.083         315.006          45.000                                                                                                                                  
G32  23542777.822   123718145.077        1992.957          50.000    23542778.930    96403760.818        1552.955          42.000    23542779.431    96403760.821        1552.954          45.000    23542777.376    92386937.357        1488.181          47.000  
R03  22925992.292   122724644.511       -3686.459          47.000    22925990.988    95452496.458       -2867.250          42.000    22925990.845    95452500.466       -2867.249          42.000  
R05  21580271.401   115358943.089        3717.836          51.000    21580272.777    89723635.281        2891.650          46.000    21580272.777    89723635.277        2891.651          45.000  
R11  21179705.534   113177934.825       -1797.479          52.000    21179706.910    88027287.183       -1398.038          47.000    21179706.892    88027286.181       -1398.039          47.000  
R12  21832342.990   116624463.939        2061.874          51.000    21832345.241    90707945.170        1603.679          45.000    21832345.259    90707952.165        1603.680          44.000  
R19  22804151.930   121986825.337       -3981.102          38.000    22804152.198    94878647.532       -3096.413          38.000    22804151.751    94878643.522       -3096.413          38.000  
R20  19380812.677   103637924.711        -881.158          47.000    19380815.643    80607279.227        -685.345          49.000    19380814.517    80607277.223        -685.345          49.000  
R21  20968869.951   112208658.395        3220.599          54.000    20968869.933    87273399.154        2504.909          49.000    20968869.879    87273405.151        2504.909          48.000  
E01  25423122.333   133599407.681        -377.911          51.000    25423122.726   102368375.432        -289.561          51.000    25423123.012   101067087.261        -285.871          54.000    25423124.352    99765801.727        -282.215          51.000  
E03  25645238.737   134766661.728        1090.371          50.000    25645240.149   103262776.929         835.486          50.000    25645240.292   101950117.587         824.929          53.000    25645241.293   100637462.892         814.259          50.000  
E05  26968472.821   141720291.564       -1663.441          49.000    26968474.804   108590881.821       -1274.541          47.000    26968474.840   107210492.181       -1258.353          49.000    26968475.715   105830103.176       -1242.099          46.000  
E08  25350677.204   133218720.696        3098.961          46.000    25350677.222   102076690.773        2374.463          43.000    25350677.829   100779107.752        2344.180          46.000    25350679.116    99481527.354        2314.073          44.000  
E13  23202617.044   121930574.010         227.661          54.000    23202616.936    93427347.215         174.421          54.000    23202617.329    92239709.539         172.210          57.000    23202618.223    91052076.504         169.974          54.000  
E15  24983588.790   131289654.711       -2362.787          52.000    24983590.488   100598578.768       -1810.441          51.000    24983590.666    99319785.242       -1787.451          53.000    24983591.685    98040992.349       -1764.378          50.000  
E18  18011188.233    94649433.378       -2751.938          56.000    18011188.180    72523586.298       -2108.650          56.000    18011188.412    71601677.040       -2081.831          59.000    18011189.216    70679772.421       -2055.027          56.000  
E21  26540455.452   139471022.354       -2881.211          51.000    26540456.453   106867403.240       -2207.677          48.000    26540456.703   105508920.885       -2179.606          50.000    26540457.507   104150441.172       -2151.581          47.000  
E26  24658448.748   129581020.774        2608.782          50.000    24658450.570    99289366.336        1998.903          49.000    24658450.803    98027213.229        1973.438          51.000    24658451.982    96765061.753        1948.056          48.000  
E31  27351574.756   143733500.064        2274.232          47.000    27351576.632   110133472.025        1742.654          44.000    27351577.204   108733471.136        1720.547          47.000    27351578.008   107333474.891        1698.324          45.000  
C06  39279619.828   204539290.747        -190.602          46.000    39279614.467   158162747.491        -147.363          43.000  
C09  38969337.360   202923578.320         771.542          47.000    38969334.662   156913387.039         596.603          45.000  
C11  22025222.081   114691130.632       -1349.554          50.000    22025219.383    88686449.694       -1043.570          52.000  
C16  39129693.454   203758587.420          -0.611          48.000    39129693.507   157559074.295          -0.364          44.000  
C21  22946665.447   119489332.974         210.654          52.000                                                                  
C22  25319187.035   131843656.662       -2634.334          50.000                                                                  
C23  26464065.040   137805315.426       -3213.740          45.000                                                                  
C28  24175505.648   125888199.352        2892.881          48.000                                                                  
> 2019 09 27 10 08  0.0000000  0 38
G01  20397466.199   107189415.821        1266.960          55.000    20397467.522    83524240.546         987.241          51.000    20397467.647    83524236.549         987.241          53.000    20397465.985    80044064.937         946.083          57.000  
G03  24425026.290   128354381.126        3976.588          46.000    24425027.273   100016409.852        3098.643          42.000    24425027.827   100016412.857        3098.642          45.000    24425027.881    95849062.032        2969.616          42.000  
G08  22173849.699   116524360.862       -2980.759          53.000    22173850.753    90798209.541       -2322.672          47.000    22173851.504    90798212.548       -2322.671          49.000    22173849.413    87014934.479       -2225.909          52.000  
G10  23532383.948   123663518.685       -2947.540          48.000    23532385.163    96361175.923       -2296.788          46.000    23532385.216    96361192.924       -2296.788          48.000    23532383.126    92346140.464       -2201.083          50.000  
G11  20131675.061   105792673.496         395.980          52.000    20131672.417    82435842.263         308.554          50.000                                                                                                                                  
G14  24761489.164   130122516.856        2953.057          42.000    24761488.414   101394169.160        2301.085          37.000                                                                                                                                  
G17  24256087.062   127466596.109        3347.972          50.000    24256085.435    99324609.024        2608.809          41.000    24256085.829    99324616.025        2608.810          44.000                                                                  
G18  19949190.059   104833740.033        -565.944          54.000    19949188.486    81688600.639        -440.996          48.000                                                                                                                                  
G22  22903498.033   120358716.610        3081.911          50.000    22903495.389    93786003.271        2401.489          45.000                                                                                                                                  
G24  24407450.427   128262016.950        1433.282          43.000    24407451.695    99944429.151        1116.842          40.000    24407452.303    99944450.156        1116.842          41.000    24407452.910    95780090.848        1070.369          48.000  
G27  25401049.747   133483393.162       -3889.386          44.000    25401052.249   104013026.051       -3030.696          38.000    25401052.713   104013033.052       -3030.694          41.000    25401052.195    99679151.585       -2904.535          44.000  
G28  21795279.491   114534970.177         385.644          51.000    21795277.007    89248019.376         300.501          46.000                                                                                                                                  
G32  23531447.236   123658603.184        1976.391          49.000    23531448.790    96357364.573        1540.044          43.000    23531449.201    96357364.575        1540.044          46.000    23531447.075    92342474.273        1475.990          47.000  
R03  22946694.967   122835467.117       -3701.660          48.000    22946693.698    95538691.755       -2879.073          43.000    22946693.627    95538695.763       -2879.071          42.000  
R05  21559453.203   115247658.054        3701.166          52.000    21559454.633    89637080.286        2878.683          47.000    21559454.669    89637080.291        2878.684          46.000  
R11  21189870.524   113232253.146       -1823.713          52.000    21189871.829    88069534.760       -1418.447          48.000    21189871.775    88069533.757       -1418.445          47.000  
R12  21820834.374   116562986.094        2036.645          50.000    21820836.465    90660129.073        1584.053          45.000    21820836.518    90660136.075        1584.055          45.000  
R19  22826494.981   122106345.050       -3987.384          39.000    22826495.356    94971607.221       -3101.302          41.000    22826495.017    94971603.218       -3101.302          40.000  
R20  19385813.108   103664663.705        -901.670          48.000    19385815.985    80628076.220        -701.300          50.000    19385814.859    80628074.218        -701.299          50.000  
R21  20950848.934   112112223.651        3208.375          54.000    20950848.773    87198394.363        2495.403          48.000    20950848.702    87198400.361        2495.403          48.000  
E01  25425326.101   133610988.450        -394.126          51.000    25425326.477   102377249.015        -302.075          51.000    25425326.798   101075848.038        -298.199          53.000    25425328.067    99774449.702        -294.375          51.000  
E03  25639055.448   134734171.598        1075.543          49.000    25639057.342   103237881.925         824.085          50.000    25639057.628   101925539.051         813.636          52.000    25639058.557   100613200.819         803.170          49.000  
E05  26978005.998   141770388.491       -1676.539          49.000    26978008.035   108629267.764       -1284.614          48.000    26978007.946   107248390.170       -1268.271          49.000    26978008.750   105867513.214       -1251.957          46.000  
E08  25332999.790   133125826.543        3093.823          47.000    25333000.148   102005512.218        2370.637          44.000    25333000.469   100708834.002        2340.524          46.000    25333001.899    99412158.432        2310.363          43.000  
E13  23201350.255   121923916.991         216.130          54.000    23201350.148    93422246.380         165.602          54.000    23201350.541    92234673.545         163.470          56.000    23201351.416    91047105.349         161.368          54.000  
E15  24997096.807   131360639.831       -2369.613          52.000    24997098.450   100652969.939       -1815.634          51.000    24997098.754    99373484.998       -1792.604          53.000    24997099.755    98094000.689       -1769.497          50.000  
E18  18027032.982    94732697.809       -2799.087          55.000    18027032.821    72587386.301       -2144.742          57.000    18027033.125    71664666.030       -2117.471          59.000    18027033.893    70741950.392       -2090.203          56.000  
E21  26556926.475   139557578.394       -2889.303          51.000    26556927.439   106933725.376       -2213.832          47.000    26556927.868   105574399.941       -2185.701          49.000    26556928.529   104215077.137       -2157.549          46.000  
E26  24643571.964   129502842.960        2603.051          50.000    24643573.965    99229463.855        1994.580          49.000    24643574.126    97968072.214        1969.204          51.000    24643575.163    96706682.210        1943.841          48.000  
E31  27338622.126   143665433.581        2263.464          47.000    27338624.003   110081317.214        1734.180          44.000    27338624.378   108681979.322        1712.123          47.000    27338625.522   107282646.059        1690.141          45.000  
C06  39280735.123   204545098.273        -196.486          46.000    39280729.708   158167238.243        -152.007          43.000  
C09  38964909.255   202900521.200         765.580          47.000    38964906.753   156895557.818         591.964          46.000  
C11  22033035.472   114731816.867       -1363.002          50.000    22033032.738    88717910.872       -1053.902          53.000  
C16  39129715.593   203758702.323          -7.042          48.000    39129715.647   157559163.154          -5.459          44.000  
C21  22945504.979   119483290.110         192.128          52.000                                                                  
C22  25334396.880   131922857.906       -2645.778          50.000                                                                  
C23  26482593.644   137901797.702       -3218.496          45.000                                                                  
C28  24158858.777   125801515.816        2886.081          49.000                                                                  
> 2019 09 27 10 08 30.0000000  0 38
G01  20390283.102   107151668.194        1249.122          54.000    20390284.371    83494826.816         973.341          51.000    20390284.514    83494822.821         973.341          52.000    20390282.834    80015876.770         932.832          57.000  
G03  24402331.952   128235122.437        3973.570          46.000    24402333.310    99923481.134        3096.291          43.000    24402333.918    99923484.138        3096.291          45.000    24402332.846    95760005.251        2967.322          44.000  
G08  22190894.692   116613933.052       -2991.117          53.000    22190895.675    90868006.021       -2330.744          48.000    22190896.443    90868009.034       -2330.744          49.000    22190894.513    87081822.751       -2233.568          52.000  
G10  23549241.745   123752107.514       -2958.845          47.000    23549243.085    96430206.150       -2305.596          46.000    23549243.103    96430223.164       -2305.596          47.000    23549241.030    92412294.418       -2209.436          49.000  
G11  20129469.113   105781080.717         376.425          52.000    20129466.379    82426808.922         293.318          50.000                                                                                                                                  
G14  24744650.344   130034027.684        2945.765          43.000    24744649.594   101325216.592        2295.402          40.000                                                                                                                                  
G17  24236983.593   127366206.389        3344.251          51.000    24236981.913    99246383.289        2605.909          42.000    24236982.306    99246390.286        2605.909          44.000                                                                  
G18  19952476.512   104851010.544        -585.840          53.000    19952474.939    81702058.176        -456.500          49.000                                                                                                                                  
G22  22885931.855   120266405.797        3071.729          49.000    22885929.121    93714072.792        2393.556          46.000                                                                                                                                  
G24  24399318.091   128219281.416        1414.623          42.000    24399319.271    99911128.762        1102.303          41.000    24399319.968    99911149.767        1102.303          41.000    24399320.682    95748177.955        1056.919          48.000  
G27  25423255.189   133600082.833       -3890.200          42.000    25423257.744   104103953.042       -3031.324          41.000    25423258.209   104103960.046       -3031.323          41.000    25423257.530    99766289.874       -2904.867          44.000  
G28  21793128.114   114523664.173         367.747          52.000    21793125.541    89239209.489         286.555          46.000                                                                                                                                  
G32  23520208.210   123599541.553        1960.608          50.000    23520209.604    96311342.538        1527.744          42.000    23520210.050    96311342.543        1527.744          45.000    23520207.995    92298369.819        1464.220          46.000  
R03  22967478.678   122946724.241       -3715.919          47.000    22967477.373    95625225.041       -2890.161          42.000    22967477.480    95625229.044       -2890.160          42.000  
R05  21538726.173   115136861.145        3684.898          51.000    21538727.835    89550904.968        2866.032          46.000    21538727.871    89550904.971        2866.033          46.000  
R11  21200179.074   113287339.431       -1849.038          53.000    21200180.450    88112379.637       -1438.140          48.000    21200180.415    88112378.634       -1438.140          47.000  
R12  21809463.779   116502247.339        2012.104          50.000    21809466.048    90612887.845        1564.970          45.000    21809466.119    90612894.844        1564.970          44.000  
R19  22848868.767   122226030.130       -3992.438          38.000    22848868.999    95064695.591       -3105.233          38.000    22848868.660    95064691.588       -3105.233          37.000  
R20  19390925.311   103692001.402        -921.429          47.000    19390928.295    80649338.874        -716.667          49.000    19390927.169    80649336.865        -716.667          49.000  
R21  20932893.336   112016139.089        3196.880          53.000    20932893.032    87123661.923        2486.462          49.000    20932893.014    87123667.921        2486.462          48.000  
E01  25427619.608   133623040.420        -409.763          51.000    25427619.876   102386483.626        -313.888          50.000    25427620.234   101084965.255        -309.855          53.000    25427621.359    99783449.526        -305.849          51.000  
E03  25632954.570   134702112.118        1061.320          51.000    25632956.572   103213316.871         813.278          49.000    25632956.911   101901286.268         802.922          52.000    25632957.555   100589260.298         792.580          49.000  
E05  26987610.777   141820861.618       -1688.850          49.000    26987612.778   108667941.960       -1293.936          46.000    26987612.706   107286572.742       -1277.520          49.000    26987613.600   105905204.159       -1261.102          46.000  
E08  25315348.340   133033067.153        3089.527          46.000    25315348.930   101934436.894        2367.350          42.000    25315349.127   100638662.174        2337.238          45.000    25315350.092    99342890.084        2307.182          43.000  
E13  23200145.793   121917587.360         205.421          54.000    23200145.650    93417396.394         157.471          53.000    23200146.061    92229885.211         155.477          56.000    23200146.937    91042378.659         153.488          54.000  
E15  25010640.400   131431811.876       -2375.694          52.000    25010642.080   100707504.338       -1820.202          50.000    25010642.348    99427326.161       -1797.080          53.000    25010643.366    98147148.614       -1773.906          50.000  
E18  18043142.996    94817356.214       -2845.156          55.000    18043142.764    72652254.432       -2179.992          56.000    18043143.067    71728709.560       -2152.270          59.000    18043143.836    70805169.325       -2124.563          56.000  
E21  26573440.382   139644359.450       -2896.496          51.000    26573441.365   107000219.924       -2219.336          47.000    26573441.758   105640049.216       -2191.158          49.000    26573442.598   104279881.142       -2162.948          47.000  
E26  24628724.253   129424817.537        2598.226          50.000    24628726.255    99169678.157        1990.841          48.000    24628726.416    97909046.500        1965.546          51.000    24628727.434    96648416.474        1940.292          48.000  
E31  27325729.751   143597683.283        2252.798          47.000    27325731.520   110029404.621        1726.412          43.000    27325731.753   108630726.641        1704.432          47.000    27325733.093   107232053.288        1682.578          44.000  
C06  39281881.421   204551067.137        -201.581          46.000    39281875.988   158171853.723        -155.776          42.000  
C09  38960512.653   202877627.788         760.331          47.000    38960510.170   156877855.173         587.962          44.000  
C11  22040922.538   114772887.083       -1375.594          49.000    22040919.857    88749668.963       -1063.580          52.000  
C16  39129771.827   203758994.778         -12.762          48.000    39129771.809   157559389.299          -9.899          43.000  
C21  22944447.812   119477785.076         174.400          52.000                                                                  
C22  25349668.676   132002382.180       -2656.241          50.000                                                                  
C23  26501146.264   137998405.538       -3222.441          45.000                                                                  
C28  24142248.430   125715021.544        2879.805          48.000                                                                  
> 2019 09 27 10 09  0.0000000  0 38
G01  20383202.573   107114459.474        1231.080          55.000    20383203.789    83465832.994         959.282          51.000    20383203.914    83465828.999         959.281          52.000    20383202.270    79988091.041         919.363          56.000  
G03  24379657.163   128115966.227        3969.923          45.000    24379658.896    99830632.258        3093.453          42.000    24379659.504    99830635.258        3093.452          43.000    24379658.324    95671025.079        2964.643          46.000  
G08  22207999.689   116703820.374       -3001.717          53.000    22208000.726    90938048.049       -2339.003          47.000    22208001.458    90938051.058       -2339.003          49.000    22207999.546    87148946.369       -2241.477          52.000  
G10  23566165.103   123841040.237       -2970.458          47.000    23566166.426    96499504.346       -2314.646          45.000    23566166.461    96499521.351       -2314.646          47.000    23566164.389    92478705.196       -2218.081          49.000  
G11  20127375.131   105770076.782         356.667          51.000    20127372.415    82418234.416         277.922          49.000                                                                                                                                  
G14  24727855.750   129945771.433        2937.495          43.000    24727855.053   101256445.504        2288.957          37.000                                                                                                                                  
G17  24217903.014   127265936.301        3339.984          51.000    24217901.210    99168250.732        2602.584          42.000    24217901.638    99168257.736        2602.584          44.000                                                                  
G18  19955877.004   104868880.531        -605.923          53.000    19955875.468    81715982.825        -472.149          48.000                                                                                                                                  
G22  22868425.805   120174410.070        3060.980          49.000    22868422.892    93642387.821        2385.180          45.000                                                                                                                                  
G24  24391290.272   128177095.794        1396.913          43.000    24391291.594    99878256.824        1088.502          35.000    24391292.184    99878277.829        1088.501          40.000    24391292.988    95716675.762        1043.077          48.000  
G27  25445465.562   133716798.442       -3891.225          42.000    25445468.100   104194900.152       -3032.123          35.000    25445468.547   104194907.152       -3032.123          38.000    25445467.832    99853447.573       -2905.725          43.000  
G28  21791079.985   114512900.675         349.500          52.000    21791077.340    89230822.338         272.336          45.000                                                                                                                                  
G32  23509060.870   123540961.150        1944.375          49.000    23509061.835    96265695.448        1515.097          42.000    23509062.371    96265695.455        1515.097          44.000    23509060.245    92254624.715        1452.119          46.000  
R03  22988342.585   123058410.413       -3730.290          46.000    22988341.316    95712091.985       -2901.341          42.000    22988341.316    95712095.988       -2901.341          41.000  
R05  21518091.186   115026555.571        3668.429          51.000    21518092.920    89465111.776        2853.223          46.000    21518092.991    89465111.772        2853.223          46.000  
R11  21210630.737   113343189.508       -1874.653          52.000    21210632.078    88155818.562       -1458.066          47.000    21210632.060    88155817.555       -1458.067          47.000  
R12  21798232.097   116442249.139        1987.307          50.000    21798234.241    90566222.585        1545.682          44.000    21798234.277    90566229.589        1545.683          44.000  
R19  22871272.948   122345877.140       -3997.877          38.000    22871273.591    95157909.867       -3109.464          40.000    22871273.252    95157905.864       -3109.466          39.000  
R20  19396149.141   103719935.713        -941.405          46.000    19396152.161    80671065.539        -732.206          49.000    19396151.053    80671063.535        -732.206          49.000  
R21  20915003.263   111920405.669        3184.969          53.000    20915002.959    87049202.589        2477.197          48.000    20915002.941    87049208.590        2477.197          48.000  
E01  25430002.443   133635561.973        -425.487          51.000    25430002.675   102396078.055        -325.916          51.000    25430003.014   101094437.730        -321.795          54.000    25430003.997    99792800.038        -317.619          51.000  
E03  25626936.105   134670482.752        1046.934          51.000    25626937.731   103189081.380         802.254          50.000    25626938.053   101877358.849         792.075          53.000    25626938.517   100565640.960         781.842          49.000  
E05  26997286.674   141871708.252       -1701.294          50.000    26997288.479   108706902.357       -1303.519          47.000    26997288.514   107325037.878       -1286.948          49.000    26997289.318   105943174.042       -1270.422          45.000  
E08  25297722.604   132940442.938        3085.062          47.000    25297722.551   101863465.118        2363.869          43.000    25297723.230   100568592.595        2333.836          46.000    25297724.159    99273722.714        2303.727          43.000  
E13  23199003.373   121911583.857         194.434          54.000    23199003.212    93412796.305         149.042          54.000    23199003.623    92225343.597         147.159          57.000    23199004.517    91037895.528         145.250          53.000  
E15  25024219.089   131503168.705       -2381.865          51.000    25024220.822   100762180.326       -1824.989          50.000    25024221.126    99481307.114       -1801.842          53.000    25024222.108    98200434.536       -1778.637          50.000  
E18  18059516.793    94903400.657       -2891.369          55.000    18059516.507    72718184.585       -2215.404          56.000    18059516.757    71793801.619       -2187.232          59.000    18059517.579    70869423.298       -2159.088          56.000  
E21  26589996.532   139731362.371       -2904.114          51.000    26589997.390   107066884.471       -2225.095          47.000    26589997.908   105705866.329       -2196.780          49.000    26589998.552   104344850.832       -2168.545          46.000  
E26  24613905.437   129346943.999        2593.000          50.000    24613907.438    99110008.820        1986.952          49.000    24613907.599    97850135.674        1961.652          51.000    24613908.439    96590264.157        1936.419          48.000  
E31  27312897.631   143530249.482        2242.425          47.000    27312899.293   109977734.602        1718.173          44.000    27312899.596   108579713.446        1696.258          47.000    27312900.669   107181696.911        1674.535          44.000  
C06  39283058.382   204557195.891        -207.074          46.000    39283052.967   158176592.864        -160.117          43.000  
C09  38956147.358   202854896.801         754.866          46.000    38956144.857   156860278.145         583.726          45.000  
C11  22048882.937   114814339.333       -1388.335          49.000    22048880.382    88781722.466       -1073.505          53.000  
C16  39129861.744   203759463.415         -18.855          48.000    39129861.816   157559751.670         -14.469          44.000  
C21  22943493.749   119472816.619         156.351          53.000                                                                  
C22  25365001.995   132082226.017       -2666.971          49.000                                                                  
C23  26519722.293   138095135.198       -3226.650          45.000                                                                  
C28  24125674.518   125628716.548        2873.450          48.000                                                                  
> 2019 09 27 10 09 30.0000000  0 38
G01  20376225.363   107077793.423        1212.934          55.000    20376226.471    83437262.064         945.147          50.000    20376226.632    83437258.064         945.147          52.000    20376224.952    79960710.547         905.789          56.000  
G03  24357003.119   127996917.985        3966.354          47.000    24357004.656    99737867.462        3090.671          40.000    24357005.246    99737870.472        3090.672          41.000    24357004.477    95582125.490        2961.898          48.000  
G08  22225165.030   116794024.174       -3012.280          54.000    22225166.031    91008336.720       -2347.228          47.000    22225166.763    91008339.724       -2347.228          49.000    22225164.887    87216306.321       -2249.340          52.000  
G10  23583153.952   123930317.380       -2982.017          48.000    23583155.310    96569070.934       -2323.648          45.000    23583155.381    96569087.942       -2323.646          47.000    23583153.344    92545373.155       -2226.657          49.000  
G11  20125393.867   105759665.242         336.922          52.000    20125391.169    82410121.545         262.541          49.000                                                                                                                                  
G14  24711106.686   129857754.041        2929.653          43.000    24711105.864   101187860.580        2282.851          38.000                                                                                                                                  
G17  24198845.934   127165790.528        3335.879          52.000    24198844.129    99090215.115        2599.390          41.000    24198844.540    99090222.117        2599.390          44.000                                                                  
G18  19959391.948   104887352.174        -626.132          53.000    19959390.501    81730376.331        -487.891          48.000                                                                                                                                  
G22  22850980.743   120082734.993        3050.312          50.000    22850977.669    93570952.733        2376.869          44.000                                                                                                                                  
G24  24383368.201   128135464.947        1378.364          44.000    24383369.381    99845817.265        1074.056          37.000    24383369.845    99845838.267        1074.056          40.000    24383370.953    95685587.845        1029.274          47.000  
G27  25467680.975   133833541.663       -3892.227          44.000    25467683.369   104285868.839       -3032.900          36.000    25467683.852   104285875.839       -3032.900          39.000    25467683.512    99940625.816       -2906.211          43.000  
G28  21789135.817   114502683.885         331.267          52.000    21789133.208    89222861.224         258.136          45.000                                                                                                                                  
G32  23498005.931   123482867.203        1928.013          49.000    23498007.164    96220427.469        1502.352          43.000    23498007.611    96220427.476        1502.353          46.000    23498005.377    92211242.871        1439.783          46.000  
R03  23009286.420   123170524.537       -3744.508          47.000    23009285.240    95799291.815       -2912.392          43.000    23009285.187    95799295.813       -2912.392          42.000  
R05  21497549.547   114916748.099        3651.684          51.000    21497551.155    89379706.027        2840.204          46.000    21497551.209    89379706.013        2840.203          46.000  
R11  21221225.317   113399803.716       -1900.046          52.000    21221226.675    88199851.837       -1477.811          48.000    21221226.604    88199850.837       -1477.811          47.000  
R12  21787139.955   116382997.263        1962.311          50.000    21787142.170    90520137.814        1526.250          44.000    21787142.242    90520144.806        1526.248          44.000  
R19  22893707.435   122465887.500       -4003.424          38.000    22893708.257    95251251.237       -3113.771          38.000    22893707.810    95251247.209       -3113.771          37.000  
R20  19401485.099   103748468.925        -961.330          47.000    19401487.958    80693258.049        -747.697          49.000    19401486.850    80693256.047        -747.697          49.000  
R21  20897179.717   111825028.679        3172.955          53.000    20897179.502    86975020.516        2467.858          49.000    20897179.538    86975026.510        2467.858          48.000  
E01  25432475.176   133648555.901        -441.158          51.000    25432475.372   102406034.435        -337.998          51.000    25432475.676   101104267.544        -333.708          53.000    25432476.587    99802503.292        -329.448          51.000  
E03  25621000.087   134639287.317        1032.419          51.000    25621001.570   103165178.381         791.130          50.000    25621001.784   101853759.707         781.039          52.000    25621002.338   100542345.666         770.980          49.000  
E05  27007033.797   141922930.138       -1713.794          49.000    27007035.673   108746150.264       -1313.135          47.000    27007035.709   107363786.873       -1296.436          49.000    27007036.620   105981424.114       -1279.718          46.000  
E08  25280123.386   132847958.839        3080.229          46.000    25280123.564   101792600.708        2360.253          44.000    25280123.922   100498628.997        2330.260          46.000    25280125.012    99204659.931        2300.275          43.000  
E13  23197923.566   121905909.575         183.355          54.000    23197923.441    93408448.477         140.570          54.000    23197923.834    92221051.040         138.769          56.000    23197924.727    91033658.235         137.030          53.000  
E15  25037833.354   131574712.509       -2388.132          52.000    25037835.123   100816999.584       -1829.821          50.000    25037835.499    99535429.513       -1806.572          53.000    25037836.481    98253860.076       -1783.303          50.000  
E18  18076153.693    94990827.421       -2937.415          56.000    18076153.318    72785173.917       -2250.690          56.000    18076153.514    71859939.392       -2222.069          59.000    18076154.408    70934709.507       -2193.452          56.000  
E21  26606594.996   139818588.311       -2911.416          50.000    26606595.908   107133719.904       -2230.808          47.000    26606596.426   105771852.155       -2202.483          49.000    26606597.212   104409987.054       -2174.147          46.000  
E26  24599116.212   129269226.142        2587.749          50.000    24599118.213    99050458.790        1982.930          49.000    24599118.427    97791342.635        1957.695          51.000    24599119.267    96532228.110        1932.473          48.000  
E31  27300126.551   143463136.880        2231.438          47.000    27300128.195   109926310.640        1709.857          44.000    27300128.516   108528943.172        1688.172          47.000    27300129.588   107131580.347        1666.401          44.000  
C06  39284266.488   204563487.271        -212.603          46.000    39284261.289   158181457.760        -164.475          43.000  
C09  38951813.727   202832331.385         749.305          46.000    38951811.333   156842829.146         579.379          45.000  
C11  22056917.118   114856176.011       -1401.099          49.000    22056914.723    88814073.234       -1083.478          53.000  
C16  39129986.023   203760111.022         -24.845          48.000    39129986.148   157560252.445         -19.153          44.000  
C21  22942643.362   119468387.754         138.418          53.000                                                                  
C22  25380396.784   132162390.341       -2677.707          50.000                                                                  
C23  26538321.927   138191987.244       -3230.674          46.000                                                                  
C28  24109137.792   125542605.179        2866.868          49.000                                                                  
> 2019 09 27 10 10  0.0000000  0 38
G01  20369351.043   107041668.514        1194.956          55.000    20369352.133    83409112.777         931.134          50.000    20369352.294    83409108.783         931.134          52.000    20369350.596    79933734.156         892.287          56.000  
G03  24334369.428   127877977.797        3962.633          47.000    24334370.483    99645186.850        3087.761          35.000    24334371.305    99645189.859        3087.763          37.000    24334371.305    95493306.637        2959.029          48.000  
G08  22242389.803   116884540.420       -3022.631          53.000    22242390.857    91078868.827       -2355.298          47.000    22242391.590    91078871.834       -2355.298          48.000    22242389.607    87283899.592       -2257.157          52.000  
G10  23600207.504   124019934.155       -2993.192          49.000    23600208.862    96638902.153       -2332.359          44.000    23600208.987    96638919.156       -2332.359          46.000    23600206.914    92612294.746       -2235.115          49.000  
G11  20123525.018   105749844.285         317.278          52.000    20123522.302    82402468.843         247.230          49.000                                                                                                                                  
G14  24694403.188   129769976.064        2921.714          43.000    24694402.205   101119462.168        2276.658          35.000                                                                                                                                  
G17  24179812.315   127065767.633        3331.906          52.000    24179810.385    99012275.196        2596.291          41.000    24179810.814    99012282.193        2596.289          43.000                                                                  
G18  19963020.754   104906422.297        -645.868          53.000    19963019.467    81745236.156        -503.274          47.000                                                                                                                                  
G22  22833596.470   119991380.035        3039.682          50.000    22833593.540    93499767.104        2368.586          45.000                                                                                                                                  
G24  24375551.558   128094387.940        1359.960          44.000    24375552.541    99813809.228        1059.711          36.000    24375553.077    99813830.235        1059.712          39.000    24375554.149    95654913.509        1015.384          47.000  
G27  25489901.069   133950308.343       -3892.667          43.000    25489903.303   104376855.810       -3033.256          38.000    25489903.821   104376862.814       -3033.254          40.000    25489903.410   100027821.685       -2906.979          43.000  
G28  21787295.344   114493011.943         313.027          52.000    21787292.753    89215324.625         243.916          45.000                                                                                                                                  
G32  23487043.571   123425259.670        1912.152          49.000    23487045.054    96175538.496        1489.991          42.000    23487045.412    96175538.505        1489.991          45.000    23487043.250    92168224.289        1427.738          47.000  
R03  23030308.968   123283060.245       -3758.287          47.000    23030307.913    95886819.534       -2923.115          41.000    23030307.771    95886823.537       -2923.114          41.000  
R05  21477101.417   114807440.647        3635.105          51.000    21477102.739    89294689.132        2827.304          46.000    21477102.810    89294689.130        2827.304          45.000  
R11  21231962.152   113457177.160       -1925.216          53.000    21231963.367    88244475.634       -1497.391          47.000    21231963.313    88244474.627       -1497.391          46.000  
R12  21776187.745   116324492.293        1937.551          50.000    21776189.871    90474633.964        1506.985          44.000    21776189.889    90474640.957        1506.985          43.000  
R19  22916172.013   122586056.603       -4008.436          37.000    22916172.799    95344716.060       -3117.675          40.000    22916172.460    95344712.062       -3117.675          40.000  
R20  19406932.346   103777597.976        -980.972          47.000    19406935.223    80715913.978        -762.978          49.000    19406934.132    80715911.978        -762.977          48.000  
R21  20879422.768   111730008.064        3161.222          53.000    20879422.589    86901115.591        2458.728          48.000    20879422.625    86901121.588        2458.728          47.000  
E01  25435037.236   133662019.634        -456.689          51.000    25435037.451   102416350.809        -350.102          50.000    25435037.755   101114452.775        -345.630          53.000    25435038.648    99812557.378        -341.216          50.000  
E03  25615145.802   134608524.291        1017.888          50.000    25615147.624   103141606.727         779.957          49.000    25615147.785   101830487.689         770.022          52.000    25615148.589   100519373.292         760.104          49.000  
E05  27016851.753   141974523.554       -1726.228          49.000    27016853.451   108785682.877       -1322.686          46.000    27016853.683   107402816.944       -1305.810          48.000    27016854.612   106019951.650       -1288.993          45.000  
E08  25262550.542   132755614.368        3075.720          47.000    25262551.131   101721843.303        2356.678          43.000    25262551.471   100428771.055        2326.646          46.000    25262552.347    99135701.439        2296.626          43.000  
E13  23196905.979   121900562.256         172.644          54.000    23196905.907    93404351.189         132.229          53.000    23196906.265    92217005.835         130.520          56.000    23196907.176    91029665.121         128.816          53.000  
E15  25051482.697   131646440.171       -2394.139          52.000    25051484.537   100871959.715       -1834.580          50.000    25051484.841    99589690.999       -1811.267          52.000    25051485.824    98307422.914       -1787.914          49.000  
E18  18093051.856    95079627.410       -2982.969          56.000    18093051.445    72853215.465       -2285.744          56.000    18093051.606    71927116.007       -2256.657          59.000    18093052.589    71001021.187       -2227.620          56.000  
E21  26623235.238   139906033.113       -2918.552          50.000    26623235.935   107200723.051       -2236.418          46.000    26623236.739   105838003.560       -2207.905          49.000    26623237.490   104475286.716       -2179.516          46.000  
E26  24584356.363   129191662.540        2582.633          49.000    24584358.311    98991026.941        1978.897          49.000    24584358.525    97732666.272        1953.753          51.000    24584359.544    96474307.241        1928.590          48.000  
E31  27287416.440   143396344.872        2220.903          47.000    27287418.102   109875132.393        1701.607          44.000    27287418.441   108478415.485        1680.086          47.000    27287419.424   107081703.225        1658.413          44.000  
C06  39285505.419   204569938.857        -217.818          46.000    39285500.380   158186446.534        -168.671          43.000  
C09  38947511.403   202809929.419         743.847          46.000    38947509.169   156825506.521         575.191          44.000  
C11  22065024.615   114898394.252       -1413.809          49.000    22065022.364    88846719.036       -1093.243          52.000  
C16  39130144.307   203760935.239         -30.555          48.000    39130144.253   157560889.793         -23.729          43.000  
C21  22941896.098   119464496.193         120.632          53.000                                                                  
C22  25395852.202   132242870.751       -2688.027          49.000                                                                  
C23  26556944.040   138288957.028       -3234.509          45.000                                                                  
C28  24092638.036   125456686.565        2860.548          49.000                                                                  
> 2019 09 27 10 10 30.0000000  0 38
G01  20362580.220   107006087.306        1177.168          55.000    20362581.274    83381387.167         917.274          52.000    20362581.417    83381383.173         917.274          53.000    20362579.702    79907163.771         879.068          56.000  
G03  24311757.163   127759150.043        3959.249          46.000    24311756.966    99552593.756        3085.130          37.000    24311758.020    99552596.756        3085.131          40.000    24311759.468    95404571.711        2956.573          47.000  
G08  22259674.009   116975369.325       -3032.686          53.000    22259675.117    91149644.563       -2363.134          48.000    22259675.814    91149647.570       -2363.134          49.000    22259673.830    87351726.330       -2264.657          51.000  
G10  23617325.546   124109889.906       -3003.923          48.000    23617326.957    96708997.510       -2340.720          45.000    23617327.029    96709014.519       -2340.720          47.000    23617325.045    92679469.465       -2243.260          49.000  
G11  20121769.047   105740616.633         297.911          51.000    20121766.331    82395278.463         232.138          50.000                                                                                                                                  
G14  24677745.899   129682442.166        2913.903          44.000    24677745.005   101051253.974        2270.575          37.000                                                                                                                                  
G17  24160802.748   126965871.980        3327.869          51.000    24160800.800    98934434.451        2593.147          41.000    24160801.211    98934441.453        2593.147          44.000                                                                  
G18  19966763.725   104926091.914        -665.455          53.000    19966762.492    81760563.130        -518.536          49.000                                                                                                                                  
G22  22816273.918   119900349.340        3029.056          50.000    22816271.041    93428834.127        2360.303          46.000                                                                                                                                  
G24  24367841.039   128053868.803        1341.575          44.000    24367841.950    99782235.906        1045.385          39.000    24367842.594    99782256.920        1045.386          41.000    24367843.612    95624655.749        1001.809          47.000  
G27  25512125.774   134067098.856       -3893.267          43.000    25512127.882   104467861.333       -3033.716          36.000    25512128.401   104467868.337       -3033.719          40.000    25512127.811   100115035.369       -2907.385          42.000  
G28  21785558.975   114483886.856         295.200          51.000    21785556.295    89208214.170         230.025          46.000                                                                                                                                  
G32  23476174.667   123368142.656        1895.810          49.000    23476175.882    96131031.746        1477.255          44.000    23476176.364    96131031.746        1477.255          46.000    23476174.274    92125571.980        1415.750          46.000  
R03  23051409.997   123396015.391       -3771.929          48.000    23051409.014    95974673.490       -2933.724          43.000    23051408.889    95974677.489       -2933.725          42.000  
R05  21456747.813   114698639.053        3618.359          51.000    21456749.171    89210065.705        2814.280          46.000    21456749.100    89210065.710        2814.280          46.000  
R11  21242840.741   113515308.997       -1950.120          53.000    21242842.028    88289689.259       -1516.761          48.000    21242842.028    88289688.257       -1516.761          47.000  
R12  21765376.253   116266738.799        1912.617          50.000    21765378.183    90429714.582        1487.598          44.000    21765378.290    90429721.572        1487.596          44.000  
R19  22938665.825   122706384.925       -4013.431          39.000    22938666.951    95438304.641       -3121.558          37.000    22938666.665    95438300.645       -3121.556          37.000  
R20  19412491.220   103807324.065       -1000.615          47.000    19412494.168    80739034.260        -778.254          49.000    19412493.114    80739032.258        -778.255          49.000  
R21  20861733.239   111635347.991        3149.497          53.000    20861733.114    86827491.101        2449.609          48.000    20861733.114    86827497.098        2449.610          48.000  
E01  25437688.928   133675954.778        -472.158          51.000    25437689.232   102427028.376        -361.776          50.000    25437689.553   101124994.614        -357.218          54.000    25437690.447    99822963.486        -352.642          50.000  
E03  25609374.465   134578196.330        1003.883          51.000    25609376.162   103118368.437         769.187          49.000    25609376.538   101807544.803         759.381          52.000    25609377.503   100496725.807         749.625          49.000  
E05  27026740.506   142026489.062       -1738.143          50.000    27026742.096   108825500.586       -1331.792          46.000    27026742.436   107442128.502       -1314.911          49.000    27026743.329   106058757.050       -1298.000          45.000  
E08  25245005.341   132663413.291        3071.023          47.000    25245005.913   101651195.754        2353.213          43.000    25245006.181   100359021.566        2323.294          46.000    25245007.235    99066850.019        2293.372          42.000  
E13  23195950.987   121895543.856         161.998          54.000    23195950.969    93400505.913         124.129          54.000    23195951.290    92213209.439         122.574          57.000    23195952.202    91025917.603         120.969          53.000  
E15  25065167.259   131718352.718       -2399.972          52.000    25065169.046   100927061.510       -1838.963          50.000    25065169.350    99644092.345       -1815.595          53.000    25065170.315    98361123.819       -1792.266          49.000  
E18  18110210.264    95169795.636       -3028.127          55.000    18110209.942    72922305.388       -2320.241          56.000    18110210.049    71995327.671       -2290.763          59.000    18110211.086    71068354.587       -2261.293          56.000  
E21  26639917.061   139993696.846       -2925.596          50.000    26639917.776   107267893.923       -2241.711          47.000    26639918.687   105904320.567       -2213.208          50.000    26639919.330   104540749.847       -2184.690          46.000  
E26  24569626.302   129114255.802        2577.719          50.000    24569628.375    98931715.298        1975.180          49.000    24569628.518    97674108.586        1950.137          52.000    24569629.500    96416503.521        1924.932          48.000  
E31  27274768.066   143329876.986        2210.329          48.000    27274769.567   109824202.466        1693.681          44.000    27274769.960   108428132.988        1672.091          47.000    27274770.997   107032068.141        1650.582          44.000  
C06  39286775.478   204576552.325        -222.854          46.000    39286770.367   158191560.478        -172.395          43.000  
C09  38943240.795   202787692.773         738.632          46.000    38943238.794   156808311.743         571.076          45.000  
C11  22073205.661   114940995.200       -1426.188          49.000    22073203.499    88879660.783       -1102.843          52.000  
C16  39130336.881   203761937.792         -36.237          47.000    39130336.667   157561665.035         -28.055          43.000  
C21  22941252.330   119461143.803         102.960          53.000                                                                  
C22  25411368.250   132323666.983       -2698.299          49.000                                                                  
C23  26575588.560   138386043.945       -3237.930          45.000                                                                  
C28  24076176.020   125370963.931        2854.271          49.000                                                                  
> 2019 09 27 10 11  0.0000000  0 38
G01  20355912.555   106971048.193        1158.806          55.000    20355913.538    83354083.960         902.967          50.000    20355913.681    83354079.963         902.966          51.000    20355911.965    79880998.196         865.431          57.000  
G03  24289166.215   127640434.732        3955.220          46.000    24289166.322    99460088.348        3081.992          39.000    24289167.198    99460091.352        3081.993          41.000    24289168.770    95315920.735        2953.571          46.000  
G08  22277016.843   117066506.532       -3042.945          53.000    22277018.022    91220660.532       -2371.126          46.000    22277018.719    91220663.536       -2371.127          48.000    22277016.664    87419783.298       -2272.361          52.000  
G10  23634507.129   124200179.773       -3015.083          48.000    23634508.559    96779353.216       -2349.416          44.000    23634508.613    96779370.224       -2349.416          45.000    23634506.736    92746893.679       -2251.544          49.000  
G11  20120125.525   105731980.138         278.058          51.000    20120122.863    82388548.722         216.670          49.000                                                                                                                                  
G14  24661135.177   129595152.338        2905.456          43.000    24661134.426   100983235.940        2263.993          35.000                                                                                                                                  
G17  24141817.465   126866103.023        3323.488          52.000    24141815.285    98856692.397        2589.732          40.000    24141815.785    98856699.397        2589.732          43.000                                                                  
G18  19970620.235   104946358.013        -685.384          53.000    19970619.038    81776354.888        -534.064          48.000                                                                                                                                  
G22  22799013.067   119809642.749        3018.145          50.000    22799010.047    93358153.712        2351.803          45.000                                                                                                                                  
G24  24360236.358   128013906.102        1322.935          44.000    24360237.555    99751096.160        1030.857          37.000    24360237.966    99751117.165        1030.858          40.000    24360238.878    95594813.488         987.967          47.000  
G27  25534354.052   134183909.429       -3893.929          43.000    25534356.179   104558882.536       -3034.225          33.000    25534356.715   104558889.547       -3034.225          37.000    25534356.465   100202263.936       -2907.861          43.000  
G28  21783926.336   114475306.972         276.940          52.000    21783923.566    89201528.537         215.798          45.000                                                                                                                                  
G32  23465399.074   123311515.944        1879.329          48.000    23465399.914    96086907.029        1464.413          43.000    23465400.504    96086907.027        1464.412          45.000    23465398.270    92083285.793        1403.409          47.000  
R03  23072588.220   123509383.506       -3785.685          47.000    23072587.201    96062848.635       -2944.421          41.000    23072587.148    96062852.631       -2944.421          41.000  
R05  21436489.059   114590344.868        3601.328          50.000    21436490.292    89125836.943        2801.034          45.000    21436490.274    89125836.941        2801.035          45.000  
R11  21253860.425   113574193.985       -1975.295          53.000    21253861.479    88335488.695       -1536.341          47.000    21253861.479    88335487.692       -1536.340          46.000  
R12  21754705.569   116209737.209        1887.528          49.000    21754707.374    90385380.036        1468.083          44.000    21754707.517    90385387.024        1468.082          43.000  
R19  22961188.835   122826867.796       -4018.668          35.000    22961189.854    95532013.558       -3125.636          40.000    22961189.461    95532009.564       -3125.635          40.000  
R20  19418161.204   103837644.185       -1020.552          47.000    19418164.206    80762616.566        -793.762          49.000    19418163.187    80762614.559        -793.762          49.000  
R21  20844111.023   111541048.419        3137.309          53.000    20844110.952    86754146.988        2440.130          48.000    20844110.952    86754152.986        2440.130          47.000  
E01  25440429.786   133690358.674        -487.890          51.000    25440430.250   102438065.113        -373.786          51.000    25440430.518   101135891.055        -369.096          53.000    25440431.466    99833719.626        -364.359          51.000  
E03  25603686.076   134548301.900         989.211          52.000    25603687.130   103095462.298         758.076          49.000    25603687.755   101784929.850         748.393          52.000    25603688.667   100474402.034         738.744          49.000  
E05  27036699.324   142078822.916       -1750.576          50.000    27036700.950   108865600.527       -1341.271          47.000    27036701.218   107481718.691       -1324.236          48.000    27036702.236   106097837.486       -1307.154          46.000  
E08  25227487.337   132571355.093        3066.191          47.000    25227487.730   101580657.681        2349.515          43.000    25227488.106   100289380.161        2319.648          45.000    25227488.999    98998105.280        2289.765          43.000  
E13  23195058.143   121890852.023         150.938          54.000    23195058.143    93396910.864         115.671          54.000    23195058.483    92209660.084         114.213          56.000    23195059.358    91022413.952         112.718          54.000  
E15  25078886.416   131790446.963       -2406.229          52.000    25078888.131   100982302.528       -1843.691          51.000    25078888.471    99698631.144       -1820.265          52.000    25078889.436    98414960.394       -1796.784          50.000  
E18  18127627.236    95261322.781       -3073.446          55.000    18127627.057    72992436.571       -2354.947          57.000    18127627.093    72064567.349       -2324.988          59.000    18127628.201    71136702.767       -2295.055          56.000  
E21  26656639.733   140081575.195       -2932.859          50.000    26656640.537   107335229.254       -2247.158          47.000    26656641.430   105970799.937       -2218.598          49.000    26656642.091   104606373.259       -2190.037          46.000  
E26  24554925.868   129037004.394        2572.428          50.000    24554927.887    98872522.667        1971.064          50.000    24554928.066    97615668.404        1946.092          51.000    24554929.066    96358815.790        1921.021          49.000  
E31  27262181.287   143263732.494        2199.319          48.000    27262182.556   109773520.313        1685.254          44.000    27262182.949   108378095.113        1663.845          46.000    27262184.218   106982674.542        1642.464          44.000  
C06  39288076.093   204583325.168        -228.431          46.000    39288070.964   158196797.660        -176.674          43.000  
C09  38939001.709   202765619.254         732.938          46.000    38938999.761   156791243.114         566.960          45.000  
C11  22081459.685   114983975.981       -1439.049          49.000    22081457.576    88912896.233       -1112.776          53.000  
C16  39130563.068   203763116.178         -42.036          47.000    39130562.978   157562576.223         -32.468          44.000  
C21  22940711.578   119458328.199          84.909          53.000                                                                  
C22  25426943.981   132404774.553       -2708.819          49.000                                                                  
C23  26594254.578   138483243.292       -3241.750          46.000                                                                  
C28  24059751.368   125285436.257        2847.666          49.000                                                                  
> 2019 09 27 10 11 30.0000000  0 38
G01  20349348.870   106936555.680        1140.533          55.000    20349349.852    83327206.679         888.727          51.000    20349349.960    83327202.682         888.727          52.000    20349348.298    79855240.801         851.656          57.000  
G03  24266597.782   127521838.145        3951.148          45.000    24266598.675    99367675.519        3078.822          42.000    24266599.426    99367678.521        3078.822          44.000    24266600.444    95227358.441        2950.416          44.000  
G08  22294418.751   117157954.045       -3053.516          53.000    22294419.841    91291918.318       -2379.362          47.000    22294420.574    91291921.327       -2379.362          49.000    22294418.430    87488072.008       -2280.271          51.000  
G10  23651752.452   124290805.051       -3026.468          49.000    23651753.935    96849970.272       -2358.288          43.000    23651754.007    96849987.278       -2358.288          46.000    23651752.202    92814568.347       -2260.096          49.000  
G11  20118595.258   105723938.787         258.025          52.000    20118592.649    82382282.738         201.059          49.000                                                                                                                                  
G14  24644571.968   129508113.388        2896.848          43.000    24644571.450   100915413.420        2257.288          37.000                                                                                                                                  
G17  24122857.163   126766465.989        3318.978          52.000    24122855.090    98779053.167        2586.217          41.000    24122855.555    98779060.170        2586.217          43.000                                                                  
G18  19974590.857   104967223.523        -705.611          53.000    19974589.678    81792613.732        -549.825          49.000                                                                                                                                  
G22  22781815.205   119719266.157        3007.000          50.000    22781811.845    93287730.412        2343.118          46.000                                                                                                                                  
G24  24352738.748   127974505.612        1303.701          44.000    24352739.695    99720394.507        1015.873          38.000    24352740.267    99720415.512        1015.873          40.000    24352741.143    95565391.082         973.598          47.000  
G27  25556586.476   134300742.292       -3894.721          43.000    25556588.728   104649921.028       -3034.851          37.000    25556589.389   104649928.041       -3034.848          40.000    25556589.031   100289509.146       -2908.482          41.000  
G28  21782398.141   114467276.402         258.424          51.000    21782395.354    89195270.945         201.371          46.000                                                                                                                                  
G32  23454717.812   123255385.595        1862.639          48.000    23454718.813    96043169.113        1451.409          44.000    23454719.295    96043169.103        1451.408          46.000    23454716.972    92041370.279        1390.841          47.000  
R03  23093843.530   123623164.381       -3799.663          47.000    23093842.547    96151344.804       -2955.295          41.000    23093842.529    96151348.798       -2955.295          41.000  
R05  21416326.636   114482566.053        3583.928          50.000    21416328.065    89042009.034        2787.504          46.000    21416328.083    89042009.034        2787.503          45.000  
R11  21265021.095   113633833.476       -2000.616          53.000    21265022.364    88381874.961       -1556.033          47.000    21265022.310    88381873.953       -1556.033          46.000  
R12  21744176.784   116153493.843        1861.983          49.000    21744178.463    90341635.160        1448.212          43.000    21744178.463    90341642.160        1448.213          43.000  
R19  22983741.043   122947507.299       -4024.045          38.000    22983742.294    95625844.178       -3129.809          38.000    22983741.954    95625840.175       -3129.811          37.000  
R20  19423942.869   103868561.509       -1040.576          47.000    19423945.889    80786663.369        -809.335          48.000    19423944.906    80786661.364        -809.336          48.000  
R21  20826557.264   111447115.273        3124.923          53.000    20826557.317    86681087.892        2430.498          47.000    20826557.246    86681093.891        2430.498          47.000  
E01  25443260.561   133705234.816        -503.814          51.000    25443261.079   102449463.718        -386.106          50.000    25443261.365   101147144.757        -381.178          54.000    25443262.348    99844828.429        -376.242          51.000  
E03  25598081.046   134518845.537         974.379          52.000    25598081.653   103072891.827         746.574          49.000    25598082.368   101762646.292         737.087          52.000    25598083.119   100452405.391         727.598          49.000  
E05  27046728.759   142131527.564       -1762.988          50.000    27046730.296   108905984.594       -1350.950          46.000    27046730.689   107521589.402       -1333.793          49.000    27046731.636   106137194.840       -1316.643          46.000  
E08  25209997.495   132479445.445        3060.984          48.000    25209997.727   101510233.426        2345.474          42.000    25209998.263   100219851.134        2315.640          46.000    25209999.175    98929471.476        2285.864          44.000  
E13  23194228.163   121886490.681         139.825          54.000    23194228.216    93393569.062         107.055          53.000    23194228.538    92206360.769         105.703          57.000    23194229.414    91019157.113         104.315          54.000  
E15  25092640.650   131862725.884       -2412.476          51.000    25092642.472   101037685.053       -1848.547          50.000    25092642.687    99753309.656       -1825.093          53.000    25092643.670    98468934.893       -1801.621          50.000  
E18  18145302.148    95354205.648       -3118.752          55.000    18145302.130    73063606.546       -2389.726          56.000    18145302.130    72134832.623       -2359.326          59.000    18145303.309    71206063.336       -2328.963          56.000  
E21  26673403.664   140169670.201       -2940.172          50.000    26673404.539   107402730.591       -2252.925          46.000    26673405.308   106037443.208       -2224.274          50.000    26673405.987   104672158.462       -2195.553          47.000  
E26  24540255.793   128959912.980        2566.881          50.000    24540257.919    98813452.623        1966.864          49.000    24540258.080    97557349.258        1941.831          52.000    24540259.009    96301247.526        1916.838          48.000  
E31  27249656.996   143197916.892        2188.162          47.000    27249658.354   109723090.217        1676.622          44.000    27249658.605   108328306.078        1655.280          47.000    27249659.784   106933526.569        1633.946          44.000  
C06  39289408.014   204590261.020        -233.927          45.000    39289402.868   158202160.892        -180.957          42.000  
C09  38934794.823   202743712.716         727.182          46.000    38934792.822   156774303.602         562.337          44.000  
C11  22089787.293   115027339.576       -1451.851          49.000    22089785.113    88946427.702       -1122.777          52.000  
C16  39130823.723   203764474.090         -48.312          47.000    39130823.884   157563626.239         -37.430          43.000  
C21  22940274.645   119456053.109          66.848          53.000                                                                  
C22  25442579.965   132486195.107       -2719.257          49.000                                                                  
C23  26612942.538   138580556.411       -3245.646          45.000                                                                  
C28  24043365.313   125200108.740        2840.895          50.000                                                                  
> 2019 09 27 10 12  0.0000000  0 38
G01  20342888.432   106902606.198        1122.673          55.000    20342889.486    83300752.533         874.810          50.000    20342889.611    83300748.536         874.810          52.000    20342887.931    79829888.916         838.408          57.000  
G03  24244051.864   127403358.534        3947.668          45.000    24244053.347    99275353.806        3076.106          43.000    24244053.954    99275356.799        3076.106          45.000    24244053.472    95138883.389        2947.955          44.000  
G08  22311878.610   117249706.386       -3063.221          53.000    22311879.717    91363413.617       -2386.926          46.000    22311880.450    91363416.619       -2386.927          48.000    22311878.306    87556588.338       -2287.530          52.000  
G10  23669060.477   124381758.937       -3037.036          49.000    23669061.924    96920843.401       -2366.524          43.000    23669061.996    96920860.408       -2366.523          45.000    23669060.084    92882488.428       -2267.932          49.000  
G11  20117177.583   105716488.789         238.791          52.000    20117174.957    82376477.526         186.070          49.000                                                                                                                                  
G14  24628056.399   129421323.883        2889.165          44.000    24628055.720   100847785.265        2251.296          36.000                                                                                                                                  
G17  24103921.467   126666958.427        3314.913          52.000    24103919.340    98701514.808        2583.048          41.000    24103919.823    98701521.808        2583.049          43.000                                                                  
G18  19978674.572   104988683.402        -724.992          53.000    19978673.357    81809335.693        -564.930          48.000                                                                                                                                  
G22  22764679.759   119629217.794        2996.322          51.000    22764675.953    93217562.875        2334.797          44.000                                                                                                                                  
G24  24345347.459   127935664.346        1285.576          44.000    24345348.460    99690128.595        1001.745          38.000    24345348.978    99690149.599        1001.744          40.000    24345349.854    95536386.282         959.935          47.000  
G27  25578822.009   134417591.547       -3895.141          42.000    25578824.547   104740972.288       -3035.180          38.000    25578825.136   104740979.289       -3035.182          39.000    25578824.850   100376766.619       -2908.653          42.000  
G28  21780973.694   114459791.413         240.605          52.000    21780970.996    89189438.477         187.483          45.000                                                                                                                                  
G32  23444130.577   123199749.503        1846.479          49.000    23444131.863    95999816.314        1438.813          43.000    23444132.256    95999816.321        1438.813          46.000    23444130.112    91999823.860        1378.867          48.000  
R03  23115174.336   123737349.626       -3812.665          47.000    23115173.211    96240155.489       -2965.408          41.000    23115173.157    96240159.488       -2965.408          40.000  
R05  21396260.867   114375302.498        3567.129          51.000    21396262.136    88958581.840        2774.434          46.000    21396262.118    88958581.840        2774.433          46.000  
R11  21276321.697   113694220.034       -2025.091          53.000    21276322.877    88428842.260       -1575.072          47.000    21276322.823    88428841.257       -1575.073          46.000  
R12  21733789.610   116098007.130        1837.111          51.000    21733791.182    90298478.819        1428.862          44.000    21733791.308    90298485.820        1428.864          43.000  
R19  23006321.413   123068297.146       -4028.843          35.000    23006322.467    95719791.822       -3133.549          38.000    23006322.020    95719787.822       -3133.548          38.000  
R20  19429835.305   103900070.707       -1060.008          47.000    19429838.235    80811170.502        -824.451          48.000    19429837.234    80811168.503        -824.451          48.000  
R21  20809071.674   111353546.519        3113.084          53.000    20809071.746    86608312.195        2421.286          47.000    20809071.674    86608318.189        2421.286          47.000  
E01  25446180.413   133720578.619        -519.089          51.000    25446180.949   102461220.653        -397.748          51.000    25446181.217   101158752.235        -392.646          54.000    25446182.271    99856286.459        -387.612          51.000  
E03  25592558.410   134489823.661         960.501          52.000    25592559.071   103050654.291         735.885          49.000    25592559.678   101740691.437         726.536          52.000    25592560.447   100430733.217         717.160          50.000  
E05  27056827.652   142184597.383       -1774.894          50.000    27056829.189   108946648.462       -1359.951          46.000    27056829.546   107561736.349       -1342.649          49.000    27056830.601   106176824.876       -1325.416          46.000  
E08  25192535.493   132387681.930        3056.569          48.000    25192535.743   101439921.147        2341.995          43.000    25192536.136   100150432.653        2312.381          46.000    25192537.315    98860946.802        2282.565          43.000  
E13  23193460.277   121882455.583         129.266          54.000    23193460.331    93390477.224          99.080          54.000    23193460.688    92203308.234          97.821          57.000    23193461.546    91016143.881          96.532          54.000  
E15  25106428.995   131935184.402       -2418.017          51.000    25106430.836   101093205.192       -1852.836          50.000    25106431.104    99808124.020       -1829.201          53.000    25106432.087    98523043.490       -1805.595          50.000  
E18  18163232.783    95448432.861       -3162.971          55.000    18163232.980    73135806.598       -2423.589          56.000    18163232.998    72206114.876       -2392.777          59.000    18163234.213    71276427.792       -2361.984          56.000  
E21  26690207.621   140257975.688       -2946.742          50.000    26690208.622   107470393.194       -2257.897          46.000    26690209.337   106104245.682       -2229.162          50.000    26690210.302   104738100.815       -2200.534          47.000  
E26  24525615.577   128882978.036        2562.062          50.000    24525617.739    98754502.490        1963.158          50.000    24525617.918    97499148.487        1938.210          52.000    24525618.794    96243796.116        1913.292          49.000  
E31  27237194.747   143132427.501        2177.931          48.000    27237196.105   109672910.057        1668.666          44.000    27237196.355   108278763.796        1647.426          47.000    27237197.641   106884622.171        1626.302          44.000  
C06  39290770.420   204597355.381        -239.023          45.000    39290765.202   158207646.695        -184.728          43.000  
C09  38930619.279   202721969.109         722.284          45.000    38930617.099   156757490.071         558.527          44.000  
C11  22098187.556   115071081.298       -1464.128          49.000    22098185.251    88980251.567       -1132.149          53.000  
C16  39131118.062   203766007.084         -53.763          47.000    39131118.365   157564811.655         -41.509          44.000  
C21  22939940.762   119454314.235          49.288          53.000                                                                  
C22  25458274.900   132567922.300       -2729.047          49.000                                                                  
C23  26631651.048   138677976.737       -3248.933          44.000                                                                  
C28  24027017.069   125114978.527        2834.639          50.000                                                                  
> 2019 09 27 10 12 30.0000000  0 38
G01  20336531.491   106869200.493        1104.610          55.000    20336532.599    83274722.118         860.736          52.000    20336532.760    83274718.123         860.736          53.000    20336531.044    79804943.097         824.863          57.000  
G03  24221528.532   127284998.428        3943.361          49.000    24221530.748    99183125.246        3072.752          42.000    24221531.194    99183128.246        3072.751          45.000    24221529.818    95050497.618        2944.694          45.000  
G08  22329396.185   117341761.699       -3073.376          54.000    22329397.203    91435145.014       -2394.838          47.000    22329397.954    91435148.019       -2394.839          49.000    22329395.809    87625330.918       -2295.102          51.000  
G10  23686430.579   124473038.987       -3047.826          49.000    23686431.973    96991970.692       -2374.929          44.000    23686432.026    96991987.697       -2374.930          46.000    23686430.097    92950652.065       -2276.040          48.000  
G11  20115872.448   105709630.187         218.777          52.000    20115869.803    82371133.164         170.476          49.000                                                                                                                                  
G14  24611588.897   129334786.544        2880.414          44.000    24611588.128   100780353.615        2244.481          38.000                                                                                                                                  
G17  24085010.572   126567580.872        3310.426          51.000    24085008.392    98624077.759        2579.555          41.000    24085008.821    98624084.754        2579.555          43.000                                                                  
G18  19982871.201   105010736.797        -744.792          53.000    19982869.986    81826520.161        -580.357          49.000                                                                                                                                  
G22  22747607.212   119539499.998        2985.287          51.000    22747603.084    93147652.936        2326.200          45.000                                                                                                                                  
G24  24338063.063   127897384.185        1266.766          44.000    24338064.099    99660299.911         987.093          38.000    24338064.528    99660320.923         987.091          41.000    24338065.475    95507800.456         946.037          47.000  
G27  25601060.884   134534455.788       -3895.542          42.000    25601063.261   104832035.340       -3035.483          39.000    25601063.922   104832042.323       -3035.484          40.000    25601063.386   100464035.300       -2908.949          43.000  
G28  21779653.245   114452852.576         222.324          52.000    21779650.618    89184031.595         173.241          46.000                                                                                                                                  
G32  23433637.797   123144609.882        1830.128          47.000    23433639.084    95956850.396        1426.074          44.000    23433639.584    95956850.408        1426.075          47.000    23433637.386    91958648.180        1366.486          47.000  
R03  23136579.764   123851935.426       -3825.948          47.000    23136578.924    96329277.688       -2975.741          42.000    23136579.049    96329281.703       -2975.739          41.000  
R05  21376292.126   114268557.990        3549.635          51.000    21376293.467    88875558.395        2760.827          47.000    21376293.449    88875558.397        2760.828          46.000  
R11  21287761.553   113755351.029       -2049.850          53.000    21287762.732    88476388.582       -1594.327          48.000    21287762.732    88476387.582       -1594.327          47.000  
R12  21723544.566   116043279.550        1811.686          51.000    21723546.193    90255912.955        1409.092          45.000    21723546.246    90255919.953        1409.092          44.000  
R19  23028929.997   123189235.667       -4033.856          37.000    23028930.980    95813855.046       -3137.444          40.000    23028930.730    95813851.046       -3137.445          39.000  
R20  19435838.349   103932171.291       -1079.790          48.000    19435841.190    80836137.634        -839.836          49.000    19435840.190    80836135.625        -839.836          49.000  
R21  20791654.630   111260344.581        3100.737          53.000    20791654.755    86535821.813        2411.686          48.000    20791654.720    86535827.811        2411.687          48.000  
E01  25449189.270   133736389.820        -534.653          51.000    25449189.717   102473335.730        -409.711          51.000    25449190.003   101170713.311        -404.525          53.000    25449191.182    99868093.523        -399.303          51.000  
E03  25587118.454   134461237.165         945.643          52.000    25587119.401   103028750.351         724.636          49.000    25587119.830   101719065.930         715.412          52.000    25587120.830   100409386.154         706.206          50.000  
E05  27066995.769   142238031.013       -1786.869          50.000    27066997.431   108987591.093       -1369.251          46.000    27066997.592   107602158.527       -1351.871          48.000    27066998.682   106216726.604       -1334.494          46.000  
E08  25175101.455   132296066.505        3051.403          47.000    25175101.688   101369722.321        2338.274          42.000    25175102.402   100081126.196        2308.438          45.000    25175103.367    98792532.701        2278.768          44.000  
E13  23192754.487   121878746.827         118.415          54.000    23192754.576    93387635.450          90.667          54.000    23192754.933    92200502.584          89.505          56.000    23192755.827    91013374.358          88.359          54.000  
E15  25120251.381   132007821.776       -2423.978          51.000    25120253.311   101148862.371       -1857.429          50.000    25120253.579    99863073.692       -1833.806          52.000    25120254.598    98577285.653       -1810.217          50.000  
E18  18181417.981    95543997.350       -3207.524          55.000    18181418.302    73209031.327       -2457.744          56.000    18181418.320    72278408.782       -2426.516          59.000    18181419.500    71347790.873       -2395.247          56.000  
E21  26707051.391   140346489.868       -2953.815          50.000    26707052.410   107538215.728       -2263.348          47.000    26707053.196   106171206.060       -2234.537          49.000    26707054.036   104804199.035       -2205.816          47.000  
E26  24511005.292   128806200.491        2556.698          50.000    24511007.490    98695672.953        1959.024          50.000    24511007.687    97441066.779        1934.107          52.000    24511008.419    96186462.235        1909.269          49.000  
E31  27224795.003   143067266.081        2166.729          48.000    27224796.450   109622981.183        1660.226          45.000    27224796.504   108229469.612        1639.131          47.000    27224797.665   106835962.687        1617.912          44.000  
C06  39292163.221   204604608.201        -244.289          46.000    39292158.074   158213255.031        -188.903          43.000  
C09  38926474.988   202700388.588         716.879          46.000    38926472.701   156740802.674         554.172          44.000  
C11  22106660.350   115115200.492       -1476.741          50.000    22106657.830    89014367.316       -1141.964          53.000  
C16  39131446.137   203767715.171         -59.774          47.000    39131446.369   157566132.446         -46.130          43.000  
C21  22939709.930   119453111.575          31.333          53.000                                                                  
C22  25474028.391   132649954.085       -2739.216          49.000                                                                  
C23  26650379.571   138775501.867       -3252.463          45.000                                                                  
C28  24010706.815   125030047.051        2827.756          50.000                                                                  
> 2019 09 27 10 13  0.0000000  0 38
G01  20330278.977   106836343.321        1085.993          55.000    20330280.120    83249119.123         846.228          52.000    20330280.228    83249115.128         846.228          53.000    20330278.512    79780406.895         810.958          57.000  
G03  24199029.288   127166764.363        3938.757          49.000    24199031.700    99090994.879        3069.164          41.000    24199032.093    99090997.884        3069.165          43.000    24199030.592    94962206.000        2941.266          47.000  
G08  22346971.834   117434122.122       -3083.880          53.000    22346972.835    91507114.161       -2403.023          47.000    22346973.639    91507117.166       -2403.023          49.000    22346971.566    87694301.347       -2302.959          52.000  
G10  23703862.972   124564646.824       -3059.133          49.000    23703864.384    97063353.374       -2383.741          44.000    23703864.473    97063370.386       -2383.741          47.000    23703862.347    93019060.479       -2284.493          48.000  
G11  20114680.834   105703368.477         198.588          52.000    20114678.243    82366253.911         154.745          50.000                                                                                                                                  
G14  24595170.588   129248508.123        2871.360          44.000    24595169.784   100713123.739        2237.426          37.000                                                                                                                                  
G17  24066125.767   126468340.585        3305.574          51.000    24066123.641    98546747.672        2575.772          41.000    24066123.998    98546754.678        2575.772          43.000                                                                  
G18  19987181.388   105033386.901        -765.166          53.000    19987180.155    81844169.597        -596.233          49.000                                                                                                                                  
G22  22730598.636   119450118.659        2973.526          51.000    22730594.294    93078005.158        2317.033          45.000                                                                                                                                  
G24  24330886.345   127859670.393        1247.453          44.000    24330887.435    99630912.561         972.044          38.000    24330887.971    99630933.573         972.043          40.000    24330888.739    95479637.585         931.579          47.000  
G27  25623302.868   134651337.838       -3896.487          44.000    25623305.638   104923112.070       -3036.225          36.000    25623305.923   104923119.072       -3036.228          40.000    25623305.352   100551317.200       -2909.761          41.000  
G28  21778437.562   114446464.302         203.599          51.000    21778435.024    89179053.715         158.649          46.000                                                                                                                                  
G32  23423240.295   123089972.982        1812.718          47.000    23423241.814    95914276.211        1412.507          44.000    23423242.350    95914276.216        1412.507          47.000    23423239.759    91917847.924        1353.570          47.000  
R03  23158060.492   123966921.600       -3839.598          48.000    23158059.205    96418711.371       -2986.354          40.000    23158059.170    96418715.372       -2986.354          40.000  
R05  21356421.880   114162340.676        3531.494          51.000    21356423.220    88792944.970        2746.719          46.000    21356423.256    88792944.963        2746.718          46.000  
R11  21299340.984   113817227.658       -2075.138          53.000    21299342.110    88524514.841       -1613.997          48.000    21299342.074    88524513.836       -1613.998          47.000  
R12  21713442.833   115989318.160        1785.725          52.000    21713444.441    90213942.992        1388.897          44.000    21713444.441    90213949.990        1388.896          44.000  
R19  23051566.261   123310325.012       -4038.975          36.000    23051567.065    95908035.586       -3141.423          38.000    23051566.779    95908031.587       -3141.423          38.000  
R20  19441952.486   103964866.571       -1100.056          47.000    19441955.452    80861567.294        -855.599          49.000    19441954.380    80861565.285        -855.599          49.000  
R21  20774307.293   111167515.937        3087.832          53.000    20774307.436    86463621.754        2401.647          48.000    20774307.490    86463627.751        2401.647          47.000  
E01  25452287.777   133752672.203        -550.779          51.000    25452288.116   102485811.834        -422.005          51.000    25452288.456   101183030.819        -416.647          54.000    25452289.689    99880252.439        -411.296          51.000  
E03  25581762.339   134433090.819         930.644          52.000    25581763.322   103007183.681         713.107          49.000    25581763.733   101697773.420         704.061          52.000    25581764.948   100388367.794         695.057          50.000  
E05  27077233.665   142291831.234       -1799.646          50.000    27077235.077   109028814.626       -1378.928          46.000    27077235.577   107642858.023       -1361.418          48.000    27077236.507   106256902.061       -1343.951          46.000  
E08  25157696.866   132204605.059        3045.851          49.000    25157697.009   101299641.520        2333.815          44.000    25157697.652   100011936.258        2304.119          46.000    25157699.028    98724233.626        2274.569          44.000  
E13  23192111.595   121875368.599         106.878          53.000    23192111.720    93385046.925          81.955          54.000    23192112.077    92197946.968          80.897          56.000    23192112.989    91010851.643          79.856          54.000  
E15  25134108.380   132080641.299       -2430.540          51.000    25134110.435   101204659.112       -1862.344          50.000    25134110.685    99918161.155       -1838.650          52.000    25134111.757    98631663.836       -1814.991          50.000  
E18  18199857.168    95640896.003       -3252.337          55.000    18199857.454    73283278.333       -2492.021          57.000    18199857.544    72351711.968       -2460.344          59.000    18199858.687    71420150.241       -2428.678          56.000  
E21  26723935.170   140435215.014       -2961.185          50.000    26723936.421   107606199.876       -2268.923          47.000    26723937.082   106238326.002       -2240.043          50.000    26723938.136   104870454.765       -2211.189          47.000  
E26  24496425.956   128729585.239        2550.936          50.000    24496428.011    98636967.769        1954.558          50.000    24496428.351    97383107.847        1929.736          52.000    24496429.030    96129249.553        1904.965          49.000  
E31  27212458.730   143002438.341        2155.257          48.000    27212460.177   109573308.000        1651.323          45.000    27212460.266   108180427.863        1630.350          47.000    27212461.374   106787552.370        1609.307          44.000  
C06  39293587.275   204612023.359        -250.036          46.000    39293582.164   158218988.890        -193.340          43.000  
C09  38922362.808   202678975.382         710.697          46.000    38922360.467   156724244.614         549.642          45.000  
C11  22115206.210   115159700.459       -1489.846          50.000    22115203.566    89048777.522       -1152.087          53.000  
C16  39131808.574   203769602.239         -66.133          47.000    39131808.664   157567591.645         -51.114          44.000  
C21  22939582.810   119452449.115          12.853          53.000                                                                  
C22  25489840.601   132732292.462       -2749.859          49.000                                                                  
C23  26669128.732   138873133.507       -3256.320          44.000                                                                  
C28  23994435.836   124945319.774        2820.583          50.000                                                                  
> 2019 09 27 10 13 30.0000000  0 38
G01  20324130.496   106804033.028        1068.001          55.000    20324131.676    83223942.275         832.210          51.000    20324131.801    83223938.278         832.209          52.000    20324130.085    79756279.077         797.516          57.000  
G03  24176553.988   127048656.432        3934.788          48.000    24176555.829    98998962.753        3066.072          38.000    24176556.454    98998965.753        3066.071          40.000    24176555.829    94874008.590        2938.403          48.000  
G08  22364604.718   117526783.529       -3093.629          53.000    22364605.826    91579317.827       -2410.620          47.000    22364606.576    91579320.834       -2410.620          49.000    22364604.557    87763496.518       -2310.182          51.000  
G10  23721356.746   124656577.588       -3069.718          49.000    23721358.211    97134987.689       -2391.989          43.000    23721358.336    97135004.699       -2391.989          45.000    23721356.210    93087710.025       -2292.257          48.000  
G11  20113602.278   105697700.807         179.019          52.000    20113599.740    82361837.540         139.495          50.000                                                                                                                                  
G14  24578801.813   129162489.428        2862.791          44.000    24578801.384   100646096.250        2230.748          37.000                                                                                                                                  
G17  24047267.086   126369237.204        3301.224          51.000    24047264.727    98469524.250        2572.383          40.000    24047265.138    98469531.242        2572.383          43.000                                                                  
G18  19991604.526   105056630.573        -784.597          53.000    19991603.275    81862281.550        -611.374          48.000                                                                                                                                  
G22  22713654.102   119361073.714        2962.550          51.000    22713649.653    93008619.513        2308.482          45.000                                                                                                                                  
G24  24323817.091   127822521.916        1228.949          45.000    24323817.985    99601965.687         957.622          38.000    24323818.575    99601986.694         957.624          40.000    24323819.450    95451896.837         917.778          46.000  
G27  25645547.532   134768233.516       -3896.544          42.000    25645550.069   105014199.607       -3036.268          35.000    25645550.516   105014206.615       -3036.266          38.000    25645549.766   100638609.354       -2909.684          41.000  
G28  21777326.341   114440624.885         185.505          52.000    21777323.839    89174503.508         144.550          46.000                                                                                                                                  
G32  23412938.696   123035838.621        1796.228          48.000    23412940.501    95872093.629        1399.661          44.000    23412940.948    95872093.626        1399.660          47.000    23412938.392    91877422.927        1341.346          47.000  
R03  23179614.429   124082301.943       -3852.555          48.000    23179613.553    96508451.534       -2996.434          42.000    23179613.393    96508455.528       -2996.435          42.000  
R05  21336650.521   114056652.341        3514.182          51.000    21336651.986    88710742.962        2733.253          48.000    21336651.950    88710742.962        2733.253          47.000  
R11  21311059.007   113879844.736       -2099.475          54.000    21311060.007    88573216.998       -1632.924          48.000    21311060.007    88573215.995       -1632.924          48.000  
R12  21703484.498   115936122.855        1760.421          52.000    21703486.177    90172568.885        1369.218          46.000    21703486.231    90172575.876        1369.218          45.000  
R19  23074230.347   123431560.926       -4043.724          36.000    23074231.223    96002330.153       -3145.121          41.000    23074230.919    96002326.154       -3145.120          41.000  
R20  19448177.249   103998153.367       -1119.359          47.000    19448180.251    80887457.006        -870.612          50.000    19448179.179    80887455.006        -870.612          50.000  
R21  20757029.807   111075060.433        3075.673          52.000    20757029.914    86391711.918        2392.190          48.000    20757029.896    86391717.919        2392.191          48.000  
E01  25455475.432   133769423.017        -566.121          52.000    25455475.700   102498646.863        -433.725          51.000    25455476.057   101195702.693        -428.229          54.000    25455477.308    99892761.148        -422.669          51.000  
E03  25576489.744   134405383.035         916.425          52.000    25576490.477   102985953.033         702.210          49.000    25576491.031   101676812.659         693.256          52.000    25576492.335   100367676.923         684.317          49.000  
E05  27087540.536   142345994.268       -1811.443          50.000    27087542.055   109070316.133       -1387.891          46.000    27087542.394   107683831.973       -1370.208          49.000    27087543.377   106297348.458       -1352.675          46.000  
E08  25140321.761   132113297.199        3041.238          47.000    25140321.832   101229678.389        2330.197          43.000    25140322.261    99942862.486        2300.554          46.000    25140323.887    98656049.216        2271.012          43.000  
E13  23191531.209   121872318.569          96.260          54.000    23191531.334    93382709.888          73.763          54.000    23191531.674    92195639.635          72.850          56.000    23191532.603    91008574.018          71.933          53.000  
E15  25147999.580   132153639.767       -2436.185          51.000    25148001.510   101260592.981       -1866.603          50.000    25148001.867    99973384.002       -1842.917          53.000    25148002.868    98686175.657       -1819.187          50.000  
E18  18218548.560    95739119.137       -3296.073          56.000    18218548.613    73358540.193       -2525.499          56.000    18218548.810    72426017.107       -2493.382          59.000    18218549.882    71493498.659       -2461.282          56.000  
E21  26740858.421   140524146.890       -2967.833          49.000    26740859.654   107674342.442       -2273.928          47.000    26740860.315   106305602.350       -2244.986          50.000    26740861.137   104936864.887       -2216.017          46.000  
E26  24481877.230   128653130.741        2545.875          50.000    24481879.142    98578385.758        1950.745          50.000    24481879.518    97325270.527        1925.924          52.000    24481880.304    96072156.926        1901.155          49.000  
E31  27200185.731   142937943.589        2144.372          48.000    27200187.232   109523889.964        1643.119          45.000    27200187.303   108131638.022        1622.238          47.000    27200188.286   106739390.723        1601.291          44.000  
C06  39295042.099   204619598.307        -255.061          46.000    39295036.845   158224846.314        -197.188          43.000  
C09  38918282.398   202657727.056         705.535          46.000    38918280.004   156707814.077         545.685          44.000  
C11  22123824.583   115204578.311       -1502.254          50.000    22123821.849    89083479.906       -1161.536          53.000  
C16  39132204.873   203771665.858         -71.726          48.000    39132204.873   157569187.362         -55.380          44.000  
C21  22939558.883   119452324.383          -4.768          53.000                                                                  
C22  25505710.973   132814932.893       -2759.655          48.000                                                                  
C23  26687897.228   138970866.924       -3259.403          42.000                                                                  
C28  23978204.009   124860795.752        2814.112          51.000                                                                  
> 2019 09 27 10 14  0.0000000  0 39
G01  20318086.049   106772269.872        1049.663          55.000    20318087.353    83199191.762         817.919          51.000    20318087.496    83199187.765         817.919          52.000    20318085.781    79732559.837         783.901          57.000  
G03  24154103.312   126930676.831        3930.368          48.000    24154104.295    98907030.580        3062.624          36.000    24154104.956    98907033.584        3062.625          39.000    24154105.385    94785907.009        2935.173          48.000  
G08  22382294.568   117619743.709       -3103.639          54.000    22382295.587    91651754.308       -2418.421          47.000    22382296.337    91651757.315       -2418.421          49.000    22382294.371    87832914.806       -2317.600          51.000  
G10  23738911.560   124748828.418       -3080.380          49.000    23738913.025    97206871.424       -2400.297          43.000    23738913.061    97206888.431       -2400.298          46.000    23738910.899    93156598.600       -2300.269          48.000  
G11  20112636.832   105692627.310         159.148          51.000    20112634.295    82357884.166         124.012          49.000                                                                                                                                  
G14  24562482.928   129076732.553        2854.055          44.000    24562481.677   100579272.743        2223.942          36.000                                                                                                                                  
G17  24028434.083   126270270.642        3296.555          51.000    24028432.117    98392407.496        2568.744          40.000    24028432.475    98392414.498        2568.744          42.000                                                                  
G18  19996140.345   105080466.446        -804.369          54.000    19996139.094    81880854.955        -626.781          48.000                                                                                                                                  
G19  25702944.621   135069885.940        4015.655          44.000    25702942.584   105249246.645        3129.082          39.000                                                                                                                                  
G22  22696773.790   119272367.019        2951.291          51.000    22696769.395    92939497.446        2299.708          45.000                                                                                                                                  
G24  24316855.838   127785940.228        1209.785          45.000    24316856.750    99573460.467         942.689          39.000    24316857.232    99573481.471         942.687          40.000    24316858.143    95424579.350         903.597          47.000  
G27  25667794.126   134885141.181       -3897.372          41.000    25667797.092   105105296.338       -3036.916          37.000    25667797.450   105105303.337       -3036.916          39.000    25667796.503   100725910.371       -2910.175          41.000  
G28  21776319.475   114435334.062         167.241          51.000    21776316.973    89170380.781         130.318          45.000                                                                                                                                  
G32  23402733.715   122982208.580        1779.204          48.000    23402735.269    95830303.993        1386.392          44.000    23402735.591    95830303.995        1386.391          47.000    23402733.447    91837374.537        1328.640          48.000  
R03  23201241.307   124198071.794       -3865.414          48.000    23201240.396    96598494.679       -3006.436          42.000    23201240.128    96598498.671       -3006.436          41.000  
R05  21316978.728   113951496.381        3496.321          51.000    21316980.247    88628955.042        2719.361          48.000    21316980.283    88628955.040        2719.361          47.000  
R11  21322914.978   113943199.161       -2124.041          53.000    21322916.015    88622492.655       -1652.033          48.000    21322916.050    88622491.650       -1652.033          48.000  
R12  21693669.955   115883695.844        1734.707          51.000    21693671.849    90131792.333        1349.219          46.000    21693671.867    90131799.323        1349.219          45.000  
R19  23096921.201   123552941.552       -4048.613          38.000    23096921.808    96096737.221       -3148.916          37.000    23096921.451    96096733.229       -3148.916          37.000  
R20  19454512.479   104032030.401       -1139.133          48.000    19454515.392    80913805.817        -885.992          49.000    19454514.355    80913803.810        -885.992          49.000  
R21  20739822.366   110982980.025        3063.040          53.000    20739822.438    86320093.830        2382.364          49.000    20739822.331    86320099.831        2382.364          48.000  
E01  25458752.074   133786641.606        -581.725          51.000    25458752.271   102511840.329        -445.717          51.000    25458752.664   101208728.443        -440.096          54.000    25458753.897    99905619.190        -434.412          51.000  
E03  25571300.741   134378114.180         901.534          52.000    25571301.241   102965058.706         690.898          49.000    25571301.867   101656183.943         682.075          52.000    25571303.100   100347313.810         673.301          49.000  
E05  27097916.237   142400518.379       -1823.550          50.000    27097917.721   109112094.334       -1397.245          45.000    27097918.007   107725079.094       -1379.475          48.000    27097919.114   106338064.487       -1361.646          46.000  
E08  25122975.800   132022144.410        3035.835          48.000    25122975.925   101159834.058        2326.285          43.000    25122976.515    99873906.013        2296.619          46.000    25122977.819    98587980.604        2267.020          43.000  
E13  23191013.222   121869596.472          85.260          54.000    23191013.347    93380624.126          65.385          54.000    23191013.668    92193580.389          64.535          56.000    23191014.598    91006541.288          63.699          54.000  
E15  25161924.623   132226816.055       -2442.213          51.000    25161926.571   101316663.103       -1871.228          50.000    25161926.893   100028741.362       -1847.452          53.000    25161927.983    98740820.261       -1823.680          50.000  
E18  18237490.600    95838659.066       -3339.850          56.000    18237490.367    73434811.028       -2559.063          56.000    18237490.671    72501318.398       -2526.519          59.000    18237491.690    71567830.403       -2493.980          56.000  
E21  26757820.573   140613283.304       -2974.612          50.000    26757821.949   107742641.739       -2279.210          47.000    26757822.342   106373033.431       -2250.224          50.000    26757823.272   105003427.762       -2221.267          47.000  
E26  24467359.149   128576837.509        2540.308          50.000    24467360.918    98519927.298        1946.673          49.000    24467361.401    97267555.181        1921.887          52.000    24467362.205    96015184.696        1897.107          49.000  
E31  27187976.399   142873783.119        2133.181          48.000    27187977.864   109474728.056        1634.410          45.000    27187977.954   108083101.061        1613.714          47.000    27187979.008   106691478.712        1592.840          44.000  
C06  39296527.444   204627332.602        -260.411          46.000    39296522.101   158230826.957        -201.349          43.000  
C09  38914233.724   202636643.563         700.153          46.000    38914231.241   156691511.005         541.401          44.000  
C11  22132515.307   115249833.075       -1514.763          50.000    22132512.502    89118473.753       -1171.311          53.000  
C16  39132634.945   203773905.523         -77.559          47.000    39132634.963   157570919.219         -59.937          44.000  
C21  22939638.079   119452736.926         -22.637          53.000                                                                  
C22  25521638.652   132897872.958       -2769.755          49.000                                                                  
C23  26706684.844   139068699.493       -3262.599          42.000                                                                  
C28  23962011.279   124776476.040        2807.217          51.000                                                                  
> 2019 09 27 10 14 30.0000000  0 39
G01  20312146.404   106741057.098        1031.493          55.000    20312147.797    83174870.122         803.760          51.000    20312147.923    83174866.129         803.760          52.000    20312146.207    79709251.596         770.347          57.000  
G03  24131678.010   126812830.553        3926.228          48.000    24131678.260    98815202.316        3059.400          38.000    24131679.153    98815205.309        3059.399          40.000    24131680.154    94697904.996        2931.950          48.000  
G08  22400041.385   117713003.963       -3113.354          53.000    22400042.546    91724424.620       -2425.991          46.000    22400043.261    91724427.627       -2425.990          48.000    22400041.278    87902557.179       -2324.840          52.000  
G10  23756527.307   124841399.370       -3090.815          49.000    23756528.719    97279004.599       -2408.428          42.000    23756528.755    97279021.606       -2408.428          44.000    23756526.646    93225726.219       -2308.007          48.000  
G11  20111784.945   105688150.759         139.520          51.000    20111782.425    82354395.940         108.717          49.000                                                                                                                                  
G14  24546214.487   128991242.706        2845.385          44.000    24546213.486   100512657.340        2217.188          37.000                                                                                                                                  
G17  24009628.437   126171445.867        3292.054          51.000    24009626.347    98315401.187        2565.238          41.000    24009626.793    98315408.182        2565.238          42.000                                                                  
G18  20000789.203   105104896.290        -823.908          53.000    20000787.952    81899891.197        -642.005          48.000                                                                                                                                  
G19  25680021.720   134949426.744        4015.477          42.000    25680019.254   105155382.351        3128.937          34.000                                                                                                                                  
G22  22679958.682   119184003.209        2939.967          51.000    22679954.376    92870642.566        2290.884          44.000                                                                                                                                  
G24  24310003.229   127749929.343        1191.097          46.000    24310004.408    99545400.023         928.127          37.000    24310004.873    99545421.021         928.126          40.000    24310005.570    95397688.118         889.521          47.000  
G27  25690043.508   135002061.799       -3897.834          42.000    25690046.349   105196403.221       -3037.275          38.000    25690046.653   105196410.243       -3037.272          38.000    25690045.867   100813221.112       -2910.173          42.000  
G28  21775417.536   114430594.596         149.046          51.000    21775415.052    89166687.693         116.141          45.000                                                                                                                                  
G32  23392624.833   122929087.467        1762.458          46.000    23392626.388    95788910.947        1373.345          43.000    23392626.853    95788910.950        1373.346          46.000    23392624.941    91797706.211        1316.137          48.000  
R03  23222940.788   124314230.100       -3878.097          47.000    23222939.787    96688839.930       -3016.300          41.000    23222939.608    96688843.929       -3016.300          41.000  
R05  21297408.020   113846879.543        3478.545          51.000    21297409.521    88547586.446        2705.537          47.000    21297409.557    88547586.441        2705.538          47.000  
R11  21334908.738   114007290.338       -2148.385          53.000    21334909.649    88672341.353       -1670.965          47.000    21334909.685    88672340.341       -1670.966          46.000  
R12  21684000.526   115832042.362        1709.211          51.000    21684002.295    90091617.369        1329.386          46.000    21684002.366    90091624.369        1329.387          45.000  
R19  23119639.144   123674467.095       -4052.640          35.000    23119639.912    96191257.057       -3152.058          41.000    23119639.591    96191253.059       -3152.058          40.000  
R20  19460958.479   104066499.683       -1158.526          47.000    19460961.284    80940615.242        -901.077          49.000    19460960.248    80940613.238        -901.076          49.000  
R21  20722685.973   110891279.476        3050.595          53.000    20722685.991    86248771.192        2372.685          48.000    20722685.955    86248777.191        2372.686          47.000  
E01  25462118.080   133804330.162        -597.194          52.000    25462118.330   102525393.885        -457.485          51.000    25462118.688   101222109.701        -451.656          53.000    25462119.867    99918828.159        -445.876          51.000  
E03  25566195.811   134351287.476         887.115          52.000    25566196.365   102944503.185         679.752          49.000    25566196.883   101635889.715         671.158          52.000    25566197.991   100327280.887         662.489          49.000  
E05  27108360.771   142455404.740       -1835.396          50.000    27108361.950   109154150.110       -1406.269          46.000    27108362.629   107766600.254       -1388.279          48.000    27108363.612   106379051.044       -1370.481          46.000  
E08  25105660.377   131931151.132        3030.646          48.000    25105660.735   101090111.971        2322.303          44.000    25105660.967    99805070.224        2292.766          46.000    25105662.450    98520031.115        2263.286          44.000  
E13  23190558.151   121867204.873          74.520          53.000    23190558.241    93378791.602          57.137          54.000    23190558.562    92191771.160          56.411          56.000    23190559.474    91004755.351          55.699          54.000  
E15  25175883.815   132300171.883       -2447.878          51.000    25175885.727   101372870.785       -1875.582          50.000    25175886.066   100084234.535       -1851.742          52.000    25175887.103    98795598.925       -1827.906          50.000  
E18  18256682.270    95939510.973       -3383.154          56.000    18256681.841    73512087.157       -2592.258          56.000    18256682.180    72577612.199       -2559.284          59.000    18256683.145    71643141.883       -2526.346          56.000  
E21  26774821.841   140702624.972       -2981.273          50.000    26774823.002   107811098.299       -2284.151          47.000    26774823.628   106440619.778       -2255.155          49.000    26774824.503   105070143.890       -2226.149          47.000  
E26  24452872.357   128500708.923        2535.147          51.000    24452874.126    98461595.016        1942.604          50.000    24452874.555    97209964.409        1917.949          52.000    24452875.538    95958335.445        1893.185          50.000  
E31  27175831.593   142809961.163        2121.995          48.000    27175833.147   109425825.544        1626.056          45.000    27175833.058   108034820.184        1605.402          47.000    27175833.933   106643819.466        1584.692          44.000  
C06  39298043.755   204635228.574        -265.670          46.000    39298038.520   158236932.612        -205.329          43.000  
C09  38910217.286   202615727.561         694.756          47.000    38910214.517   156675337.434         537.255          44.000  
C11  22141278.634   115295466.535       -1527.241          50.000    22141275.935    89153760.412       -1180.737          53.000  
C16  39133099.343   203776323.660         -83.224          48.000    39133099.379   157572789.068         -64.237          44.000  
C21  22939820.879   119453689.198         -40.560          53.000                                                                  
C22  25537624.048   132981113.064       -2779.373          47.000                                                                  
C23  26725491.633   139166631.249       -3265.787          42.000                                                                  
C28  23945858.719   124692364.608        2800.547          51.000                                                                  
> 2019 09 27 10 15  0.0000000  0 39
G01  20306310.381   106710388.323        1013.206          55.000    20306311.721    83150972.376         789.509          52.000    20306311.864    83150968.381         789.510          53.000    20306310.148    79686349.592         756.630          57.000  
G03  24109277.188   126695113.151        3921.697          48.000    24109277.867    98723474.506        3055.868          42.000    24109278.582    98723477.511        3055.868          44.000    24109279.136    94609999.178        2928.538          45.000  
G08  22417843.631   117806555.176       -3123.288          53.000    22417844.703    91797321.651       -2433.732          46.000    22417845.454    91797324.658       -2433.731          48.000    22417843.345    87972416.838       -2332.251          50.000  
G10  23774202.112   124934281.004       -3101.178          48.000    23774203.631    97351379.868       -2416.505          43.000    23774203.613    97351396.880       -2416.505          46.000    23774201.594    93295085.839       -2315.869          47.000  
G11  20111045.417   105684264.716         119.536          51.000    20111042.951    82351367.852          93.144          50.000                                                                                                                                  
G14  24529996.508   128906015.904        2836.519          44.000    24529995.739   100446246.907        2210.280          36.000                                                                                                                                  
G17  23990848.737   126072758.010        3287.188          50.000    23990846.557    98238501.554        2561.447          41.000    23990847.004    98238508.560        2561.447          43.000                                                                  
G18  20005549.529   105129912.187        -843.695          53.000    20005548.332    81919384.092        -657.424          49.000                                                                                                                                  
G19  25657101.249   134828978.881        4014.706          44.000    25657098.551   105061526.992        3128.347          38.000                                                                                                                                  
G22  22663207.974   119095977.627        2928.427          51.000    22663203.704    92802051.235        2281.892          45.000                                                                                                                                  
G24  24303258.244   127714483.572        1172.034          45.000    24303259.406    99517779.946         913.273          40.000    24303259.853    99517800.948         913.271          42.000    24303260.514    95371218.890         875.202          46.000  
G27  25712293.747   135118987.132       -3897.594          43.000    25712296.428   105287513.754       -3037.086          38.000    25712296.928   105287520.753       -3037.090          39.000    25712295.981   100900535.403       -2910.603          41.000  
G28  21774619.363   114426400.331         130.743          51.000    21774616.914    89163419.420         101.876          46.000                                                                                                                                  
G32  23382611.658   122876470.435        1745.365          47.000    23382613.481    95747910.720        1360.025          44.000    23382614.071    95747910.725        1360.027          46.000    23382611.748    91758414.331        1303.416          47.000  
R03  23244710.654   124430765.573       -3890.777          47.000    23244709.797    96779478.548       -3026.164          40.000    23244709.636    96779482.556       -3026.164          40.000  
R05  21277937.736   113742798.786        3460.343          52.000    21277939.130    88466634.776        2691.380          47.000    21277939.184    88466634.767        2691.379          47.000  
R11  21347038.642   114072108.323       -2172.628          53.000    21347039.410    88722755.320       -1689.823          47.000    21347039.410    88722754.318       -1689.822          46.000  
R12  21674474.853   115781157.685        1683.179          52.000    21674476.658    90052040.403        1309.140          45.000    21674476.730    90052047.401        1309.139          45.000  
R19  23142382.783   123796128.748       -4057.852          38.000    23142383.444    96285882.718       -3156.105          38.000    23142383.051    96285878.712       -3156.106          37.000  
R20  19467513.623   104101553.010       -1178.246          48.000    19467516.446    80967878.941        -916.413          49.000    19467515.392    80967876.939        -916.413          48.000  
R21  20705619.645   110799954.141        3037.875          53.000    20705619.663    86177740.371        2362.790          48.000    20705619.609    86177746.370        2362.791          47.000  
E01  25465572.109   133822481.316        -612.764          51.000    25465572.395   102539301.903        -469.498          51.000    25465572.752   101235840.927        -463.518          53.000    25465573.824    99932382.583        -457.564          50.000  
E03  25561173.633   134324896.720         872.207          51.000    25561174.562   102924281.700         668.406          50.000    25561174.884   101615925.286         659.910          52.000    25561175.974   100307573.506         651.432          49.000  
E05  27118872.617   142510645.004       -1847.387          50.000    27118874.082   109196477.028       -1415.462          46.000    27118874.386   107808389.130       -1397.479          48.000    27118875.636   106420301.866       -1379.477          45.000  
E08  25088374.117   131840312.262        3025.247          49.000    25088374.528   101020508.209        2318.076          44.000    25088374.939    99736351.257        2288.590          45.000    25088376.189    98452196.946        2259.163          42.000  
E13  23190164.640   121865136.879          63.499          54.000    23190164.693    93377207.028          48.641          54.000    23190165.033    92190206.727          48.017          56.000    23190165.944    91003211.063          47.403          53.000  
E15  25189875.724   132373699.527       -2453.850          50.000    25189877.565   101429210.125       -1880.155          50.000    25189877.958   100139857.700       -1856.272          52.000    25189878.923    98850505.908       -1832.351          49.000  
E18  18276120.783    96041660.461       -3426.576          56.000    18276120.264    73590357.540       -2625.515          57.000    18276120.586    72654887.623       -2592.172          59.000    18276121.533    71719422.340       -2558.781          56.000  
E21  26791860.401   140792163.078       -2987.944          50.000    26791861.634   107879705.376       -2289.385          48.000    26791862.170   106508354.734       -2260.265          49.000    26791862.992   105137006.726       -2231.176          46.000  
E26  24438415.800   128424738.867        2529.648          51.000    24438417.497    98403384.201        1938.352          50.000    24438417.944    97152493.564        1913.733          52.000    24438418.873    95901604.566        1889.045          49.000  
E31  27163750.025   142746472.365        2110.766          48.000    27163751.383   109377178.303        1617.318          45.000    27163751.526   107986791.351        1596.751          47.000    27163752.455   106596409.030        1576.250          44.000  
C06  39299589.783   204643279.159        -271.108          46.000    39299584.601   158243157.840        -209.608          44.000  
C09  38906231.583   202594972.253         688.987          46.000    38906228.599   156659288.107         533.124          45.000  
C11  22150113.257   115341471.227       -1539.666          49.000    22150110.666    89189334.156       -1190.567          54.000  
C16  39133596.674   203778913.255         -89.220          47.000    39133596.817   157574791.504         -69.020          44.000  
C21  22940106.033   119455174.078         -58.499          53.000                                                                  
C22  25553665.373   133064644.186       -2789.206          48.000                                                                  
C23  26744315.630   139264653.027       -3268.988          41.000                                                                  
C28  23929744.863   124608455.959        2793.450          51.000                                                                  
> 2019 09 27 10 15 30.0000000  0 39
G01  20300578.945   106680269.371         994.635          55.000    20300580.285    83127503.062         775.040          50.000    20300580.410    83127499.065         775.040          52.000    20300578.695    79663858.168         742.700          57.000  
G03  24086902.223   126577532.291        3916.920          49.000    24086903.420    98631853.132        3052.147          41.000    24086903.992    98631856.132        3052.147          43.000    24086904.010    94522195.329        2924.935          44.000  
G08  22435701.825   117900400.950       -3133.258          52.000    22435702.987    91870448.193       -2441.501          46.000    22435703.684    91870451.200       -2441.501          48.000    22435701.468    88042496.437       -2339.717          50.000  
G10  23791936.492   125027475.982       -3111.810          48.000    23791937.993    97423999.301       -2424.789          43.000    23791938.029    97424016.309       -2424.788          44.000    23791936.081    93364679.465       -2323.849          47.000  
G11  20110419.269   105680974.574          99.553          51.000    20110416.839    82348804.099          77.574          49.000                                                                                                                                  
G14  24513829.974   128821060.192        2827.097          43.000    24513829.080   100380047.669        2202.934          33.000                                                                                                                                  
G17  23972096.449   125974213.977        3282.205          51.000    23972094.233    98161713.995        2557.562          40.000    23972094.697    98161720.995        2557.563          41.000                                                                  
G18  20010422.161   105155518.498        -863.530          52.000    20010421.071    81939337.050        -672.881          48.000                                                                                                                                  
G19  25634184.370   134708548.801        4013.770          42.000    25634181.833   104967685.433        3127.619          37.000                                                                                                                                  
G22  22646523.042   119008297.476        2916.666          51.000    22646518.575    92733729.062        2272.727          44.000                                                                                                                                  
G24  24296621.886   127679609.272        1152.669          45.000    24296623.208    99490605.167         898.185          39.000    24296623.691    99490626.178         898.185          42.000    24296624.084    95345176.407         860.759          46.000  
G27  25734545.362   135235920.972       -3898.154          41.000    25734548.311   105378630.860       -3037.523          34.000    25734548.990   105378637.867       -3037.522          37.000    25734547.971   100987855.940       -2910.838          39.000  
G28  21773925.973   114422756.644         112.055          51.000    21773923.543    89160580.188          87.317          45.000                                                                                                                                  
G32  23372696.906   122824364.884        1728.094          48.000    23372698.139    95707308.990        1346.567          44.000    23372698.675    95707308.990        1346.568          46.000    23372696.102    91719504.335        1290.431          48.000  
R03  23266551.193   124547679.255       -3903.550          46.000    23266550.496    96870411.316       -3036.097          40.000    23266550.281    96870415.313       -3036.097          39.000  
R05  21258569.198   113639262.970        3441.849          52.000    21258570.574    88386106.938        2676.996          47.000    21258570.664    88386106.938        2676.996          47.000  
R11  21359304.618   114137655.339       -2197.169          52.000    21359305.762    88773736.314       -1708.911          47.000    21359305.797    88773735.312       -1708.910          46.000  
R12  21665094.635   115731049.585        1657.109          52.000    21665096.440    90013067.460        1288.861          46.000    21665096.475    90013074.460        1288.863          45.000  
R19  23165152.010   123917930.147       -4062.803          35.000    23165152.761    96380617.113       -3159.961          39.000    23165152.278    96380613.105       -3159.961          39.000  
R20  19474178.804   104137195.180       -1198.075          47.000    19474181.681    80995600.629        -931.837          48.000    19474180.609    80995598.623        -931.837          48.000  
R21  20688624.828   110709011.685        3024.822          53.000    20688624.917    86107007.371        2352.640          48.000    20688624.899    86107013.365        2352.639          47.000  
E01  25469115.161   133841099.878        -628.585          52.000    25469115.411   102553568.073        -481.688          51.000    25469115.750   101249925.746        -475.513          54.000    25469116.644    99946286.057        -469.426          51.000  
E03  25556235.386   134298947.695         857.514          51.000    25556236.726   102904398.710         656.922          50.000    25556236.940   101596295.046         648.610          52.000    25556238.155   100288196.020         640.243          49.000  
E05  27129452.543   142566242.927       -1859.523          50.000    27129453.812   109239078.018       -1424.809          45.000    27129454.384   107850448.572       -1406.607          48.000    27129455.671   106461819.763       -1388.547          45.000  
E08  25071118.770   131749634.883        3019.759          49.000    25071119.055   100951028.189        2313.703          44.000    25071119.609    99667754.453        2284.397          46.000    25071120.503    98384483.354        2255.023          43.000  
E13  23189833.723   121863397.734          52.303          53.000    23189833.723    93375874.432          40.054          54.000    23189834.098    92188891.073          39.562          57.000    23189835.010    91001912.349          39.043          53.000  
E15  25203900.995   132447403.367       -2459.961          50.000    25203903.015   101485684.467       -1884.914          50.000    25203903.354   100195614.140       -1860.912          53.000    25203904.391    98905544.454       -1836.964          49.000  
E18  18295805.727    96145105.111       -3469.894          56.000    18295805.155    73669620.310       -2658.750          57.000    18295805.459    72733142.814       -2624.951          59.000    18295806.406    71796669.951       -2591.145          56.000  
E21  26808937.058   140881900.926       -2994.781          50.000    26808938.076   107948465.518       -2294.764          47.000    26808938.773   106576240.798       -2265.549          50.000    26808939.685   105204018.720       -2236.416          46.000  
E26  24423990.495   128348933.355        2523.914          51.000    24423992.246    98345299.467        1933.897          50.000    24423992.639    97095147.193        1909.294          53.000    24423993.568    95844996.562        1884.648          49.000  
E31  27151733.160   142683323.542        2098.966          48.000    27151734.661   109328791.554        1608.384          46.000    27151734.715   107939019.683        1587.909          48.000    27151735.519   106549252.450        1567.422          44.000  
C06  39301166.474   204651489.319        -276.270          46.000    39301161.346   158249506.452        -213.825          43.000  
C09  38902277.579   202574382.776         683.434          46.000    38902274.523   156643367.062         528.250          45.000  
C11  22159020.036   115387851.539       -1552.459          50.000    22159017.588    89225198.335       -1200.483          53.000  
C16  39134127.884   203781679.316         -95.441          47.000    39134128.098   157576930.378         -73.788          44.000  
C21  22940494.452   119457196.581         -76.611          53.000                                                                  
C22  25569763.022   133148469.380       -2799.282          47.000                                                                  
C23  26763157.729   139362767.554       -3272.359          42.000                                                                  
C28  23913671.123   124524756.596        2786.281          51.000                                                                  
> 2019 09 27 10 16  0.0000000  0 39
G01  20294952.258   106650701.038         976.009          55.000    20294953.616    83104462.802         760.526          52.000    20294953.741    83104458.808         760.526          53.000    20294952.044    79641777.920         728.835          56.000  
G03  24064553.865   126460090.682        3911.941          49.000    24064555.330    98540340.243        3048.268          44.000    24064555.884    98540343.246        3048.268          45.000    24064555.187    94434495.435        2921.264          45.000  
G08  22453615.628   117994539.217       -3143.213          52.000    22453616.754    91943802.653       -2449.258          47.000    22453617.540    91943805.662       -2449.258          48.000    22453615.342    88112794.461       -2347.211          50.000  
G10  23809730.090   125120982.016       -3122.443          49.000    23809731.662    97496861.116       -2433.073          44.000    23809731.716    97496878.119       -2433.074          46.000    23809729.696    93434505.364       -2331.669          46.000  
G11  20109906.660   105678280.741          79.430          51.000    20109904.230    82346705.002          61.893          50.000                                                                                                                                  
G14  24497715.171   128736378.093        2817.643          43.000    24497714.277   100314061.641        2195.568          38.000                                                                                                                                  
G17  23953371.910   125875815.436        3277.156          51.000    23953369.587    98085039.806        2553.627          42.000    23953370.123    98085046.802        2553.626          44.000                                                                  
G18  20015406.958   105181714.295        -883.447          53.000    20015405.957    81959749.351        -688.402          49.000                                                                                                                                  
G19  25611270.958   134588137.927        4013.003          42.000    25611267.992   104873858.746        3127.015          37.000                                                                                                                                  
G22  22629904.279   118920965.207        2904.766          52.000    22629899.669    92665677.969        2263.454          45.000                                                                                                                                  
G24  24290094.457   127645307.950        1133.207          44.000    24290096.172    99463876.878         883.020          43.000    24290096.548    99463897.885         883.018          45.000    24290096.690    95319561.774         846.389          44.000  
G27  25756798.729   135352861.486       -3899.327          42.000    25756801.534   105469753.238       -3038.441          38.000    25756802.142   105469760.244       -3038.439          40.000    25756800.962   101075181.472       -2911.202          39.000  
G28  21773337.510   114419664.381          93.581          51.000    21773335.152    89158170.625          72.920          47.000                                                                                                                                  
G32  23362879.557   122772772.950        1710.740          47.000    23362880.647    95667107.506        1333.046          44.000    23362881.058    95667107.506        1333.045          48.000    23362878.771    91680977.914        1277.538          48.000  
R03  23288461.670   124664967.722       -3916.196          47.000    23288461.027    96961635.624       -3045.934          40.000    23288460.848    96961639.618       -3045.935          39.000  
R05  21239303.354   113536276.537        3423.256          51.000    21239304.891    88306006.395        2662.535          48.000    21239305.069    88306006.388        2662.534          48.000  
R11  21371706.774   114203928.463       -2221.595          52.000    21371707.739    88825282.077       -1727.906          47.000    21371707.721    88825281.070       -1727.908          47.000  
R12  21655860.246   115681720.702        1630.836          52.000    21655861.925    89974700.546        1268.429          46.000    21655861.979    89974707.548        1268.428          46.000  
R19  23187947.326   124039869.340       -4067.083          38.000    23187948.291    96475458.627       -3163.287          40.000    23187947.952    96475454.619       -3163.288          40.000  
R20  19480954.148   104173425.087       -1217.893          48.000    19480956.864    81023779.427        -947.252          49.000    19480955.792    81023777.422        -947.250          49.000  
R21  20671702.077   110618454.423        3011.662          54.000    20671702.059    86036573.943        2342.404          48.000    20671702.095    86036579.934        2342.404          48.000  
E01  25472747.147   133860185.624        -644.392          52.000    25472747.361   102568192.210        -493.769          50.000    25472747.629   101264363.984        -487.479          54.000    25472748.451    99960538.396        -481.204          50.000  
E03  25551381.659   134273441.360         842.493          52.000    25551382.963   102884854.900         645.547          48.000    25551383.195   101576999.679         637.313          52.000    25551384.500   100269149.095         629.085          48.000  
E05  27140100.319   142622197.312       -1871.508          50.000    27140101.570   109281952.142       -1433.992          45.000    27140102.195   107892777.692       -1415.726          48.000    27140103.250   106503603.888       -1397.611          45.000  
E08  25053894.515   131659121.050        3013.908          49.000    25053895.015   100881673.481        2309.471          43.000    25053895.372    99599281.382        2280.066          46.000    25053896.337    98316891.910        2250.742          43.000  
E13  23189565.402   121861987.670          41.084          54.000    23189565.384    93374793.998          31.488          53.000    23189565.759    92187824.371          31.111          56.000    23189566.689    91000859.384          30.677          53.000  
E15  25217959.771   132521282.786       -2466.040          50.000    25217961.826   101542293.350       -1889.518          49.000    25217962.165   100251503.419       -1865.464          52.000    25217963.095    98960714.128       -1841.466          49.000  
E18  18315735.656    96249837.594       -3512.859          56.000    18315735.120    73749869.864       -2691.636          56.000    18315735.406    72812372.244       -2657.417          59.000    18315736.353    71874879.260       -2623.204          55.000  
E21  26826051.347   140971836.890       -3001.565          50.000    26826052.419   108017377.450       -2299.943          47.000    26826053.009   106644276.728       -2270.661          49.000    26826053.884   105271178.651       -2241.436          46.000  
E26  24409596.675   128273293.396        2518.121          51.000    24409598.373    98287341.587        1929.505          49.000    24409598.855    97037926.066        1904.986          52.000    24409599.731    95788512.184        1880.446          49.000  
E31  27139781.178   142620516.495        2087.369          48.000    27139782.840   109280666.721        1599.485          45.000    27139782.876   107891506.611        1579.099          47.000    27139783.859   106502351.139        1558.764          44.000  
C06  39302773.775   204659859.086        -282.120          46.000    39302768.593   158255978.476        -218.177          42.000  
C09  38898355.436   202553959.574         677.491          46.000    38898352.398   156627574.549         523.860          44.000  
C11  22167998.916   115434607.091       -1565.267          50.000    22167996.522    89261352.682       -1210.323          53.000  
C16  39134692.938   203784621.885        -101.401          47.000    39134693.135   157579205.768         -78.454          43.000  
C21  22940986.082   119459756.723         -94.788          53.000                                                                  
C22  25585917.155   133232586.648       -2809.195          48.000                                                                  
C23  26782017.143   139460972.705       -3275.702          42.000                                                                  
C28  23897638.035   124441268.177        2778.961          50.000                                                                  
> 2019 09 27 10 16 30.0000000  0 39
G01  20289430.551   106621684.059         958.235          55.000    20289431.856    83081852.174         746.676          51.000    20289432.016    83081848.182         746.676          52.000    20289430.319    79620109.400         715.488          57.000  
G03  24042232.471   126342791.013        3907.725          50.000    24042234.061    98448937.956        3044.982          42.000    24042234.597    98448940.963        3044.982          43.000    24042233.847    94346901.550        2918.080          46.000  
G08  22471585.093   118088969.371       -3152.226          52.000    22471586.237    92017384.555       -2456.281          46.000    22471586.987    92017387.564       -2456.281          48.000    22471584.700    88183310.441       -2354.048          51.000  
G10  23827582.602   125214796.787       -3132.186          49.000    23827584.120    97569963.499       -2440.667          42.000    23827584.138    97569980.502       -2440.667          45.000    23827582.137    93504561.810       -2338.980          47.000  
G11  20109507.627   105676183.743          59.977          51.000    20109505.215    82345070.975          46.736          49.000                                                                                                                                  
G14  24481653.599   128651972.931        2808.851          44.000    24481652.760   100248291.425        2188.715          39.000                                                                                                                                  
G17  23934675.159   125777564.243        3272.735          51.000    23934673.032    98008480.459        2550.182          41.000    23934673.550    98008487.459        2550.182          43.000                                                                  
G18  20020503.846   105208498.767        -902.469          53.000    20020502.863    81980620.372        -703.223          48.000                                                                                                                                  
G19  25588361.530   134467748.351        4012.744          42.000    25588358.618   104780048.767        3126.817          39.000                                                                                                                                  
G22  22613352.007   118833983.135        2893.712          51.000    22613347.361    92597899.763        2254.842          44.000                                                                                                                                  
G24  24283676.351   127611581.659        1114.723          44.000    24283678.405    99437596.688         868.616          42.000    24283678.799    99437617.697         868.616          43.000    24283678.548    95294376.577         832.398          45.000  
G27  25779053.025   135469807.768       -3897.857          41.000    25779055.848   105560880.028       -3037.297          38.000    25779056.473   105560887.032       -3037.301          39.000    25779055.330   101162511.318       -2910.908          42.000  
G28  21772853.849   114417123.192          75.707          51.000    21772851.687    89156190.472          58.993          46.000                                                                                                                                  
G32  23353159.363   122721696.815        1694.203          46.000    23353161.168    95627307.986        1320.161          45.000    23353161.632    95627307.989        1320.161          47.000    23353159.667    91642836.726        1265.017          49.000  
R03  23310441.462   124782626.697       -3927.857          46.000    23310440.855    97053148.148       -3054.996          40.000    23310440.694    97053152.138       -3054.996          39.000  
R05  21220141.060   113433843.633        3405.349          52.000    21220142.597    88226336.370        2648.606          47.000    21220142.669    88226336.366        2648.606          47.000  
R11  21384244.038   114270925.229       -2245.010          52.000    21384245.271    88877390.641       -1746.121          47.000    21384245.253    88877389.645       -1746.120          46.000  
R12  21646772.186   115633173.475        1605.367          52.000    21646773.865    89936941.617        1248.617          45.000    21646773.812    89936948.617        1248.618          45.000  
R19  23210768.213   124161945.029       -4071.363          36.000    23210768.785    96570406.369       -3166.613          39.000    23210768.499    96570402.354       -3166.615          38.000  
R20  19487839.279   104210242.428       -1236.883          48.000    19487841.888    81052415.148        -962.020          48.000    19487840.834    81052413.144        -962.020          48.000  
R21  20654851.856   110528284.847        2999.293          54.000    20654851.713    85966442.043        2332.783          47.000    20654851.642    85966448.034        2332.783          47.000  
E01  25476468.031   133879738.324        -659.307          52.000    25476468.139   102583174.137        -505.224          51.000    25476468.371   101279155.468        -498.827          54.000    25476469.193    99975139.429        -492.421          51.000  
E03  25546612.488   134248378.512         828.099          52.000    25546613.614   102865650.895         634.516          49.000    25546613.846   101558039.795         626.504          52.000    25546615.025   100250433.332         618.414          49.000  
E05  27150815.622   142678506.945       -1882.808          49.000    27150817.051   109325098.447       -1442.591          45.000    27150817.408   107935375.528       -1424.270          48.000    27150818.731   106545653.243       -1405.929          46.000  
E08  25036701.906   131568772.813        3008.956          49.000    25036702.138   100812445.651        2305.526          43.000    25036702.692    99530933.563        2276.294          46.000    25036703.478    98249424.115        2246.930          44.000  
E13  23189359.783   121860906.901          30.675          53.000    23189359.730    93373965.861          23.504          54.000    23189360.087    92187006.765          23.212          57.000    23189361.052    91000052.300          22.914          54.000  
E15  25232051.729   132595337.187       -2471.260          50.000    25232053.927   101599036.301       -1893.547          50.000    25232054.249   100307525.066       -1869.534          52.000    25232055.196    99016014.466       -1845.496          49.000  
E18  18335909.140    96355850.433       -3554.855          56.000    18335908.729    73831100.478       -2723.896          56.000    18335908.997    72892570.266       -2689.290          59.000    18335909.944    71954044.689       -2654.655          56.000  
E21  26843203.000   141061969.277       -3007.354          50.000    26843203.947   108086439.886       -2304.433          47.000    26843204.680   106712461.252       -2275.122          49.000    26843205.734   105338485.252       -2245.874          47.000  
E26  24395234.555   128197820.022        2513.270          50.000    24395236.288    98229511.344        1925.605          50.000    24395236.753    96980830.951        1901.190          53.000    24395237.664    95732152.201        1876.645          50.000  
E31  27127894.829   142558053.101        2076.533          47.000    27127896.437   109232805.173        1591.028          45.000    27127896.509   107844253.468        1570.768          48.000    27127897.259   106455706.399        1550.527          44.000  
C06  39304411.739   204668388.395        -286.772          46.000    39304406.503   158262573.869        -221.709          43.000  
C09  38894465.367   202533702.830         672.652          46.000    38894462.258   156611910.756         520.001          44.000  
C11  22177049.827   115481737.236       -1577.125          50.000    22177047.396    89297796.698       -1219.546          53.000  
C16  39135292.015   203787741.026        -106.732          47.000    39135292.051   157581617.692         -82.678          44.000  
C21  22941580.906   119462854.483        -112.084          53.000                                                                  
C22  25602126.414   133316994.154       -2818.312          47.000                                                                  
C23  26800893.639   139559266.249       -3277.543          42.000                                                                  
C28  23881645.813   124357992.288        2772.529          51.000                                                                  
> 2019 09 27 10 17  0.0000000  0 39
G01  20284013.628   106593217.400         939.576          55.000    20284014.843    83059670.362         732.137          51.000    20284014.986    83059666.365         732.137          52.000    20284013.289    79598851.824         701.703          58.000  
G03  24019938.131   126225634.105        3902.982          49.000    24019939.614    98357646.875        3041.286          40.000    24019940.293    98357649.877        3041.286          42.000    24019939.721    94259414.295        2914.423          48.000  
G08  22489609.362   118183687.315       -3162.115          52.000    22489610.595    92091190.702       -2463.987          45.000    22489611.310    92091193.706       -2463.986          47.000    22489609.148    88254041.325       -2361.273          52.000  
G10  23845492.991   125308916.168       -3142.391          49.000    23845494.492    97643303.240       -2448.618          42.000    23845494.510    97643320.241       -2448.618          44.000    23845492.402    93574845.722       -2346.569          47.000  
G11  20109221.812   105674681.875          39.915          51.000    20109219.417    82343900.686          31.102          49.000                                                                                                                                  
G14  24465644.277   128567845.493        2799.539          42.000    24465644.027   100182737.690        2181.464          36.000                                                                                                                                  
G17  23916006.443   125679460.113        3267.562          51.000    23916004.460    97932035.701        2546.153          40.000    23916004.960    97932042.702        2546.153          42.000                                                                  
G18  20025712.363   105235869.514        -922.223          53.000    20025711.362    82001948.223        -718.615          48.000                                                                                                                                  
G19  25565456.195   134347379.944        4012.039          41.000    25565453.621   104686255.253        3126.264          36.000                                                                                                                                  
G22  22596866.564   118747351.920        2881.697          51.000    22596861.936    92530394.943        2245.480          44.000                                                                                                                                  
G24  24277367.674   127578429.857        1095.493          44.000    24277369.783    99411764.158         853.632          40.000    24277370.194    99411785.161         853.631          43.000    24277369.693    95269620.374         817.961          46.000  
G27  25801307.963   135586787.274       -3898.410          39.000    25801310.465   105652009.343       -3037.723          35.000    25801311.144   105652016.354       -3037.726          34.000    25801310.304   101249843.611       -2911.315          39.000  
G28  21772474.955   114415132.418          57.076          50.000    21772472.900    89154639.224          44.475          45.000                                                                                                                                  
G32  23343538.323   122671137.049        1676.575          49.000    23343539.914    95587910.798        1306.422          42.000    23343540.432    95587910.803        1306.424          46.000    23343538.413    91605081.081        1252.025          49.000  
R03  23332489.406   124900650.883       -3940.346          46.000    23332489.013    97144944.695       -3064.713          40.000    23332488.781    97144948.697       -3064.712          40.000  
R05  21201082.711   113331966.197        3386.542          52.000    21201084.301    88147098.383        2633.978          48.000    21201084.319    88147098.379        2633.978          48.000  
R11  21396916.070   114338640.428       -2269.169          52.000    21396917.321    88930058.013       -1764.911          48.000    21396917.267    88930057.015       -1764.910          47.000  
R12  21637830.544   115585408.609        1579.082          51.000    21637832.135    89899791.168        1228.177          46.000    21637832.242    89899798.166        1228.177          46.000  
R19  23233613.634   124284153.615       -4076.262          37.000    23233614.670    96665457.391       -3170.427          41.000    23233614.491    96665453.399       -3170.427          41.000  
R20  19494833.661   104247644.650       -1256.586          48.000    19494836.288    81081505.767        -977.345          49.000    19494835.216    81081503.758        -977.345          49.000  
R21  20638074.184   110438503.693        2986.114          54.000    20638073.952    85896612.257        2322.533          49.000    20638073.844    85896618.251        2322.533          48.000  
E01  25480277.368   133899755.934        -675.109          52.000    25480277.385   102598512.299        -517.259          52.000    25480277.600   101294298.646        -510.664          54.000    25480278.458    99990087.633        -504.092          52.000  
E03  25541927.373   134223758.155         813.254          51.000    25541928.624   102846785.953         623.109          50.000    25541928.731   101539414.657         615.201          52.000    25541929.678   100232048.007         607.231          49.000  
E05  27161598.040   142735168.726       -1894.577          49.000    27161599.273   109368514.604       -1451.676          45.000    27161599.934   107978239.779       -1433.177          48.000    27161601.078   106587965.590       -1414.761          46.000  
E08  25019540.657   131478590.414        3003.245          49.000    25019540.961   100743344.902        2301.229          45.000    25019541.371    99462711.228        2271.973          47.000    25019542.640    98182080.188        2242.729          45.000  
E13  23189216.527   121860153.830          19.512          54.000    23189216.438    93373388.835          15.008          55.000    23189216.795    92186437.068          14.837          57.000    23189217.778    90999489.940          14.613          55.000  
E15  25246176.602   132669564.089       -2477.109          50.000    25246178.907   101655911.435       -1898.030          51.000    25246179.175   100363677.208       -1873.893          52.000    25246180.122    99071443.620       -1849.802          50.000  
E18  18356324.481    96463134.319       -3597.333          56.000    18356324.212    73913305.005       -2756.381          57.000    18356324.427    72973729.822       -2721.348          59.000    18356325.410    72034159.273       -2686.297          57.000  
E21  26860391.374   141152294.637       -3014.183          50.000    26860392.428   108155650.186       -2309.526          48.000    26860393.161   106780791.747       -2280.080          49.000    26860394.197   105405935.946       -2250.728          47.000  
E26  24380903.974   128122512.442        2507.395          51.000    24380905.636    98171808.136        1921.322          51.000    24380906.190    96923861.262        1896.893          53.000    24380907.137    95675916.025        1872.459          51.000  
E31  27116073.702   142495933.232        2064.915          47.000    27116075.328   109185206.840        1582.178          47.000    27116075.507   107797260.197        1562.115          48.000    27116076.257   106409318.202        1541.940          45.000  
C06  39306079.973   204677075.525        -292.283          46.000    39306074.666   158269291.298        -226.016          44.000  
C09  38890607.106   202513611.117         666.851          47.000    38890603.925   156596374.565         515.710          45.000  
C11  22186172.302   115529239.713       -1589.780          50.000    22186169.765    89334528.608       -1229.178          54.000  
C16  39135924.596   203791035.013        -112.940          47.000    39135924.579   157584164.794         -87.269          45.000  
C21  22942278.566   119466488.043        -130.184          53.000                                                                  
C22  25618391.335   133401688.065       -2828.035          46.000                                                                  
C23  26819786.307   139657644.218       -3280.726          43.000                                                                  
C28  23865694.279   124274928.739        2765.203          51.000                                                                  
> 2019 09 27 10 17 30.0000000  0 39
G01  20278701.454   106565301.408         921.326          55.000    20278702.597    83037917.643         717.916          51.000    20278702.740    83037913.646         717.916          52.000    20278701.061    79578005.469         687.995          57.000  
G03  23997671.202   126108622.305        3897.833          49.000    23997672.739    98266468.897        3037.274          39.000    23997673.471    98266471.892        3037.273          41.000    23997673.418    94172035.408        2910.815          48.000  
G08  22507688.114   118278691.222       -3171.380          52.000    22507689.257    92165219.687       -2471.207          46.000    22507690.026    92165222.694       -2471.208          48.000    22507687.971    88324985.759       -2368.403          51.000  
G10  23863460.776   125403337.481       -3152.352          49.000    23863462.295    97716878.256       -2456.381          43.000    23863462.277    97716895.255       -2456.382          45.000    23863460.115    93645355.106       -2353.976          46.000  
G11  20109049.358   105673775.445          20.273          51.000    20109046.892    82343194.376          15.797          49.000                                                                                                                                  
G14  24449688.633   128483998.477        2790.043          44.000    24449687.990   100117402.371        2174.059          36.000                                                                                                                                  
G17  23897366.300   125581505.322        3262.755          52.000    23897364.245    97855707.309        2542.407          41.000    23897364.746    97855714.308        2542.408          44.000                                                                  
G18  20031032.203   105263824.992        -941.651          53.000    20031031.131    82023731.698        -733.754          48.000                                                                                                                                  
G19  25542555.005   134227034.212        4011.313          41.000    25542552.628   104592479.411        3125.699          37.000                                                                                                                                  
G22  22580448.131   118661073.291        2870.035          51.000    22580443.735    92463164.890        2236.393          45.000                                                                                                                                  
G24  24271168.606   127545853.377        1076.379          45.000    24271170.608    99386379.893         838.736          40.000    24271171.090    99386400.893         838.736          43.000    24271170.429    95245293.782         803.690          46.000  
G27  25823563.027   135703738.140       -3898.895          40.000    25823565.583   105743139.826       -3038.107          31.000    25823566.172   105743146.816       -3038.108          34.000    25823565.815   101337176.881       -2910.912          38.000  
G28  21772200.808   114413691.909          38.808          51.000    21772198.843    89153516.747          30.240          45.000                                                                                                                                  
G32  23334016.136   122621095.375        1659.502          47.000    23334017.190    95548917.290        1293.119          44.000    23334017.762    95548917.290        1293.119          46.000    23334015.671    91567712.318        1239.149          49.000  
R03  23354604.717   125019035.925       -3952.063          47.000    23354604.556    97237021.964       -3073.825          40.000    23354604.306    97237025.968       -3073.825          39.000  
R05  21182129.074   113230647.946        3367.943          52.000    21182130.486    88068295.294        2619.511          47.000    21182130.486    88068295.299        2619.511          47.000  
R11  21409721.745   114407070.885       -2292.879          51.000    21409723.103    88983281.697       -1783.350          47.000    21409723.049    88983280.690       -1783.350          46.000  
R12  21629035.501   115538428.260        1552.914          51.000    21629037.287    89863250.890        1207.822          46.000    21629037.287    89863257.890        1207.822          45.000  
R19  23256483.660   124406492.817       -4080.360          36.000    23256484.643    96760610.038       -3173.614          39.000    23256484.518    96760606.038       -3173.615          38.000  
R20  19501937.152   104285630.322       -1275.801          48.000    19501939.743    81111050.154        -992.290          49.000    19501938.742    81111048.161        -992.290          49.000  
R21  20621369.489   110349113.016        2973.184          54.000    20621369.203    85827086.168        2312.476          48.000    20621369.096    85827092.164        2312.476          48.000  
E01  25484174.995   133920237.776        -690.419          52.000    25484174.941   102614206.172        -529.090          51.000    25484175.155   101309793.023        -522.323          54.000    25484176.138   100005382.509        -515.599          51.000  
E03  25537326.332   134199580.721         798.660          51.000    25537328.012   102828260.407         611.882          50.000    25537327.958   101521124.605         604.121          52.000    25537328.708   100213993.445         596.314          49.000  
E05  27172447.164   142792181.062       -1906.230          49.000    27172448.433   109412199.365       -1460.671          45.000    27172449.022   108021369.235       -1442.156          48.000    27172450.094   106630539.733       -1423.553          46.000  
E08  25002411.483   131388575.534        2997.775          49.000    25002411.858   100674372.501        2296.953          44.000    25002412.108    99394615.591        2267.773          46.000    25002413.180    98114861.319        2238.570          44.000  
E13  23189135.598   121859728.262           8.797          54.000    23189135.473    93373062.748           6.659          54.000    23189135.831    92186115.128           6.571          56.000    23189136.796    90999172.146           6.513          54.000  
E15  25260334.229   132743962.574       -2482.832          50.000    25260336.427   101712918.044       -1902.420          50.000    25260336.749   100419959.153       -1878.189          52.000    25260337.785    99127000.902       -1854.047          49.000  
E18  18376980.195    96571681.274       -3639.132          56.000    18376980.017    73996477.348       -2788.504          56.000    18376980.231    73055844.887       -2753.056          59.000    18376981.232    72115217.062       -2717.596          56.000  
E21  26877616.165   141242810.838       -3020.304          50.000    26877617.255   108225006.718       -2314.298          47.000    26877617.773   106849266.641       -2284.845          49.000    26877618.863   105473529.193       -2255.439          46.000  
E26  24366605.092   128047371.300        2501.898          51.000    24366606.629    98114232.465        1917.050          50.000    24366607.272    96867017.488        1892.690          52.000    24366608.309    95619804.147        1868.319          50.000  
E31  27104318.208   142434158.380        2053.295          47.000    27104320.209   109137872.880        1573.439          46.000    27104320.245   107750527.938        1553.414          48.000    27104320.835   106363187.635        1533.390          45.000  
C06  39307778.477   204685920.103        -297.353          46.000    39307773.135   158276130.466        -229.936          43.000  
C09  38886780.490   202493684.257         661.534          47.000    38886777.292   156580965.862         511.542          45.000  
C11  22195366.129   115577113.686       -1601.912          50.000    22195363.467    89371547.804       -1238.785          53.000  
C16  39136590.629   203794503.488        -118.590          47.000    39136590.700   157586846.825         -91.724          44.000  
C21  22943079.027   119470656.915        -147.824          53.000                                                                  
C22  25634710.273   133486666.155       -2837.249          47.000                                                                  
C23  26838694.628   139756104.078       -3283.202          43.000                                                                  
C28  23849783.826   124192078.750        2758.185          50.000                                                                  
> 2019 09 27 10 18  0.0000000  0 39
G01  20273494.438   106537938.267         903.025          56.000    20273495.546    83016595.717         703.658          51.000    20273495.671    83016591.720         703.657          52.000    20273494.027    79557571.954         674.367          57.000  
G03  23975432.792   125991759.725        3893.191          48.000    23975434.185    98175407.144        3033.659          39.000    23975434.847    98175410.144        3033.659          41.000    23975435.204    94084767.952        2907.219          48.000  
G08  22525821.116   118373980.964       -3180.949          51.000    22525822.510    92239471.391       -2478.662          45.000    22525823.224    92239474.400       -2478.662          48.000    22525821.134    88396143.626       -2375.293          51.000  
G10  23881485.992   125498059.821       -3162.225          49.000    23881487.476    97790687.847       -2464.072          41.000    23881487.476    97790704.852       -2464.072          44.000    23881485.135    93716089.304       -2361.320          46.000  
G11  20108990.623   105673466.400           0.462          51.000    20108988.049    82342953.562           0.361          49.000                                                                                                                                  
G14  24433787.615   128400436.282        2780.792          44.000    24433786.740   100052288.972        2166.856          36.000                                                                                                                                  
G17  23878755.159   125483703.050        3257.674          51.000    23878753.140    97779497.743        2538.450          40.000    23878753.569    97779504.747        2538.451          43.000                                                                  
G18  20036463.510   105292366.256        -961.060          53.000    20036462.367    82045971.644        -748.877          48.000                                                                                                                                  
G19  25519658.889   134106714.355        4010.540          41.000    25519656.173   104498723.681        3125.095          36.000                                                                                                                                  
G22  22564097.510   118575150.881        2858.336          52.000    22564093.293    92396212.402        2227.277          45.000                                                                                                                                  
G24  24265079.629   127513855.377        1057.064          45.000    24265081.524    99361446.347         823.685          41.000    24265082.078    99361467.354         823.686          42.000    24265081.506    95221399.141         789.453          46.000  
G27  25845818.592   135820690.670       -3898.275          40.000    25845821.111   105834271.590       -3037.617          31.000    25845821.683   105834278.589       -3037.617          35.000    25845821.218   101424511.499       -2911.243          38.000  
G28  21772031.731   114412803.429          20.730          51.000    21772029.694    89152824.422          16.155          45.000                                                                                                                                  
G32  23324592.460   122571575.361        1642.136          47.000    23324593.657    95510330.328        1279.589          42.000    23324594.246    95510330.323        1279.588          45.000    23324592.245    91530733.146        1226.323          49.000  
R03  23376787.000   125137779.338       -3963.818          46.000    23376787.179    97329377.955       -3082.970          41.000    23376786.786    97329381.946       -3082.970          41.000  
R05  21163281.079   113129894.740        3349.123          52.000    21163282.544    87989931.713        2604.874          49.000    21163282.633    87989931.713        2604.875          48.000  
R11  21422661.169   114476215.083       -2316.520          51.000    21422662.473    89037060.506       -1801.738          48.000    21422662.384    89037059.499       -1801.738          47.000  
R12  21620387.894   115492236.354        1526.741          51.000    21620390.038    89827323.887        1187.465          46.000    21620390.199    89827330.875        1187.466          46.000  
R19  23279378.364   124528962.851       -4084.367          37.000    23279379.168    96855864.530       -3176.732          41.000    23279378.882    96855860.520       -3176.731          41.000  
R20  19509149.911   104324200.467       -1295.263          48.000    19509152.592    81141049.179       -1007.424          49.000    19509151.538    81141047.175       -1007.425          50.000  
R21  20604738.360   110260116.584        2960.161          53.000    20604738.092    85757866.730        2302.349          49.000    20604738.039    85757872.726        2302.349          48.000  
E01  25488161.091   133941185.075        -705.778          52.000    25488161.109   102630256.688        -540.803          51.000    25488161.288   101325639.505        -533.935          54.000    25488162.396   100021024.959        -527.053          51.000  
E03  25532810.258   134175848.508         783.771          51.000    25532812.009   102810075.993         600.610          49.000    25532811.902   101503171.350         592.983          52.000    25532812.581   100196271.346         585.387          49.000  
E05  27183362.903   142849544.152       -1917.727          49.000    27183364.297   109456152.877       -1469.456          44.000    27183364.744   108064764.005       -1450.775          48.000    27183366.030   106673375.772       -1432.110          46.000  
E08  24985314.616   131298731.635        2992.066          50.000    24985314.848   100605531.097        2292.789          43.000    24985315.331    99326649.299        2263.535          47.000    24985316.421    98047770.135        2234.361          44.000  
E13  23189117.300   121859631.924          -2.109          54.000    23189117.158    93372988.928          -1.591          54.000    23189117.479    92186042.247          -1.585          57.000    23189118.444    90999100.205          -1.586          54.000  
E15  25274524.735   132818533.426       -2488.410          50.000    25274526.861   101770056.733       -1906.623          49.000    25274527.111   100476371.507       -1882.445          52.000    25274528.112    99182686.915       -1858.204          49.000  
E18  18397875.123    96681485.162       -3680.788          56.000    18397874.998    74080612.778       -2820.288          56.000    18397875.195    73138910.802       -2784.447          59.000    18397876.159    72197213.460       -2748.584          56.000  
E21  26894877.105   141333517.717       -3026.526          50.000    26894878.463   108294509.342       -2319.006          47.000    26894878.714   106917885.757       -2289.540          49.000    26894879.821   105541264.810       -2260.116          45.000  
E26  24352338.375   127972399.081        2496.503          51.000    24352339.858    98056786.228        1912.861          49.000    24352340.501    96810301.497        1888.554          53.000    24352341.538    95563818.405        1864.276          50.000  
E31  27092628.954   142372731.770        2041.921          47.000    27092631.009   109090805.758        1564.711          45.000    27092631.099   107704059.133        1544.740          48.000    27092631.849   106317317.137        1524.854          44.000  
C06  39309507.466   204694923.544        -302.548          45.000    39309502.248   158283092.478        -233.887          43.000  
C09  38882985.914   202473924.146         656.010          46.000    38882982.751   156565686.108         507.312          45.000  
C11  22204631.468   115625360.070       -1614.309          51.000    22204628.680    89408854.950       -1248.194          53.000  
C16  39137290.487   203798147.920        -124.160          48.000    39137290.630   157589664.909         -95.934          44.000  
C21  22943982.592   119475362.524        -165.614          53.000                                                                  
C22  25651083.999   133571927.835       -2846.423          45.000                                                                  
C23  26857618.495   139854645.181       -3285.804          44.000                                                                  
C28  23833914.883   124109445.365        2751.005          50.000                                                                  
