     2.11           OBSERVATION DATA    M (MIXED)           RINEX VERSION / TYPE
teqc  2019Feb25     IGN-RGP             20200603 08:03:25UTCPGM / RUN BY / DATE
Linux 2.6.32-573.12.1.x86_64|x86_64|gcc|Linux 64|=+         COMMENT
teqc  2019Feb25     Administrateur RGP  20200603 08:03:25UTCCOMMENT
teqc  2019Feb25     IGN-RGP             20200603 08:03:20UTCCOMMENT
teqc  2019Feb25     IGN-RGP             20200603 08:03:17UTCCOMMENT
  2.0430      (antenna height)                              COMMENT
 +48.38049068 (latitude)                                    COMMENT
  -4.49659762 (longitude)                                   COMMENT
0065.806      (elevation)                                   COMMENT
BIT 2 OF LLI FLAGS DATA COLLECTED UNDER A/S CONDITION       COMMENT
10004M004 (COGO code)                                       COMMENT
BRST                                                        MARKER NAME
10004M004                                                   MARKER NUMBER
Automatic           IGN                                     OBSERVER / AGENCY
5818R40023          TRIMBLE ALLOY       5.45                REC # / TYPE / VERS
1441017048          TRM57971.00     NONE                    ANT # / TYPE
  4231162.7880  -332746.9200  4745130.6890                  APPROX POSITION XYZ
        2.0431        0.0000        0.0000                  ANTENNA: DELTA H/E/N
     1     1                                                WAVELENGTH FACT L1/2
    22    L1    L2    C1    C2    P1    P2    D1    D2    S1# / TYPES OF OBSERV
          S2    L5    C5    D5    S5    L7    C7    D7    S7# / TYPES OF OBSERV
          L8    C8    D8    S8                              # / TYPES OF OBSERV
    30.0000                                                 INTERVAL
    18                                                      LEAP SECONDS
 SNR is mapped to RINEX snr flag value [0-9]                COMMENT
  L1 & L2: min(max(int(snr_dBHz/6), 0), 9)                  COMMENT
Forced Modulo Decimation to 30 seconds                      COMMENT
  2020     6     3     7     0    0.0000000     GPS         TIME OF FIRST OBS
                                                            END OF HEADER
 20  6  3  7  0  0.0000000  0 32S25G14R07G29G24R06R24G15G02G12G19G10
                                R09R18R17G17R05R16G25G32R15E24E05E31
                                E09E01E26E04E13E33S23S36
 204258192.226 6                  38881796.781
                       259.875                          41.700



 125114018.797 6  97491508.89944  23808419.125
  23808422.395        3001.758                          40.100          26.100



 116146753.933 7  90336386.548 7  21697189.820    21697192.535    21697189.422
  21697192.465        1869.309                          47.600          46.800



 130922450.572 6 102017600.533 6  24913726.047    24913730.875
  24913731.035        3949.227                          38.300          38.200



 110469532.944 7  86080072.491 8  21021624.500    21021630.813
  21021630.594       -2004.062                          47.300          49.600
  82493383.266 8  21021627.988                          51.000


 110709151.436 7                  20746847.734                    20746846.953
                     -2117.711                          44.200



 123580108.822 7  96117901.864 7  23110104.766    23110108.254    23110104.031
  23110107.813       -2642.895                          42.400          43.800



 134462702.173 6 104776252.456 5  25587429.688    25587434.449
  25587435.578       -3815.453                          38.300          33.800



 132786414.832 6                  25268435.414
                      2423.520                          37.400



 104824772.404 8  81681741.118 8  19947507.141    19947509.648
  19947509.406          -2.328                          49.100          50.700



 121102743.387 7  94365825.80145  23045096.438
  23045098.246       -2354.934                          45.200          31.700



 129000459.916 7 100519897.947 6  24547984.711    24547991.027
  24547990.977       -2701.336                          42.200          40.400
  96331529.760 7  24547986.223                          42.100


 126510714.078 6  98397243.123 6  23691395.063    23691396.234    23691395.172
  23691396.875        3326.883                          39.900          38.400



 119056020.531 7  92599120.345 7  22303201.633    22303205.047    22303200.957
  22303205.758        3947.109                          42.800          44.100



 112795541.200 8  87729891.033 7  21078540.563    21078541.559    21078538.996
  21078541.910         874.785                          49.100          47.300



 131962526.955 6 102827996.905 6  25111643.805    25111647.453
  25111647.602       -3050.184                          36.700          37.100



 126213135.394 6  98165778.361 6  23610782.930    23610787.516    23610783.074
  23610786.906       -4558.480                          40.900          40.100



 104729935.566 7  81456623.630 7  19605666.492    19605667.188    19605665.727
  19605667.332         845.684                          45.000          45.700



 109176586.924 7  85072842.673 8  20775649.273    20775655.602
  20775655.305        1960.496                          47.500          48.500
  81528125.958 8  20775653.391                          50.400


 115283027.048 7  89830951.554 7  21937629.078    21937634.406
  21937634.148        1916.234                          47.400          46.500
  86087984.368 7  21937630.875                          47.300


 111462836.256 8  86693326.721 7  20858752.148    20858754.441    20858751.398
  20858754.762       -2418.754                          50.000          47.500



 133868184.385 7                  25474270.109
                      2430.730                          44.700
  99966543.368 7  25474282.867                          42.800   102574361.125 7
  25474280.168                          43.500   101270464.031 7  25474283.578
                        45.200
 140736845.262 7                  26781330.820
                      1952.070                          44.600
 105095700.346 7  26781332.871                          43.300   107837319.922 7
  26781331.047                          45.200   106466520.930 7  26781334.000
                        46.500
 124899154.958 8                  23767518.586
                       864.645                          51.000
  93268852.223 8  23767519.797                          48.300    95701946.278 8
  23767518.492                          50.300    94485409.553 8  23767520.973
                        51.200
 119109670.422 8                  22665818.109
                      -651.172                          48.500
  88945526.529 8  22665819.398                          48.500    91265837.560 8
  22665816.930                          49.500    90105693.830 8  22665820.102
                        51.200
 128821394.800 8                  24513895.852
                     -1558.031                          50.800
  96197797.793 7  24513896.277                          47.800    98707297.979 8
  24513894.227                          49.500    97452555.687 8  24513897.051
                        50.400
 135089569.365 7                  25706688.000
                      1841.734                          45.400
 100878579.566 7  25706691.238                          42.500   103510194.173 7
  25706689.012                          44.700   102194403.164 7  25706692.000
                        45.200
 137152141.082 7                  26099186.281
                     -2905.570                          46.300
 102418806.407 7  26099186.617                          44.400   105090593.109 7
  26099184.691                          45.800   103754709.055 7  26099187.633
                        47.500
 143338708.928 6                  27276449.266
                      -636.883                          41.900
 107038650.243 6  27276450.719                          40.500   109830955.435 7
  27276449.191                          42.100   108434812.624 7  27276451.906
                        43.300
 148003923.401 6                  28164202.031
                      3045.934                          38.000
 110522372.822 6  28164204.840                          38.800   113405565.955 6
  28164203.426                          41.200   111963955.181 7  28164204.582
                        42.000
 205378269.140 6                  39082193.844
                         5.906                          41.100
 153366789.739 6  39082175.559                          40.200


 201158700.275 7                  38279227.734
                         4.234                          43.600
 150215862.719 6  38279208.305                          41.100


 20  6  3  7  0 30.0000000  0 32S25G14R07G29G24R06R24G15G02G12G19G10
                                R09R18R17G17R05R16G25G32R15E24E05E31
                                E09E01E26E04E13E33S23S36
 204250375.169 6                  38881666.094
                       260.949                          41.900



 125024090.275 6  97421434.74144  23791306.547
  23791309.484        2993.375        2332.537          40.000          24.600



 116091044.942 8  90293057.350 7  21686783.031    21686785.813    21686782.414
  21686785.438        1845.045        1435.021          48.000          46.000



 130803974.308 6 101925281.378 6  24891181.078    24891185.285
  24891185.648        3949.105        3077.253          38.900          38.100



 110529824.158 7  86127052.618 8  21033097.680    21033103.730
  21033103.836       -2015.449       -1570.330          47.100          50.000
  82538405.890 8  21033101.145       -1504.896          50.800


 110773038.422 7                  20758820.836                    20758820.023
                     -2141.043                          43.900



 123659699.745 6  96179805.891 7  23124988.109    23124991.992    23124987.848
  23124991.344       -2662.951       -2071.170          41.600          43.500



 134577136.414 6 104865422.034 5  25609205.555    25609209.777
  25609210.547       -3813.785       -2971.635          41.700          34.200



 132713776.118 6 103413431.11542  25254611.703
  25254615.754        2418.828        1884.882          36.300          16.300



 104825091.026 8  81681989.399 8  19947567.703    19947570.176
  19947570.094         -18.945         -14.554          49.300          50.500



 121173647.518 7  94421075.73045  23058588.953
  23058590.848       -2372.000       -1848.112          44.600          30.500



 129081610.305 6 100583132.005 6  24563426.930    24563432.883
  24563433.281       -2708.910       -2110.639          38.300          40.000
  96392129.066 6  24563428.230       -2022.720          40.900


 126410934.779 6  98319637.014 6  23672710.344    23672711.152    23672709.543
  23672711.672        3324.927        2586.036          39.700          39.000



 118937773.336 7  92507150.316 7  22281050.984    22281053.715    22281049.676
  22281054.066        3936.075        3061.390          44.000          44.300



 112769707.397 8  87709798.092 7  21073712.164    21073714.414    21073711.363
  21073714.105         847.896         659.481          49.600          46.800



 132054153.923 6 102899394.423 6  25129078.656    25129084.063
  25129083.516       -3058.227       -2382.896          36.800          37.500



 126349904.604 6  98272154.389 6  23636368.617    23636372.602    23636368.051
  23636372.602       -4559.611       -3546.352          40.800          40.600



 104704753.389 7  81437037.502 7  19600952.219    19600952.105    19600951.438
  19600953.246         833.235         648.078          45.200          45.200



 109117977.307 7  85027172.859 8  20764495.805    20764502.766
  20764502.254        1946.668        1517.098          46.600          48.200
  81484359.044 8  20764499.988        1453.897          50.300


 115225783.676 7  89786346.334 7  21926736.063    21926741.281
  21926740.914        1899.859        1480.636          47.000          46.800
  86045237.702 7  21926737.730        1418.935          47.000


 111535512.728 8  86749852.849 7  20872352.297    20872354.750    20872352.117
  20872355.262       -2426.278       -1887.112          50.200          47.500



 133795304.996 7                  25460400.820
                      2427.711                          43.300
  99912120.439 6  25460413.863        1813.020          41.400   102518518.433 7
  25460411.543        1860.298          42.400   101215331.222 7  25460414.848
      1836.679          44.100
 140678438.895 7                  26770216.859
                      1941.520                          45.300
 105052085.199 7  26770218.738        1450.015          43.600   107792566.989 7
  26770216.746        1487.846          44.600   106422336.887 7  26770219.648
      1468.923          46.600
 124873320.285 8                  23762602.508
                       857.520                          50.500
  93249560.106 8  23762603.605         640.461          48.800    95682150.891 8
  23762602.285         657.167          50.300    94465865.792 8  23762604.813
       648.813          51.300
 119129419.326 8                  22669576.305
                      -665.516                          48.900
  88960274.074 8  22669577.332        -496.781          48.300    91280969.829 8
  22669575.121        -509.745          49.300    90120633.749 8  22669578.184
      -503.265          50.600
 128868207.384 8                  24522803.820
                     -1563.031                          51.200
  96232755.227 8  24522804.453       -1167.069          48.300    98743167.348 8
  24522802.332       -1197.512          49.500    97487969.081 8  24522805.203
     -1182.284          50.200
 135034480.926 7                  25696204.648
                      1830.633                          44.700
 100837442.197 6  25696208.102        1367.223          41.900   103467983.634 7
  25696206.250        1402.886          45.100   102152729.202 7  25696209.016
      1385.064          45.500
 137239390.857 7                  26115789.242
                     -2911.223                          46.400
 102483960.450 7  26115789.980       -2173.826          44.100   105157446.821 7
  26115788.320       -2230.563          45.700   103820712.925 7  26115790.742
     -2202.197          47.000
 143358037.427 6                  27280127.383
                      -651.742                          41.500
 107053083.862 6  27280129.020        -486.470          40.900   109845765.590 6
  27280127.262        -499.177          41.200   108449434.518 7  27280129.996
      -492.820          43.600
 147912540.940 6                  28146812.742
                      3045.980                          39.100
 110454132.712 6  28146814.754        2274.697          38.100   113335545.824 6
  28146813.203        2334.009          39.700   111894825.068 6  28146816.090
      2304.362          41.000
 205378089.505 6                  39082159.734
                         5.828                          41.200
 153366655.813 6  39082141.305           4.425          39.700


 201158568.928 7                  38279202.719
                         4.395                          43.200
 150215768.206 6  38279183.141           3.218          40.600


 20  6  3  7  1  0.0000000  0 32S25G14R07G29G24R06R24G15G02G12G19G10
                                R09R18R17G17R05R16G25G32R15E24E05E31
                                E09E01E26E04E13E33S23S36
 204242545.936 6                  38881534.813
                       261.090                          41.800



 124934421.262 6  97351562.77743  23774242.961
  23774246.266        2984.633        2325.768          39.600          23.900



 116036074.266 7  90250302.372 7  21676514.320    21676516.773    21676513.617
  21676516.477        1820.431        1415.905          47.800          46.800



 130685500.933 6 101832964.431 6  24868635.531    24868640.676
  24868640.703        3949.012        3077.181          39.000          38.000



 110590455.736 7  86174297.980 8  21044635.258    21044641.852
  21044641.434       -2026.609       -1579.100          47.000          49.600
  82583682.681 8  21044638.832       -1513.299          50.800


 110837635.078 7                  20770926.438                    20770924.844
                     -2164.592                          44.900



 123739904.069 6  96242187.028 7  23139987.844    23139990.691    23139986.727
  23139990.094       -2683.306       -2087.019          41.400          42.600



 134691512.744 6 104954546.300 5  25630971.000    25630975.977
  25630976.570       -3811.477       -2970.090          36.900          34.300



 132641279.128 6 103356939.98042  25240815.625
  25240819.742        2414.238        1881.240          36.300          17.800



 104825907.069 8  81682625.260 8  19947723.391    19947725.813
  19947725.410         -35.312         -27.423          48.700          50.700



 121245061.946 7  94476723.30145  23072178.719
  23072180.969       -2388.820       -1861.263          44.800          31.400



 129162985.328 6 100646541.076 6  24578912.461    24578918.465
  24578918.555       -2716.121       -2116.407          40.000          40.600
  96452896.086 6  24578913.703       -2028.240          41.400


 126311218.757 6  98242080.142 6  23654035.625    23654037.270    23654036.707
  23654037.824        3322.835        2584.431          40.900          39.200



 118819866.013 7  92415444.675 7  22258962.344    22258965.766    22258961.480
  22258966.055        3924.703        3052.573          44.300          44.500



 112744693.768 8  87690343.055 8  21069037.102    21069039.801    21069037.020
  21069040.066         820.582         638.222          49.100          48.000



 132146015.863 6 102970975.123 6  25146559.266    25146564.207
  25146564.039       -3065.852       -2388.952          38.800          37.200



 126486708.130 6  98378557.078 6  23661960.578    23661963.969    23661960.121
  23661964.766       -4560.638       -3547.152          41.100          38.900



 104679949.930 7  81417745.927 7  19596308.672    19596309.156    19596308.141
  19596309.906         820.712         638.335          45.000          45.300



 109059782.277 7  84981826.096 8  20753421.820    20753429.039
  20753428.055        1933.133        1506.345          46.800          48.400
  81440901.743 8  20753426.031        1443.589          50.300


 115169033.412 7  89742125.375 7  21915936.828    21915941.984
  21915941.797        1883.637        1467.822          47.500          47.000
  86002859.272 7  21915938.473        1406.673          47.100


 111608419.547 8  86806558.132 7  20885996.047    20885997.652    20885995.473
  20885998.629       -2433.921       -1893.062          50.100          47.100



 133722513.745 7                  25446549.805
                      2425.055                          44.000
  99857763.368 7  25446563.219        1810.847          43.300   102462743.390 7
  25446561.012        1858.097          44.200   101160265.180 7  25446563.477
      1834.465          46.100
 140620348.239 7                  26759162.711
                      1931.211                          45.600
 105008705.828 7  26759164.273        1442.180          43.600   107748055.967 7
  26759162.313        1479.800          45.200   106378391.694 7  26759165.320
      1460.990          46.800
 124847700.162 8                  23757727.227
                       850.543                          50.200
  93230428.195 8  23757728.375         635.156          49.100    95662519.882 8
  23757726.977         651.725          50.600    94446484.336 8  23757729.461
       643.435          51.700
 119149597.967 8                  22673416.234
                      -679.660                          48.800
  88975342.538 8  22673417.172        -507.439          48.500    91296431.385 8
  22673414.832        -520.685          49.300    90135898.756 8  22673418.047
      -514.058          50.800
 128915169.017 8                  24531740.531
                     -1567.781                          50.600
  96267823.967 8  24531740.879       -1170.736          48.300    98779150.925 8
  24531738.855       -1201.281          49.400    97523495.242 8  24531741.691
     -1186.009          50.400
 134979726.348 7                  25685785.492
                      1819.605                          45.200
 100796554.105 7  25685788.621        1358.906          42.600   103426028.880 7
  25685786.645        1394.354          44.600   102111307.777 7  25685789.508
      1376.649          46.300
 137326807.806 7                  26132423.930
                     -2916.582                          46.000
 102549239.310 7  26132424.602       -2177.956          44.900   105224428.590 7
  26132422.461       -2234.784          46.300   103886843.242 7  26132425.621
     -2206.361          47.400
 143377809.159 7                  27283889.906
                      -666.293                          43.100
 107067848.440 6  27283891.578        -497.480          41.200   109860915.326 6
  27283889.574        -510.442          41.700   108464391.668 7  27283892.430
      -503.957          44.000
 147821156.763 6                  28129422.656
                      3046.289                          39.000
 110385891.423 6  28129425.750        2274.689          38.900   113265524.191 6
  28129422.684        2334.057          39.700   111825693.594 6  28129425.422
      2304.387          41.800
 205377910.015 6                  39082125.609
                         6.039                          41.700
 153366521.816 6  39082107.102           4.487          39.800


 201158438.583 7                  38279178.047
                         4.180                          43.100
 150215670.561 6  38279158.293           3.318          41.400


 20  6  3  7  1 30.0000000  0 32S25G14R07G29G24R06R24G15G02G12G19G10
                                R09R18R17G17R05R16G25G32R15E24E05E31
                                E09E01E26E04E13E33S23S36
 204234713.548 7                  38881397.672
                       261.477                          42.600



 124845014.226 6  97281894.97643  23757229.789
  23757232.555        2976.020        2318.936          39.400          22.600



 115981844.848 7  90208123.951 7  21666382.977    21666387.195    21666383.227
  21666386.035        1795.683        1396.641          47.300          47.200



 130567033.223 6 101740651.900 6  24846091.727    24846097.047
  24846097.223        3948.758        3077.030          38.300          38.700



 110651427.021 7  86221808.047 8  21056237.711    21056244.082
  21056243.898       -2037.941       -1587.913          46.500          49.900
  82629213.167 8  21056241.461       -1521.751          50.900


 110902938.786 7                  20783164.406                    20783162.953
                     -2188.139                          43.700



 123820719.277 6  96305043.223 6  23155101.227    23155102.422    23155099.930
  23155103.133       -2703.574       -2102.782          41.900          41.700



 134805829.235 6 105043624.087 5  25652724.898    25652730.449
  25652729.762       -3809.512       -2968.447          37.600          34.600



 132568927.505 6 103300562.19742  25227048.500
  25227051.691        2409.363        1877.421          37.900          17.400



 104827219.924 8  81683648.256 8  19947972.867    19947975.656
  19947975.242         -51.914         -40.325          48.900          50.700



 121316984.160 7  94532766.55545  23085865.367
  23085867.008       -2405.730       -1874.470          44.300          31.100



 129244582.569 6 100710123.333 6  24594439.656    24594445.141
  24594445.785       -2723.492       -2122.162          39.200          40.100
  96513829.065 6  24594441.707       -2033.752          41.700


 126211567.509 6  98164573.579 6  23635374.594    23635377.672    23635374.301
  23635376.555        3320.666        2582.763          39.600          40.100



 118702304.234 7  92324007.787 7  22236938.797    22236942.871    22236938.434
  22236942.676        3913.125        3043.537          44.700          44.500



 112720502.665 8  87671527.759 7  21064517.133    21064519.484    21064516.172
  21064519.133         793.117         616.869          49.600          47.200



 132238110.309 6 103042736.950 6  25164085.648    25164089.414
  25164089.211       -3073.816       -2394.960          38.300          36.400



 126623542.572 6  98484983.817 6  23687558.695    23687562.098    23687558.730
  23687562.289       -4561.611       -3547.900          41.100          39.900



 104655526.073 7  81398749.571 7  19591736.594    19591736.781    19591735.879
  19591737.750         808.065         628.503          44.900          45.500



 109002003.256 7  84936803.493 8  20742427.109    20742433.809
  20742433.211        1919.180        1495.522          47.900          48.300
  81397755.076 8  20742430.875        1433.228          50.500


 115112779.124 7  89698290.867 7  21905231.781    21905237.215
  21905236.926        1866.945        1454.903          47.000          46.600
  85960851.190 7  21905233.703        1394.294          47.200


 111681556.630 8  86863442.479 7  20899682.781    20899684.738    20899682.047
  20899685.289       -2441.592       -1899.022          49.500          47.500



 133649811.726 7                  25432714.789
                      2421.961                          44.400
  99803472.933 7  25432727.836        1808.630          42.400   102407036.660 7
  25432725.117        1855.806          42.600   101105266.576 7  25432728.539
      1832.224          45.100
 140562575.528 7                  26748168.672
                      1920.648                          45.400
 104965563.876 7  26748170.551        1434.247          44.400   107703788.584 7
  26748168.313        1471.651          44.800   106334687.028 7  26748171.523
      1452.947          46.700
 124822295.168 8                  23752892.727
                       843.281                          50.000
  93211456.929 8  23752893.941         629.788          48.800    95643053.711 8
  23752892.605         646.232          50.000    94427265.608 8  23752895.059
       638.010          51.300
 119170206.681 8                  22677337.773
                      -693.961                          49.200
  88990732.162 8  22677338.875        -518.142          48.100    91312222.469 8
  22677336.680        -531.666          49.200    90151489.114 8  22677339.715
      -524.911          50.400
 128962279.801 8                  24540705.313
                     -1572.770                          50.500
  96303004.074 8  24540705.707       -1174.439          48.500    98815248.777 8
  24540703.672       -1205.086          49.300    97559134.224 8  24540706.602
     -1189.764          50.600
 134925308.082 7                  25675430.047
                      1808.430                          44.800
 100755917.138 7  25675433.098        1350.531          42.200   103384331.829 7
  25675431.125        1385.724          44.100   102070140.776 7  25675433.926
      1368.133          45.700
 137414390.946 7                  26149090.578
                     -2922.070                          46.900
 102614642.272 7  26149091.477       -2182.074          43.900   105291537.733 7
  26149089.723       -2238.995          45.600   103953099.288 7  26149092.219
     -2210.524          46.600
 143398024.348 7                  27287736.922
                      -681.137                          42.400
 107082944.147 6  27287738.496        -508.510          41.200   109876404.843 6
  27287736.359        -521.757          41.500   108479684.288 7  27287739.371
      -515.138          43.700
 147729773.606 6                  28112033.984
                      3046.121                          39.600
 110317650.741 5  28112033.738        2274.580          35.900   113195503.394 6
  28112034.051        2334.011          40.700   111756562.842 6  28112036.520
      2304.326          40.900
 205377731.593 7                  39082091.313
                         5.973                          42.800
 153366388.614 6  39082073.238           4.446          39.700


 201158307.644 7                  38279153.422
                         4.391                          43.100
 150215570.707 6  38279133.219           3.367          41.000


 20  6  3  7  2  0.0000000  0 32S25G14R07G29G24R06R24G15G02G12G19G10
                                R09R18R17G17R05R16G25G32R15E24E05E31
                                E09E01E26E04E13E33S23S36
 204226861.065 6                  38881255.453
                       262.063                          41.600



 124755871.617 6  97212433.19443  23740265.781
  23740269.563        2967.164        2312.042          39.000          23.200



 115928358.558 8  90166523.505 7  21656392.109    21656395.098    21656391.555
  21656394.383        1770.943        1377.409          48.000          46.200



 130448573.670 6 101648345.790 6  24823549.930    24823554.813
  24823555.289        3948.352        3076.773          38.000          37.300



 110712737.543 7  86269582.477 8  21067904.852    21067911.305
  21067911.188       -2049.207       -1596.741          47.300          49.700
  82674996.985 8  21067908.625       -1530.199          50.900


 110968946.222 7                  20795533.711                    20795532.473
                     -2211.542                          44.600



 123902141.554 7  96368371.628 7  23170327.813    23170329.746    23170326.012
  23170329.992       -2723.777       -2118.500          42.000          42.900



 134920083.935 6 105132653.590 5  25674466.578    25674471.129
  25674471.723       -3807.379       -2966.781          39.900          33.500



 132496723.694 6 103244299.58943  25213308.484
  25213311.254        2404.223        1873.558          37.700          18.600



 104829029.157 8  81685058.059 8  19948317.039    19948319.773
  19948319.645         -68.441         -53.192          50.300          50.900



 121389412.068 7  94589203.85845  23099647.984
  23099649.168       -2422.547       -1887.568          45.500          30.900



 129326398.450 6 100773875.944 6  24610008.023    24610015.141
  24610015.715       -2730.746       -2127.761          39.400          40.900
  96574925.295 6  24610010.398       -2039.119          40.900


 126111981.272 6  98087117.642 6  23616727.039    23616727.211    23616725.539
  23616726.891        3318.525        2581.074          41.400          39.400



 118585091.975 7  92232842.737 7  22214981.047    22214984.527    22214980.422
  22214984.961        3901.437        3034.440          44.300          44.300



 112697135.158 8  87653353.043 7  21060150.188    21060152.375    21060149.418
  21060152.492         765.612         595.475          48.500          47.500



 132330435.105 6 103114678.339 6  25181653.883    25181657.813
  25181658.395       -3081.086       -2400.913          38.500          38.200



 126760403.524 6  98591431.165 6  23713161.938    23713164.906    23713161.047
  23713164.965       -4562.392       -3548.510          40.900          40.800



 104631481.624 7  81380048.344 7  19587234.984    19587236.004    19587235.078
  19587236.516         795.369         618.633          45.100          45.900



 108944640.580 7  84892105.301 8  20731511.516    20731518.086
  20731517.398        1905.277        1484.727          47.300          48.100
  81354919.313 8  20731515.004        1422.859          50.300


 115057022.456 7  89654844.104 7  21894621.492    21894627.098
  21894626.793        1850.332        1441.969          46.700          46.700
  85919214.728 7  21894623.477        1381.881          47.200


 111754922.661 8  86920504.908 7  20913412.258    20913414.512    20913411.379
  20913414.863       -2449.212       -1904.934          49.700          47.000



 133577198.601 7                  25418896.820
                      2418.941                          43.300
  99749248.849 6  25418909.949        1806.409          41.500   102351398.037 7
  25418907.516        1853.527          43.200   101050335.230 7  25418910.629
      1829.982          44.600
 140505121.912 7                  26737235.695
                      1909.793                          45.200
 104922660.214 7  26737237.473        1426.277          44.200   107659765.677 7
  26737235.395        1463.482          44.300   106291223.737 7  26737238.414
      1444.887          46.500
 124797104.758 8                  23748099.086
                       836.164                          50.400
  93192645.906 8  23748100.426         624.470          49.100    95623751.974 8
  23748099.070         640.753          50.400    94408209.233 8  23748101.473
       632.615          51.300
 119191244.695 8                  22681341.102
                      -708.277                          49.300
  89006442.361 8  22681342.262        -528.820          48.000    91328342.492 8
  22681340.090        -542.611          48.900    90167404.221 8  22681343.141
      -535.718          50.700
 129009538.684 8                  24549698.305
                     -1577.699                          50.700
  96338294.787 8  24549698.859       -1178.117          48.300    98851460.129 8
  24549696.875       -1208.863          49.600    97594885.248 8  24549699.695
     -1193.482          50.900
 134871227.398 7                  25665138.531
                      1797.160                          44.900
 100715532.282 7  25665141.961        1342.104          42.800   103342893.441 7
  25665139.945        1377.110          45.200   102029229.152 7  25665142.730
      1359.604          46.500
 137502138.173 7                  26165788.516
                     -2927.461                          45.300
 102680167.768 7  26165789.074       -2186.117          43.900   105358772.582 7
  26165787.719       -2243.162          46.300   104019479.473 7  26165789.914
     -2214.646          47.600
 143418682.078 7                  27291667.750
                      -695.863                          42.600
 107098370.377 6  27291669.547        -519.507          40.500   109892233.507 7
  27291667.211        -533.061          42.000   108495311.732 7  27291670.406
      -526.280          43.300
 147638393.011 6                  28094642.672
                      3045.957                          37.300
 110249411.987 6  28094646.957        2274.594          39.600   113125484.510 6
  28094643.043        2333.962          37.300   111687434.053 6  28094647.094
      2304.267          40.700
 205377554.245 6                  39082057.094
                         5.980                          41.700
 153366256.356 6  39082039.398           4.455          39.800


 201158176.549 7                  38279128.188
                         4.410                          44.400
 150215474.876 6  38279108.316           3.174          41.400


 20  6  3  7  2 30.0000000  0 32S25G14R07G29G24R06R24G15G02G12G19G10
                                R09R18R17G17R05R16G25G32R15E24E05E31
                                E09E01E26E04E13E33S23S36
 204218988.242 6                  38881110.750
                       262.637                          41.900



 124666995.276 6  97143178.91143  23723353.891
  23723356.949        2957.973        2305.073          38.300          22.900



 115875617.358 7  90125502.601 7  21646538.773    21646542.164    21646538.820
  21646541.766        1745.969        1357.980          46.900          47.600



 130330124.136 6 101556047.456 6  24801009.805    24801014.332
  24801014.840        3948.148        3076.443          38.600          37.700



 110774385.200 7  86317619.568 8  21079636.156    21079642.172
  21079642.078       -2060.504       -1605.502          47.500          49.400
  82721032.535 8  21079639.605       -1538.599          50.800


 111035653.330 7                  20808034.570                    20808033.328
                     -2234.846                          43.100



 123984166.595 7  96432168.849 7  23185666.055    23185669.609    23185665.145
  23185668.754       -2743.899       -2134.128          42.600          43.800



 135034274.089 6 105221633.000 5  25696196.656    25696201.102
  25696200.852       -3805.305       -2965.206          37.300          32.700



 132424669.484 6 103188153.46243  25199596.250
  25199599.391        2399.137        1869.603          38.800          20.400



 104831332.545 8  81686852.912 8  19948755.461    19948757.926
  19948757.922         -85.000         -66.065          49.800          50.300



 121462342.243 7  94646032.55245  23113525.914
  23113527.996       -2439.406       -1900.614          45.200          30.900



 129408429.210 6 100837795.989 6  24625618.742    24625624.734
  24625625.313       -2737.832       -2133.378          41.200          40.300
  96636182.022 6  24625620.203       -2044.488          41.100


 126012459.889 6  98009712.149 6  23598089.094    23598091.363    23598088.414
  23598090.773        3316.300        2579.335          40.800          40.100



 118468233.292 7  92141952.683 7  22193089.352    22193092.930    22193088.570
  22193093.168        3889.498        3025.164          44.500          45.000



 112674591.918 8  87635819.425 7  21055937.711    21055939.086    21055936.324
  21055939.320         738.097         574.062          48.800          46.100



 132422986.928 6 103186796.527 6  25199263.906    25199270.203
  25199270.168       -3088.934       -2406.753          37.200          36.000



 126897286.292 6  98697895.505 6  23738768.703    23738772.934    23738767.949
  23738771.668       -4563.121       -3549.078          41.400          39.500



 104607816.028 7  81361641.781 7  19582805.000    19582805.621    19582804.461
  19582806.301         782.706         608.765          44.200          45.800



 108887694.222 8  84847731.534 7  20720674.406    20720681.473
  20720680.891        1891.273        1473.857          48.000          47.900
  81312394.454 8  20720678.773        1412.454          50.300


 115001764.744 7  89611786.175 7  21884106.656    21884111.641
  21884111.574        1833.625        1428.954          46.500          47.000
  85877950.868 7  21884108.367        1369.415          47.300


 111828515.709 8  86977743.919 7  20927184.336    20927186.520    20927183.469
  20927186.684       -2456.803       -1910.834          50.000          47.000



 133504673.966 7                  25405094.750
                      2415.992                          43.300
  99695090.869 7  25405108.867        1804.171          42.000   102295827.229 7
  25405106.391        1851.242          43.300   100995470.843 7  25405109.758
      1827.700          45.000
 140447988.104 7                  26726363.531
                      1899.074                          44.800
 104879995.349 7  26726365.320        1418.271          43.900   107615987.812 7
  26726362.973        1455.269          43.700   106248002.362 7  26726366.105
      1436.784          45.800
 124772128.052 8                  23743346.250
                       829.008                          50.800
  93173994.480 8  23743347.453         619.112          48.700    95604613.981 8
  23743346.113         635.268          50.600    94389314.521 8  23743348.563
       627.198          51.000
 119212710.851 8                  22685426.086
                      -722.707                          48.800
  89022472.283 7  22685427.227        -539.505          47.700    91344790.592 8
  22685425.004        -553.576          49.000    90183643.239 8  22685428.020
      -546.547          49.800
 129056944.343 8                  24558719.336
                     -1582.734                          50.200
  96373695.104 7  24558719.684       -1181.805          47.600    98887783.917 8
  24558717.645       -1212.629          48.900    97630747.307 8  24558720.691
     -1197.215          50.100
 134817485.293 7                  25654911.828
                      1785.707                          44.700
 100675400.272 7  25654915.375        1333.605          42.900   103301714.501 7
  25654912.914        1368.406          44.800   101988573.677 7  25654916.008
      1351.010          46.300
 137590047.016 7                  26182516.977
                     -2933.000                          46.300
 102745813.917 7  26182517.449       -2190.161          44.100   105426131.260 7
  26182515.156       -2247.308          45.700   104085981.884 7  26182518.480
     -2218.728          46.500
 143439781.106 7                  27295683.063
                      -710.621                          43.100
 107114126.105 6  27295684.297        -530.499          40.500   109908400.269 7
  27295682.367        -544.362          42.300   108511272.994 7  27295685.516
      -537.445          44.100
 147547016.343 6                  28077255.742
                      3045.668                          40.400
 110181176.246 6  28077257.656        2274.440          38.900   113055468.656 6
  28077256.227        2333.766          41.200   111618308.249 7  28077258.391
      2304.097          42.100
 205377376.313 6                  39082022.719
                         5.801                          41.900
 153366123.360 6  39082005.473           4.393          39.900


 201158041.924 7                  38279102.625
                         4.371                          43.900
 150215374.826 6  38279083.363           3.096          40.800


 20  6  3  7  3  0.0000000  0 32S25G14R07G29G24R06R24G15G02G12G19G10
                                R09R18R17G17R05R16G25G32R15E24E05E31
                                E09E01E26E04E13E33S23S36
 204211104.683 6                  38880967.734
                       263.199                          41.800



 124578387.978 6  97074134.27244  23706491.547
  23706495.410        2949.133        2298.119          38.400          24.600



 115823624.282 7  90085063.539 8  21636827.055    21636829.391    21636826.055
  21636829.281        1721.025        1338.568          47.600          48.000



 130211687.545 6 101463759.227 6  24778472.219    24778476.918
  24778476.934        3947.668        3076.127          37.700          37.200



 110836369.907 7  86365919.315 8  21091431.469    21091437.848
  21091437.523       -2071.730       -1614.203          47.000          49.400
  82767319.780 8  21091435.023       -1546.938          50.600


 111103057.712 7                  20820666.695                    20820665.328
                     -2257.956                          44.600



 124066791.474 7  96496432.621 7  23201117.430    23201121.086    23201116.664
  23201120.020       -2763.757       -2149.582          43.200          43.800



 135148397.694 6 105310560.409 5  25717913.750    25717917.930
  25717918.031       -3803.109       -2963.361          38.800          31.300



 132352768.571 6 103132126.86743  25185914.680
  25185917.051        2394.043        1865.589          39.900          20.900



 104834130.167 8  81689032.879 8  19949287.938    19949290.637
  19949290.344        -101.402         -78.843          49.000          51.000



 121535772.002 7  94703250.51545  23127499.789
  23127500.949       -2455.891       -1913.490          45.800          30.700



 129490672.255 6 100901881.455 6  24641269.102    24641274.762
  24641275.027       -2744.855       -2138.784          40.200          39.600
  96697597.238 6  24641270.648       -2049.681          41.100


 125913004.482 6  97932357.957 6  23579463.070    23579466.328    23579462.781
  23579465.195        3314.159        2577.654          39.300          38.900



 118351733.117 7  92051341.460 7  22171265.070    22171268.598    22171264.473
  22171268.977        3877.545        3015.865          43.500          45.100



 112652874.943 8  87618928.440 7  21051878.914    21051881.137    21051878.297
  21051881.223         710.598         552.697          49.200          47.500



 132515763.690 6 103259090.049 6  25216920.227    25216925.051
  25216924.922       -3096.469       -2412.543          36.900          36.100



 127034187.652 6  98804374.324 6  23764378.922    23764382.965    23764378.125
  23764382.215       -4563.637       -3549.490          41.000          39.700



 104584530.099 7  81343530.491 7  19578446.227    19578446.414    19578445.219
  19578447.141         770.101         598.973          45.400          45.700



 108831165.354 7  84803683.068 7  20709917.594    20709924.082
  20709923.617        1877.406        1463.040          47.900          47.800
  81270181.336 8  20709921.469        1402.103          50.300


 114947008.658 7  89569119.107 7  21873686.258    21873692.246
  21873691.719        1816.809        1415.931          47.000          47.000
  85837061.592 7  21873688.621        1356.947          47.300


 111902335.779 8  87035159.506 7  20940998.570    20941000.645    20940997.840
  20941000.902       -2464.341       -1916.711          50.200          47.200



 133432238.513 7                  25391311.922
                      2413.063                          43.400
  99640999.492 6  25391324.227        1801.997          41.700   102240324.741 7
  25391321.969        1849.001          42.300   100940673.914 7  25391325.512
      1825.498          44.800
 140391176.178 7                  26715552.242
                      1888.426                          44.900
 104837570.846 7  26715554.387        1410.291          43.600   107572456.583 7
  26715552.066        1447.080          44.400   106205024.514 7  26715555.145
      1428.686          46.100
 124747365.477 8                  23738634.141
                       821.914                          50.600
  93155502.942 8  23738635.324         613.820          48.800    95585640.061 8
  23738634.031         629.838          50.400    94370581.794 8  23738636.426
       621.836          51.500
 119234605.324 8                  22689592.273
                      -736.871                          49.200
  89038822.036 8  22689593.645        -550.115          48.100    91361566.870 8
  22689591.480        -564.469          48.900    90200206.246 8  22689594.410
      -557.287          50.000
 129104496.706 8                  24567768.102
                     -1587.539                          50.400
  96409204.971 8  24567768.734       -1185.400          48.300    98924220.130 8
  24567766.633       -1216.323          49.200    97666720.345 8  24567769.602
     -1200.861          50.000
 134764084.065 7                  25644749.617
                      1774.313                          45.100
 100635522.807 7  25644753.160        1325.170          44.000   103260796.714 7
  25644750.871        1359.755          44.000   101948176.065 7  25644753.844
      1342.441          45.900
 137678116.339 7                  26199276.164
                     -2938.340                          45.500
 102811579.953 7  26199276.617       -2194.105          44.000   105493612.907 7
  26199274.914       -2251.305          46.300   104152605.723 7  26199277.492
     -2222.708          47.300
 143461321.420 7                  27299782.141
                      -725.285                          43.200
 107130211.388 6  27299783.453        -541.462          41.500   109924905.141 7
  27299781.309        -555.567          43.200   108527568.072 7  27299784.504
      -548.525          44.700
 147455646.175 6                  28059868.766
                      3045.586                          40.000
 110112945.359 6  28059871.363        2274.282          38.900   112985457.837 6
  28059868.023        2333.636          38.400   111549187.399 6  28059871.473
      2303.948          41.100
 205377198.790 6                  39081989.641
                         5.953                          41.300
 153365990.572 6  39081971.797           4.413          39.000


 201157912.342 7                  38279078.453
                         4.184                          44.300
 150215279.425 6  38279058.684           3.324          41.100


 20  6  3  7  3 30.0000000  0 32S25G14R07G29G24R06R24G15G02G12G19G10
                                R09R18R17G17R05R16G25G32R15E24E05E31
                                E09E01E26E04E13E33S23S36
 204203207.332 6                  38880819.094
                       263.250                          41.900



 124490051.996 6  97005301.04644  23689682.383
  23689685.773        2939.996        2291.030          38.900          24.700



 115772381.858 7  90045208.327 7  21627254.117    21627256.547    21627253.656
  21627256.777        1695.992        1319.105          47.400          46.800



 130093266.652 6 101371483.176 6  24755937.648    24755942.289
  24755942.641        3946.930        3075.675          37.600          37.900



 110898691.189 7  86414481.328 8  21103290.750    21103297.445
  21103296.879       -2083.000       -1622.920          46.600          49.300
  82813858.372 8  21103294.211       -1555.304          50.700


 111171155.923 7                  20833427.273                    20833426.074
                     -2281.080                          44.000



 124150012.741 7  96561160.262 7  23216680.508    23216683.840    23216679.250
  23216682.883       -2783.593       -2165.023          43.000          42.300



 135262453.475 6 105399434.972 5  25739617.922    25739622.504
  25739621.926       -3800.805       -2961.565          37.400          31.900



 132281023.472 6 103076221.66643  25172261.461
  25172264.938        2388.797        1861.539          40.200          23.200



 104837421.081 8  81691597.219 8  19949914.180    19949916.578
  19949916.477        -117.980         -91.649          49.300          50.700



 121609698.858 7  94760855.83245  23141567.336
  23141569.031       -2472.609       -1926.402          45.100          32.200



 129573124.390 6 100966129.811 6  24656959.094    24656965.422
  24656965.617       -2752.078       -2144.223          41.600          39.400
  96759168.584 6  24656961.445       -2054.845          41.600


 125813615.546 6  97855055.419 7  23560851.813    23560854.699    23560851.164
  23560853.621        3311.906        2575.916          41.000          42.100



 118235596.545 7  91961013.015 7  22149508.680    22149511.652    22149508.367
  22149512.500        3865.326        3006.366          44.200          44.000



 112631985.331 8  87602680.976 7  21047975.742    21047977.594    21047974.766
  21047977.523         682.957         531.198          49.500          47.400



 132608762.652 6 103331556.787 6  25234618.438    25234622.102
  25234622.297       -3103.867       -2418.323          37.100          38.000



 127171103.935 6  98910864.678 6  23789992.305    23789995.789    23789991.293
  23789995.465       -4564.098       -3549.851          41.900          40.700



 104561623.868 7  81325714.540 7  19574158.094    19574158.199    19574157.199
  19574159.027         757.479         589.129          45.000          45.900



 108775054.659 8  84759960.430 8  20699240.102    20699246.707
  20699246.195        1863.332        1452.185          49.000          48.600
  81228280.496 8  20699243.957        1391.659          50.400


 114892756.190 7  89526844.445 7  21863362.930    21863368.168
  21863367.949        1799.898        1402.828          47.300          46.600
  85796548.387 7  21863364.789        1344.371          47.800


 111976381.629 8  87092750.671 7  20954855.273    20954857.215    20954854.453
  20954857.809       -2471.805       -1922.495          49.900          47.100



 133359892.468 7                  25377545.633
                      2409.941                          44.100
  99586974.831 6  25377558.020        1799.759          41.500   102184890.770 7
  25377555.422        1846.712          43.700   100885944.609 7  25377558.727
      1823.230          45.600
 140334687.597 7                  26704803.180
                      1877.484                          44.800
 104795387.818 7  26704804.926        1402.224          43.300   107529173.137 7
  26704802.816        1438.782          44.500   106162291.280 7  26704805.645
      1420.490          46.200
 124722816.849 8                  23733962.844
                       814.656                          50.200
  93137171.172 8  23733963.863         608.494          48.800    95566830.062 8
  23733962.500         624.375          50.100    94352010.906 8  23733964.977
       616.441          51.300
 119256927.615 8                  22693840.211
                      -751.246                          49.000
  89055491.274 7  22693841.438        -560.755          47.700    91378670.966 8
  22693839.305        -575.415          48.600    90217092.915 8  22693842.246
      -568.089          49.800
 129152195.125 8                  24576845.039
                     -1592.453                          50.100
  96444823.902 8  24576845.512       -1189.038          48.500    98960768.261 8
  24576843.340       -1220.058          49.000    97702803.878 8  24576846.340
     -1204.550          50.600
 134711025.222 7                  25634652.930
                      1762.836                          44.700
 100595901.006 7  25634656.313        1316.615          43.000   103220141.291 7
  25634654.184        1350.970          44.700   101908037.450 7  25634656.988
      1333.788          46.500
 137766344.427 7                  26216065.281
                     -2943.711                          45.700
 102877464.522 7  26216065.676       -2198.044          44.400   105561216.212 7
  26216063.895       -2255.376          45.500   104219349.660 7  26216066.773
     -2226.698          47.400
 143483302.438 7                  27303964.820
                      -740.043                          42.800
 107146625.764 6  27303966.324        -552.435          41.200   109941747.761 7
  27303964.551        -566.844          42.100   108544196.552 7  27303967.414
      -559.635          44.000
 147364284.652 6                  28042482.297
                      3045.109                          38.600
 110044720.914 6  28042484.848        2274.039          37.900   112915453.585 6
  28042483.590        2333.375          41.600   111480073.061 6  28042485.406
      2303.688          41.900
 205377021.507 6                  39081955.078
                         5.785                          41.700
 153365857.787 6  39081938.238           4.392          39.000


 201157791.164 7                  38279053.734
                         4.027                          44.500
 150215180.263 6  38279034.234           3.283          41.700


 20  6  3  7  4  0.0000000  0 32S25G14R07G29G24R06R24G15G02G12G19G10
                                R09R18R17G17R05R16G25G32R15E24E05E31
                                E09E01E26E04E13E33S23S36
 204195300.160 7                  38880665.906
                       263.941                          42.000



 124401989.768 6  96936681.15644  23672924.664
  23672927.883        2931.023        2283.891          38.800          24.900



 115721891.782 7  90005938.295 8  21617821.633    21617825.406    21617821.395
  21617824.848        1670.874        1299.573          47.200          48.200



 129974863.652 6 101279221.135 6  24733405.961    24733410.582
  24733410.852        3946.402        3075.130          37.900          36.000



 110961347.685 7  86463304.535 8  21115213.828    21115220.258
  21115220.004       -2094.059       -1631.634          47.100          50.000
  82860647.267 8  21115217.566       -1563.642          50.800


 111239944.063 7                  20846319.086                    20846317.719
                     -2304.002                          43.800



 124233826.765 7  96626348.913 6  23232354.133    23232356.242    23232353.266
  23232356.836       -2803.349       -2180.364          43.900          41.800



 135376438.732 6 105488254.690 5  25761308.555    25761312.699
  25761312.953       -3798.316       -2959.759          38.300          33.800



 132209436.548 6 103020439.74443  25158639.008
  25158642.168        2383.520        1857.384          39.200          20.400



 104841204.317 8  81694545.207 8  19950633.992    19950636.504
  19950636.313        -134.250        -104.448          48.900          50.200



 121684120.380 7  94818846.59045  23155729.438
  23155731.121       -2488.855       -1939.223          45.400          30.700



 129655782.116 6 101030538.408 6  24672687.336    24672694.406
  24672695.109       -2758.699       -2149.512          41.200          39.600
  96820893.494 6  24672690.066       -2059.964          41.400


 125714293.464 6  97777804.983 6  23542251.016    23542253.195    23542251.184
  23542253.027        3309.638        2574.170          40.400          41.200



 118119827.901 7  91870970.797 7  22127821.539    22127825.637    22127820.793
  22127825.449        3852.985        2996.758          43.200          45.800



 112611924.263 8  87587077.937 7  21044226.734    21044228.789    21044225.836
  21044228.707         655.341         509.707          49.200          47.500



 132701982.032 6 103404195.207 6  25252357.156    25252361.613
  25252361.117       -3110.902       -2424.018          37.400          36.700



 127308030.424 6  99017363.027 6  23815606.641    23815609.594    23815606.246
  23815610.004       -4564.374       -3550.058          41.400          39.300



 104539097.565 7  81308194.076 7  19569940.805    19569940.809    19569940.098
  19569942.074         744.777         579.274          44.800          45.900



 108719362.483 8  84716563.973 8  20688642.711    20688648.711
  20688648.152        1849.477        1441.287          48.200          48.600
  81186692.209 8  20688646.156        1381.234          50.200


 114839009.102 7  89484963.614 7  21853135.352    21853140.637
  21853140.066        1783.090        1389.641          46.900          47.600
  85756412.584 7  21853136.969        1331.751          47.300


 112050652.182 8  87150516.655 7  20968753.898    20968755.820    20968753.496
  20968756.441       -2479.296       -1928.349          50.100          47.000



 133287635.693 7                  25363794.367
                      2407.020                          42.600
  99533016.905 7  25363808.309        1797.528          43.200   102129525.266 7
  25363805.375        1844.419          42.900   100831282.877 7  25363808.734
      1820.968          45.300
 140278523.523 7                  26694115.125
                      1866.727                          45.300
 104753447.137 7  26694117.145        1394.115          44.000   107486138.325 7
  26694115.156        1430.478          44.200   106119803.529 7  26694117.938
      1412.287          46.100
 124698481.718 8                  23729331.820
                       807.625                          50.200
  93118998.827 8  23729333.047         603.174          48.900    95548183.672 8
  23729331.758         618.904          50.400    94333601.543 8  23729334.168
       611.039          51.300
 119279677.001 8                  22698169.172
                      -765.418                          48.300
  89072479.448 7  22698170.598        -571.411          47.800    91396102.297 8
  22698168.359        -586.312          48.800    90234302.672 8  22698171.309
      -578.862          50.400
 129200038.685 8                  24585949.398
                     -1597.199                          49.800
  96480551.227 8  24585949.902       -1192.647          48.400    98997427.608 8
  24585947.730       -1223.767          48.700    97738997.213 8  24585950.668
     -1208.212          50.100
 134658310.156 7                  25624621.570
                      1751.480                          44.500
 100556535.908 7  25624625.078        1308.019          43.400   103179749.310 7
  25624622.773        1342.128          44.500   101868158.911 7  25624625.766
      1325.070          46.300
 137854729.203 7                  26232883.930
                     -2948.738                          46.100
 102943466.110 7  26232884.676       -2201.934          43.400   105628939.623 7
  26232883.180       -2259.390          45.500   104286212.165 7  26232885.938
     -2230.672          46.900
 143505723.342 7                  27308231.313
                      -754.613                          42.400
 107163368.628 6  27308232.809        -563.372          40.900   109958927.388 6
  27308230.816        -578.094          41.900   108561157.790 7  27308233.910
      -570.722          44.000
 147272933.445 6                  28025099.609
                      3044.754                          40.200
 109976504.117 6  28025101.227        2273.735          37.100   112845457.331 6
  28025099.230        2333.042          39.000   111410966.500 6  28025102.793
      2303.405          40.500
 205376845.733 6                  39081922.750
                         5.848                          41.700
 153365726.604 6  39081904.625           4.324          39.200


 201157658.897 7                  38279029.484
                         4.574                          44.300
 150215086.454 6  38279009.156           2.939          41.500


 20  6  3  7  4 30.0000000  0 32S25G14R07G29G24R06R24G15G02G12G19G10
                                R09R18R17G17R05R16G25G32R15E24E05E31
                                E09E01E26E04E13E33S23S36
 204187379.465 7                  38880516.328
                       264.273                          42.000



 124314203.567 6  96868276.34344  23656220.086
  23656222.637        2921.668        2276.705          39.200          25.300



 115672156.573 7  89967255.369 7  21608531.125    21608534.699    21608530.398
  21608533.930        1645.692        1279.980          47.200          47.900



 129856481.539 6 101186975.326 6  24710878.570    24710883.574
  24710883.527        3945.684        3074.603          38.100          36.900



 111024338.808 7  86512388.506 8  21127200.742    21127207.090
  21127206.793       -2105.090       -1640.289          46.800          49.500
  82907686.069 8  21127204.223       -1571.943          50.700


 111309418.993 7                  20859338.836                    20859336.809
                     -2326.849                          43.900



 124318229.725 7  96691995.623 7  23248138.070    23248140.750    23248136.586
  23248140.520       -2822.838       -2195.537          42.600          42.900



 135490351.575 6 105577017.926 5  25782985.078    25782989.410
  25782989.586       -3795.898       -2957.841          38.100          33.100



 132138010.502 6 102964783.19443  25145046.445
  25145050.332        2378.246        1853.203          39.600          20.900



 104845479.145 8  81697876.234 8  19951447.383    19951450.031
  19951449.773        -150.570        -117.177          49.200          51.000



 121759033.971 7  94877220.78345  23169984.516
  23169986.395       -2505.184       -1951.940          45.400          31.300



 129738642.345 6 101095104.803 6  24688456.453    24688461.664
  24688462.297       -2765.297       -2154.702          38.800          39.200
  96882769.614 6  24688457.523       -2064.933          40.200


 125615038.845 6  97700606.874 6  23523663.563    23523665.766    23523663.145
  23523665.977        3307.432        2572.453          40.200          41.400



 118004431.657 7  91781218.205 7  22106203.773    22106206.785    22106203.285
  22106207.320        3840.552        2987.101          45.100          44.600



 112592692.759 8  87572120.109 7  21040633.023    21040635.234    21040631.773
  21040634.949         627.711         488.207          49.000          47.500



 132795418.653 6 103477002.908 6  25270138.625    25270141.965
  25270141.656       -3118.031       -2429.588          36.400          36.800



 127444963.344 6  99123866.384 6  23841222.563    23841226.094    23841222.293
  23841226.340       -4564.485       -3550.155          40.800          40.100



 104516951.056 7  81290969.025 7  19565795.055    19565794.910    19565794.582
  19565796.195         732.138         569.436          45.000          46.000



 108664089.388 8  84673494.028 8  20678124.000    20678130.934
  20678130.004        1835.602        1430.443          48.300          48.000
  81145416.861 8  20678127.715        1370.833          50.200


 114785769.293 7  89443478.052 7  21843004.273    21843009.254
  21843009.102        1766.320        1376.509          47.200          47.200
  85716655.602 8  21843005.742        1319.157          48.200


 112125146.517 8  87208456.651 7  20982694.344    20982696.230    20982694.008
  20982697.051       -2486.685       -1934.104          49.600          47.100



 133215468.355 7                  25350062.063
                      2404.238                          43.900
  99479125.733 7  25350074.496        1795.332          42.000   102074228.217 7
  25350072.148        1842.139          42.800   100776688.769 7  25350075.500
      1818.737          44.800
 140222685.361 7                  26683489.750
                      1855.980                          44.300
 104711749.805 7  26683491.543        1385.996          43.000   107443353.260 7
  26683489.398        1422.153          44.000   106077562.328 7  26683492.340
      1404.081          45.400
 124674359.830 8                  23724741.625
                       800.664                          50.400
  93100985.729 8  23724742.906         597.905          49.100    95529700.660 8
  23724741.504         613.499          50.600    94315353.494 8  23724743.941
       605.699          51.500
 119302852.943 8                  22702579.539
                      -779.508                          48.400
  89089786.152 8  22702580.754        -581.991          48.000    91413860.481 8
  22702578.480        -597.170          49.100    90251835.110 8  22702581.563
      -589.581          50.200
 129248026.706 8                  24595081.055
                     -1601.930                          50.200
  96516386.429 8  24595081.738       -1196.223          48.500    99034197.635 8
  24595079.555       -1227.417          48.800    97775299.830 8  24595082.500
     -1211.824          50.400
 134605940.561 7                  25614656.109
                      1739.906                          44.400
 100517428.819 7  25614659.305        1299.428          43.600   103139622.040 7
  25614656.914        1333.317          44.100   101828541.725 7  25614660.105
      1316.379          46.100
 137943268.888 7                  26249732.883
                     -2953.793                          45.700
 103009583.397 7  26249733.547       -2205.756          44.000   105696781.640 7
  26249732.102       -2263.258          46.200   104353191.817 7  26249734.434
     -2234.504          47.000
 143528583.444 7                  27312581.602
                      -769.191                          42.500
 107180439.461 6  27312583.191        -574.312          40.900   109976443.537 7
  27312581.203        -589.250          42.300   108578451.288 7  27312584.094
      -581.787          44.000
 147181594.549 6                  28007717.633
                      3044.539                          39.100
 109908296.585 6  28007720.434        2273.452          39.800   112775470.349 6
  28007717.980        2332.753          39.800   111341869.253 6  28007720.480
      2303.103          41.600
 205376670.275 7                  39081889.813
                         5.910                          42.500
 153365595.705 6  39081871.086           4.375          38.800


 201157522.137 7                  38279003.438
                         4.492                          44.800
 150214990.282 6  38278984.242           3.345          41.000


 20  6  3  7  5  0.0000000  0 32S25G14R07G29G24R06R24G15G02G12G19G10
                                R09R18R17G17R05R16G25G32R15E24E05E31
                                E09E01E26E04E13E33S23S36
 204179438.382 7                  38880357.828
                       265.012                          42.200



 124226695.918 6  96800088.58244  23639567.641
  23639570.824        2912.215        2269.402          40.500          26.300



 115623178.526 7  89929161.332 7  21599381.914    21599384.383    21599381.016
  21599384.480        1620.402        1260.322          47.400          47.500



 129738122.791 6 101094747.764 5  24688355.625    24688360.992
  24688360.723        3944.816        3073.930          38.700          35.400



 111087663.991 7  86561732.826 8  21139251.016    21139257.641
  21139257.156       -2116.402       -1649.003          46.700          49.300
  82954974.369 8  21139254.852       -1580.306          50.600


 111379577.460 7                  20872485.953                    20872484.719
                     -2349.569                          43.800



 124403218.454 7  96758097.932 6  23264031.508    23264034.484    23264029.844
  23264033.891       -2842.378       -2210.716          42.000          41.600



 135604189.985 6 105665723.103 5  25804648.078    25804653.141
  25804653.000       -3793.410       -2955.918          38.000          35.100



 132066748.214 6 102909254.21243  25131486.016
  25131489.398        2372.605        1848.887          39.200          22.500



 104850244.660 8  81701589.623 8  19952354.367    19952357.020
  19952356.707        -166.957        -129.931          49.900          51.200



 121834437.212 7  94935976.52844  23184333.633
  23184335.465       -2521.562       -1964.660          43.900          29.300



 129821702.129 6 101159826.705 6  24704261.719    24704268.211
  24704268.621       -2771.844       -2159.866          38.900          40.500
  96944794.793 6  24704263.375       -2069.889          40.900


 125515852.278 6  97623461.825 6  23505090.398    23505092.344    23505089.965
  23505091.703        3305.086        2570.671          41.700          41.100



 117889412.768 7  91691759.086 7  22084657.094    22084660.227    22084656.105
  22084660.684        3827.823        2977.184          43.500          45.200



 112574292.305 8  87557808.632 7  21037193.945    21037196.520    21037192.867
  21037196.352         599.926         466.603          48.800          47.800



 132889070.456 6 103549978.338 5  25287959.281    25287963.297
  25287962.781       -3125.203       -2435.234          36.900          35.500



 127581899.256 7  99230372.048 6  23866840.141    23866843.121    23866839.488
  23866843.430       -4564.529       -3550.219          42.600          40.200



 104495184.965 7  81274039.847 7  19561720.859    19561719.191    19561719.641
  19561721.500         719.390         559.509          45.200          45.900



 108609236.225 8  84630751.320 7  20667685.906    20667691.996
  20667691.914        1821.441        1419.478          48.000          47.800
  81104455.095 8  20667689.723        1360.323          50.200


 114733038.984 8  89402389.511 7  21832970.070    21832975.234
  21832974.848        1749.199        1363.200          48.200          46.700
  85677279.083 7  21832971.496        1306.397          47.600


 112199863.764 8  87266570.028 7  20996676.977    20996679.391    20996676.449
  20996679.512       -2494.167       -1939.913          49.300          46.000



 133143390.863 7                  25336345.938
                      2401.094                          43.700
  99425301.646 6  25336359.164        1793.032          41.900   102019000.002 7
  25336357.293        1839.828          44.300   100722162.631 7  25336359.785
      1816.421          45.300
 140167174.780 7                  26672925.781
                      1844.996                          44.500
 104670297.103 7  26672928.145        1377.829          43.300   107400819.167 7
  26672925.988        1413.756          44.000   106035568.933 7  26672928.977
      1395.790          45.600
 124650451.292 8                  23720191.883
                       793.430                          50.300
  93083131.945 8  23720193.332         592.555          48.800    95511381.131 8
  23720191.895         608.019          50.500    94297266.829 8  23720194.301
       600.293          51.300
 119326455.181 8                  22707071.188
                      -793.855                          48.500
  89107411.189 7  22707071.980        -592.644          47.500    91431945.305 8
  22707069.785        -608.092          49.300    90269690.039 8  22707072.930
      -600.357          50.200
 129296158.770 8                  24604240.383
                     -1606.805                          50.000
  96552329.186 7  24604240.848       -1199.829          47.900    99071078.030 8
  24604238.887       -1231.128          48.900    97811711.401 8  24604241.750
     -1215.471          50.300
 134553918.201 7                  25604756.453
                      1728.383                          44.800
 100478581.036 7  25604759.738        1290.712          43.100   103099760.792 7
  25604757.523        1324.401          44.700   101789187.198 7  25604760.520
      1307.560          45.500
 138031962.016 7                  26266610.695
                     -2958.953                          46.000
 103075815.210 7  26266611.160       -2209.571          44.400   105764741.294 7
  26266610.027       -2267.214          45.300   104420287.559 7  26266612.262
     -2238.399          46.900
 143551882.340 7                  27317014.938
                      -783.914                          42.800
 107197837.956 6  27317016.910        -585.216          41.300   109994295.915 6
  27317014.633        -600.474          41.700   108596076.724 7  27317017.672
      -592.834          44.100
 147090270.314 6                  27990339.758
                      3043.848                          40.700
 109840099.938 6  27990340.883        2273.032          36.100   112705494.735 6
  27990339.531        2332.295          40.000   111272783.128 6  27990342.520
      2302.661          40.500
 205376495.473 6                  39081855.609
                         5.816                          41.300
 153365465.321 6  39081837.617           4.333          39.200


 201157392.098 7                  38278978.891
                         4.320                          43.900
 150214890.446 6  38278959.625           3.193          41.300


 20  6  3  7  5 30.0000000  0 32S25G14R07G29G24R06R24G15G02G12G19G10
                                R09R18R17G17R05R16G25G32R15E24E05E31
                                E09E01E26E04E13E33S23S36
 204171479.813 7                  38880197.828
                       265.938                          42.100



 124139469.331 6  96732119.81544  23622968.852
  23622972.039        2902.883        2262.091          41.000          25.900



 115574959.951 7  89891658.018 8  21590373.492    21590377.258    21590373.273
  21590376.809        1595.012        1240.572          47.300          48.100



 129619789.650 6 101002540.098 6  24665837.625    24665842.242
  24665842.918        3944.102        3073.273          39.400          37.400



 111151322.441 7  86611336.818 8  21151365.188    21151371.195
  21151371.242       -2127.414       -1657.638          46.800          50.000
  83002511.538 8  21151368.547       -1588.569          50.600


 111450416.307 7                  20885761.242                    20885759.574
                     -2372.175                          44.000



 124488789.020 7  96824652.775 6  23280033.289    23280036.586    23280031.797
  23280035.672       -2861.686       -2225.759          42.300          40.800



 135717951.983 6 105754368.827 5  25826296.031    25826300.156
  25826300.902       -3790.664       -2953.883          40.200          33.200



 131995652.414 6 102853854.94643  25117956.797
  25117959.824        2367.051        1844.544          40.100          22.000



 104855499.578 8  81705684.373 8  19953354.117    19953357.109
  19953356.738        -183.195        -142.625          49.000          50.700



 121910327.102 7  94995111.47045  23198774.984
  23198776.777       -2537.629       -1977.258          44.500          30.900



 129904958.175 6 101224701.538 6  24720105.805    24720111.133
  24720111.066       -2778.402       -2164.903          40.600          39.600
  97006966.430 6  24720107.047       -2074.708          41.300


 125416734.484 6  97546370.204 7  23486528.867    23486531.418    23486527.574
  23486530.766        3302.832        2568.875          41.100          42.000



 117774775.625 7  91602596.896 7  22063181.523    22063184.938    22063180.781
  22063184.906        3815.032        2967.253          43.900          45.000



 112556723.952 8  87544144.359 7  21033911.180    21033913.641    21033910.246
  21033913.270         572.201         445.051          48.700          47.400



 132982934.842 6 103623119.369 5  25305820.602    25305825.488
  25305824.887       -3132.238       -2440.681          36.900          35.200



 127718833.903 6  99336876.736 6  23892455.852    23892458.871    23892455.930
  23892459.555       -4564.414       -3550.107          41.000          38.800



 104473799.297 7  81257406.546 7  19557717.813    19557716.965    19557716.402
  19557718.152         706.729         549.667          45.200          46.100



 108554803.385 8  84588336.134 8  20657327.852    20657333.941
  20657333.621        1807.473        1408.556          48.300          48.100
  81063807.198 8  20657331.398        1349.875          50.200


 114680819.951 7  89361699.364 7  21823032.633    21823038.145
  21823037.754        1732.223        1349.902          47.800          47.300
  85638284.352 7  21823034.594        1293.674          47.600


 112274803.033 8  87324856.082 7  21010700.570    21010702.934    21010700.324
  21010703.414       -2501.537       -1945.625          49.800          46.900



 133071403.224 7                  25322647.563
                      2398.078                          44.000
  99371544.669 7  25322660.188        1790.811          42.800   101963840.669 7
  25322657.684        1837.553          43.200   100667704.461 7  25322660.961
      1814.180          45.300
 140111993.038 7                  26662425.375
                      1834.008                          43.100
 104629089.988 7  26662427.453        1369.605          43.300   107358537.061 7
  26662425.184        1405.353          44.400   105993824.315 7  26662428.211
      1387.475          46.000
 124626755.682 8                  23715682.703
                       786.391                          50.300
  93065437.180 8  23715684.180         587.261          48.800    95493224.758 8
  23715682.832         602.591          50.700    94279341.259 8  23715685.191
       594.936          51.800
 119350482.984 8                  22711643.242
                      -807.945                          48.300
  89125354.010 8  22711644.211        -603.195          48.300    91450356.216 8
  22711642.102        -618.949          49.000    90287866.914 8  22711645.266
      -611.077          50.100
 129344434.063 8                  24613426.977
                     -1611.484                          50.000
  96588378.909 8  24613427.230       -1203.376          48.200    99108068.186 8
  24613425.336       -1234.765          49.300    97848231.343 8  24613428.250
     -1219.069          50.600
 134502244.576 7                  25594923.289
                      1716.605                          44.700
 100439993.593 7  25594926.332        1282.053          42.600   103060166.752 7
  25594924.512        1315.488          44.700   101750096.470 7  25594927.375
      1298.766          46.100
 138120806.607 7                  26283517.633
                     -2963.996                          45.500
 103142160.157 7  26283517.523       -2213.302          43.600   105832816.980 7
  26283516.043       -2271.044          45.500   104487497.872 7  26283518.832
     -2242.178          46.800
 143575619.270 7                  27321532.195
                      -798.457                          43.500
 107215563.558 6  27321533.871        -596.117          40.200   110012483.922 6
  27321531.488        -611.673          41.900   108614033.543 7  27321534.629
      -603.899          43.900
 146998962.465 6                  27972964.641
                      3043.434                          40.400
 109771915.578 6  27972966.363        2272.580          37.900   112635531.559 6
  27972964.398        2331.886          40.500   111203709.368 6  27972966.906
      2302.236          41.900
 205376320.793 6                  39081822.859
                         5.879                          41.600
 153365334.995 6  39081804.234           4.354          38.700


 201157264.693 7                  38278953.609
                         4.547                          43.800
 150214790.644 6  38278934.613           3.520          41.900


 20  6  3  7  6  0.0000000  0 32S25G14R07G29G24R06R24G15G02G12G19G10
                                R09R18R17G17R05R16G25G32R15E24E05E31
                                E09E01E26E04E13E33S23S36
 204163503.130 6                  38880041.063
                       265.895                          41.800



 124052526.845 6  96664372.45244  23606424.195
  23606427.648        2893.273        2254.637          41.300          27.500



 115527503.786 7  89854747.691 7  21581508.664    21581511.613    21581508.012
  21581511.477        1569.561        1220.750          47.500          47.900



 129501485.620 6 100910355.190 5  24643325.492    24643329.891
  24643329.480        3942.809        3072.403          40.300          35.300



 111215313.325 7  86661199.855 8  21163542.305    21163548.234
  21163548.066       -2138.582       -1666.298          47.000          49.400
  83050296.939 8  21163545.563       -1596.862          50.600


 111521932.099 7                  20899163.258                    20899162.531
                     -2394.734                          43.600



 124574938.516 6  96891657.918 6  23296144.203    23296144.031    23296141.797
  23296145.891       -2880.970       -2240.732          41.300          37.900



 135831636.018 6 105842953.731 5  25847929.352    25847934.777
  25847935.098       -3788.258       -2951.858          37.000          34.600



 131924726.308 6 102798587.98044  25104459.945
  25104463.078        2361.199        1840.049          41.400          24.500



 104861244.113 8  81710160.633 8  19954447.266    19954449.965
  19954449.910        -199.641        -155.375          48.900          50.700



 121986701.677 7  95054624.11144  23213308.180
  23213309.973       -2553.953       -1989.842          43.400          28.600



 129988407.895 6 101289727.250 6  24735984.859    24735991.707
  24735991.156       -2785.016       -2169.940          40.400          40.300
  97069282.755 6  24735986.598       -2079.523          40.700


 125317686.260 6  97469332.745 6  23467980.133    23467981.789    23467979.148
  23467981.340        3300.427        2567.025          40.900          40.100



 117660525.656 7  91513735.826 7  22041779.273    22041781.227    22041778.156
  22041782.313        3802.012        2957.119          44.200          45.700



 112539989.494 8  87531128.670 7  21030783.609    21030785.309    21030782.512
  21030785.863         544.346         423.364          48.000          47.200



 133077009.926 6 103696424.572 5  25323722.000    25323726.027
  25323726.813       -3139.375       -2446.169          36.800          35.400



 127855763.866 6  99443377.741 6  23918071.453    23918074.309    23918071.406
  23918075.270       -4564.230       -3549.952          41.100          38.800



 104452794.662 7  81241069.606 7  19553784.859    19553784.891    19553784.094
  19553786.129         693.999         539.758          44.700          46.000



 108500792.121 8  84546249.435 8  20647049.805    20647055.980
  20647055.477        1793.273        1397.578          48.300          48.600
  81023474.125 8  20647053.375        1339.343          50.300


 114629114.789 7  89321409.647 7  21813193.805    21813198.816
  21813198.656        1714.906        1336.509          47.600          47.000
  85599673.370 8  21813195.301        1280.820          48.000


 112349963.901 8  87383314.513 7  21024765.547    21024768.305    21024765.660
  21024768.773       -2508.971       -1951.420          50.000          46.300



 132999506.228 7                  25308965.203
                      2395.027                          43.100
  99317855.411 7  25308978.473        1788.488          42.100   101908750.788 7
  25308975.961        1835.192          43.300   100613314.883 7  25308979.188
      1811.854          45.000
 140057142.226 7                  26651987.461
                      1822.797                          43.400
 104588129.964 7  26651989.684        1361.336          43.400   107316508.541 7
  26651987.488        1396.831          43.300   105952330.044 7  26651990.441
      1379.094          46.300
 124603273.501 8                  23711214.352
                       779.125                          51.000
  93047901.782 8  23711215.531         581.928          49.200    95475231.927 8
  23711214.148         597.108          50.500    94261577.151 8  23711216.672
       589.520          51.700
 119374936.504 8                  22716296.734
                      -822.242                          48.600
  89143614.755 8  22716297.699        -613.822          48.300    91469093.322 8
  22716295.570        -629.831          49.200    90306365.834 8  22716298.629
      -621.828          50.900
 129392852.629 8                  24622640.547
                     -1616.383                          49.900
  96624535.622 8  24622641.203       -1206.962          48.600    99145168.112 8
  24622639.016       -1238.432          49.300    97884859.667 8  24622642.023
     -1222.713          50.700
 134450921.829 7                  25585156.344
                      1704.809                          44.000
 100401668.234 7  25585159.914        1273.270          43.000   103020841.579 7
  25585157.867        1306.482          44.600   101711271.206 7  25585160.836
      1289.869          46.000
 138209801.553 7                  26300452.594
                     -2969.086                          45.700
 103208617.369 7  26300452.941       -2217.043          44.000   105901007.856 7
  26300451.391       -2274.873          45.100   104554821.907 7  26300454.082
     -2245.960          46.900
 143599794.159 7                  27326132.383
                      -813.094                          43.500
 107233616.233 6  27326134.234        -607.024          41.400   110031007.509 6
  27326131.961        -622.858          41.200   108632321.667 7  27326134.895
      -614.948          43.200
 146907673.725 6                  27955592.203
                      3042.570                          39.500
 109703745.454 6  27955594.574        2272.086          39.100   112565583.172 6
  27955592.855        2331.347          40.600   111134650.102 7  27955595.711
      2301.720          42.800
 205376146.929 6                  39081788.906
                         5.660                          41.300
 153365205.160 6  39081770.977           4.283          39.700


 201157135.149 7                  38278929.719
                         4.371                          43.300
 150214696.125 6  38278910.070           3.328          41.600


 20  6  3  7  6 30.0000000  0 32S25G14R07G29G24R06R24G15G02G12G19G10
                                R09R18R17G17R05R16G25G32R15E24E05E31
                                E09E01E26E04E13E33S23S36
 204155517.079 6                  38879873.969
                       266.461                          41.400



 123965870.123 6  96596847.76744  23589933.789
  23589937.180        2883.855        2247.231          40.200          27.900



 115480811.705 7  89818431.632 7  21572786.961    21572789.418    21572785.789
  21572789.039        1544.083        1200.966          47.000          47.600



 129383212.703 6 100818194.455 6  24620818.367    24620823.418
  24620823.590        3941.879        3071.633          39.600          37.300



 111279635.486 7  86711321.002 8  21175782.172    21175788.523
  21175788.133       -2149.520       -1674.836          46.500          49.100
  83098329.712 8  21175785.781       -1605.053          50.600


 111594121.548 7                  20912691.289                    20912690.324
                     -2417.105                          43.000



 124661663.058 7  96959110.418 6  23312361.453    23312363.188    23312359.688
  23312363.852       -2900.030       -2255.616          42.600          36.900



 135945239.777 6 105931476.038 5  25869547.656    25869552.406
  25869552.359       -3785.527       -2949.659          37.900          31.100



 131853972.287 6 102743455.02443  25090996.289
  25090998.789        2355.656        1835.625          40.400          22.600



 104867477.146 8  81715017.537 8  19955633.477    19955636.230
  19955635.898        -215.770        -167.997          49.500          50.500



 122063557.726 7  95114511.91744  23227933.727
  23227935.492       -2569.742       -2002.264          43.900          29.800



 130072047.693 6 101354901.066 6  24751901.234    24751907.570
  24751907.602       -2791.148       -2174.780          39.700          39.000
  97131741.027 6  24751902.961       -2084.189          41.400


 125218707.907 6  97392349.564 6  23449444.391    23449446.789    23449443.820
  23449446.574        3298.182        2565.265          41.300          40.500



 117546667.172 7  91425179.226 7  22020449.266    22020452.910    22020448.516
  22020452.918        3788.978        2946.993          44.300          45.900



 112524089.351 8  87518761.867 7  21027812.180    21027814.664    21027811.727
  21027814.496         516.587         401.786          49.100          47.700



 133171292.836 6 103769891.762 5  25341663.906    25341667.609
  25341668.313       -3146.148       -2451.502          38.700          34.900



 127992684.983 7  99549871.939 6  23943685.188    23943688.340    23943685.582
  23943689.086       -4563.784       -3549.581          42.500          39.600



 104432170.619 7  81225028.672 7  19549924.492    19549924.141    19549923.645
  19549925.207         681.373         529.967          44.600          45.700



 108447202.599 8  84504491.388 8  20636851.859    20636858.285
  20636857.637        1779.344        1386.648          48.800          48.400
  80983455.988 8  20636855.629        1328.878          50.300


 114577925.041 7  89281521.547 7  21803452.508    21803457.867
  21803457.473        1697.852        1323.149          47.900          47.600
  85561447.292 7  21803454.230        1268.008          47.500


 112425344.928 8  87441944.172 7  21038872.914    21038874.723    21038872.285
  21038875.426       -2516.240       -1957.077          49.200          46.800



 132927699.648 7                  25295301.531
                      2392.109                          44.200
  99264233.599 7  25295314.801        1786.327          43.200   101853730.195 7
  25295312.383        1832.914          44.200   100558993.702 7  25295315.160
      1809.616          46.100
 140002623.319 7                  26641612.648
                      1811.910                          43.100
 104547417.851 7  26641614.879        1353.071          42.900   107274734.304 7
  26641612.840        1388.403          44.000   105911086.868 7  26641615.734
      1370.744          45.900
 124580004.163 8                  23706786.188
                       772.180                          50.200
  93030525.338 8  23706787.594         576.677          48.600    95457402.173 8
  23706786.273         591.725          50.100    94243974.044 8  23706788.668
       584.203          51.200
 119399814.799 8                  22721030.898
                      -836.266                          49.100
  89162192.695 8  22721031.785        -624.348          48.200    91488155.901 8
  22721029.695        -640.632          48.900    90325186.095 8  22721032.820
      -632.494          50.000
 129441413.407 8                  24631881.445
                     -1621.016                          49.800
  96660798.517 7  24631882.090       -1210.449          47.400    99182377.010 8
  24631879.852       -1242.020          48.700    97921595.560 8  24631882.836
     -1226.234          49.700
 134399951.216 7                  25575457.172
                      1693.164                          44.700
 100363605.841 7  25575460.504        1264.511          42.600   102981786.226 7
  25575458.316        1297.505          44.400   101672712.325 7  25575461.266
      1281.006          46.000
 138298944.669 7                  26317415.844
                     -2973.879                          45.100
 103275185.256 7  26317416.375       -2220.664          43.200   105969312.318 7
  26317414.906       -2278.627          45.400   104622258.086 7  26317417.453
     -2249.646          46.400
 143624405.988 7                  27330815.914
                      -827.613                          42.700
 107251995.160 6  27330817.531        -617.883          39.800   110049865.884 6
  27330815.555        -633.971          41.600   108650940.330 7  27330818.453
      -625.935          43.200
 146816405.818 6                  27938225.195
                      3041.875                          40.000
 109635590.935 6  27938227.164        2271.570          39.900   112495650.630 6
  27938224.195        2330.836          38.900   111065606.578 7  27938227.422
      2301.203          42.200
 205375973.850 7                  39081756.266
                         5.758                          42.500
 153365075.997 6  39081737.973           4.338          38.900


 201157003.665 7                  38278904.766
                         4.375                          44.700
 150214596.711 6  38278885.152           3.212          41.300


 20  6  3  7  7  0.0000000  0 32S25G14R07G29G24R06R24G15G02G12G19G10
                                R09R18R17G17R05R16G25G32R15E24E05E31
                                E09E01E26E04E13E33S23S36
 204147517.290 7                  38879701.813
                       266.117                          42.400



 123879501.468 6  96529547.51644  23573498.500
  23573502.453        2874.109        2239.681          40.700          27.300



 115434885.478 7  89782711.269 7  21564206.719    21564210.398    21564206.285
  21564209.660        1518.476        1181.022          47.600          46.900



 129264973.139 6 100726059.742 6  24598318.352    24598322.566
  24598322.941        3940.656        3070.689          37.500          38.100



 111344288.718 7  86761700.131 8  21188084.945    21188091.664
  21188091.336       -2160.609       -1683.448          47.300          48.900
  83146609.708 8  21188088.793       -1613.317          50.500


 111666980.468 7                  20926345.086                    20926344.121
                     -2439.449                          43.900



 124748958.529 7  97027006.838 6  23328686.000    23328689.566    23328685.594
  23328688.000       -2919.041       -2270.371          42.600          40.300



 136058760.792 6 106019933.930 5  25891149.781    25891155.059
  25891154.676       -3782.809       -2947.537          38.600          34.500



 131783392.657 6 102688457.98443  25077564.453
  25077568.383        2349.578        1830.988          40.000          22.600



 104874196.914 8  81720253.740 8  19956912.328    19956914.953
  19956914.680        -232.055        -180.660          50.000          50.400



 122140892.421 7  95174772.67345  23242649.500
  23242651.453       -2585.793       -2014.706          44.100          30.000



 130155874.060 6 101420220.328 6  24767852.578    24767859.105
  24767859.137       -2797.297       -2179.663          39.900          39.500
  97194338.620 6  24767854.227       -2088.833          41.100


 125119800.010 6  97315421.279 6  23430921.422    23430924.016    23430921.266
  23430923.500        3295.777        2563.372          41.300          40.500



 117433204.305 7  91336930.378 7  21999193.797    21999196.832    21999193.051
  21999197.414        3775.637        2936.603          43.900          46.100



 112509024.143 8  87507044.472 7  21024997.195    21024998.691    21024996.422
  21024999.223         488.699         380.099          48.600          47.100



 133265780.950 6 103843518.851 5  25359645.352    25359648.102
  25359648.988       -3152.898       -2456.862          37.500          34.600



 128129592.935 6  99656355.861 6  23969296.766    23969300.977    23969296.859
  23969300.852       -4563.356       -3549.275          41.000          39.400



 104411927.433 7  81209283.982 7  19546134.977    19546134.793    19546133.801
  19546135.766         668.597         520.012          44.900          46.200



 108394035.053 7  84463062.127 8  20626734.719    20626740.996
  20626740.301        1765.063        1375.645          47.700          48.500
  80943752.942 8  20626738.230        1318.341          50.300


 114527252.310 8  89242036.291 7  21793809.523    21793815.227
  21793814.922        1680.422        1309.640          48.700          47.500
  85523607.257 7  21793811.594        1255.080          47.800


 112500945.070 8  87500744.254 7  21053020.469    21053022.766    21053019.410
  21053022.906       -2523.549       -1962.766          49.300          47.000



 132855983.370 7                  25281653.445
                      2388.914                          42.100
  99210679.257 6  25281666.566        1784.033          41.900   101798778.755 7
  25281664.309        1830.606          43.300   100504740.797 7  25281667.781
      1807.320          44.800
 139948437.421 7                  26631301.664
                      1800.617                          43.200
 104506954.355 7  26631303.848        1344.725          42.700   107233215.273 7
  26631301.520        1379.820          44.100   105870095.608 7  26631304.496
      1362.281          45.600
 124556947.157 8                  23702398.445
                       764.953                          50.300
  93013307.431 8  23702400.008         571.362          48.600    95439735.109 8
  23702398.586         586.260          50.700    94226531.560 8  23702401.055
       578.816          51.700
 119425116.959 8                  22725845.641
                      -850.480                          48.700
  89181087.155 8  22725846.688        -634.937          48.300    91507543.257 8
  22725844.559        -651.489          49.300    90344326.998 8  22725847.656
      -643.207          50.300
 129490115.437 8                  24641149.211
                     -1625.777                          50.500
  96697166.895 8  24641149.563       -1213.993          48.200    99219694.137 8
  24641147.598       -1245.660          49.000    97958438.315 8  24641150.563
     -1229.834          50.400
 134349333.990 7                  25565824.727
                      1681.328                          44.600
 100325807.316 7  25565828.281        1255.647          43.200   102943001.660 7
  25565826.266        1288.424          44.800   101634420.773 7  25565829.270
      1272.044          46.400
 138388233.875 7                  26334407.063
                     -2978.777                          45.600
 103341862.206 7  26334407.438       -2224.309          44.300   106037728.666 7
  26334405.715       -2282.365          44.700   104689804.740 7  26334408.652
     -2253.342          46.400
 143649453.681 7                  27335582.047
                      -842.219                          42.200
 107270699.593 6  27335584.156        -628.761          39.600   110069058.268 7
  27335582.223        -645.140          42.600   108669888.716 7  27335584.828
      -636.932          43.100
 146725160.428 6                  27920861.602
                      3040.965                          40.100
 109567453.164 6  27920862.414        2270.912          37.000   112425735.378 6
  27920861.160        2330.196          40.500   110996580.063 6  27920864.176
      2300.553          41.200
 205375800.832 6                  39081723.938
                         5.684                          41.700
 153364946.943 6  39081704.797           4.254          38.900


 201156871.057 7                  38278880.125
                         4.332                          45.300
 150214500.001 6  38278860.406           3.069          41.400


 20  6  3  7  7 30.0000000  0 32S25G14R07G29G24R06R24G15G02G12G19G10
                                R09R18R17G17R05R16G25G32R15E24E05E31
                                E09E01E26E04E13E33S23S36
 204139502.360 7                  38879534.438
                       267.840                          43.100



 123793423.499 6  96462473.78544  23557118.195
  23557121.801        2864.387        2232.126          41.700          26.900



 115389727.127 8  89747588.097 7  21555770.727    21555773.793    21555770.270
  21555773.348        1492.880        1161.139          48.100          46.900



 129146770.021 6 100633953.460 6  24575825.156    24575829.320
  24575829.090        3939.395        3069.715          39.400          36.600



 111409271.147 7  86812335.759 8  21200451.453    21200457.230
  21200457.035       -2171.629       -1691.999          47.400          49.100
  83195135.502 8  21200454.719       -1621.488          50.600


 111740505.495 7                  20940123.664                    20940122.285
                     -2461.505                          43.700



 124836821.441 6  97095344.645 6  23345116.648    23345119.254    23345115.023
  23345119.684       -2937.889       -2285.033          41.800          37.500



 136172197.469 6 106108326.158 5  25912736.484    25912742.000
  25912741.039       -3779.887       -2945.358          40.100          33.100



 131712990.042 6 102633598.90343  25064167.500
  25064170.793        2343.820        1826.401          39.600          22.600



 104881402.723 8  81725868.647 8  19958283.602    19958286.152
  19958286.031        -248.336        -193.265          49.500          50.800



 122218703.376 7  95235404.56244  23257457.008
  23257458.309       -2601.676       -2027.032          44.100          28.200



 130239884.064 6 101485682.639 6  24783839.656    24783844.980
  24783846.039       -2803.465       -2184.403          40.800          38.900
  97257073.317 6  24783840.973       -2093.360          40.900


 125020962.924 6  97238547.946 6  23412413.625    23412415.434    23412412.520
  23412415.250        3293.385        2561.532          41.700          40.900



 117320141.707 7  91248992.780 7  21978013.289    21978015.957    21978012.645
  21978016.855        3762.208        2926.187          45.000          45.200



 112494794.995 8  87495977.372 7  21022338.078    21022339.738    21022337.359
  21022340.172         460.808         358.404          49.100          46.900



 133360471.988 6 103917304.002 5  25377664.859    25377668.215
  25377668.098       -3159.859       -2462.019          37.500          32.900



 128266484.265 6  99762826.827 6  23994905.727    23994909.672    23994905.344
  23994909.273       -4562.744       -3548.823          41.700          38.700



 104392065.342 7  81193835.689 7  19542416.297    19542416.063    19542415.469
  19542417.473         655.911         510.154          45.100          46.100



 108341290.174 7  84421962.245 8  20616697.141    20616703.773
  20616703.203        1751.074        1364.660          47.000          48.600
  80904365.571 8  20616701.180        1307.795          50.600


 114477098.606 7  89202955.508 7  21784266.047    21784271.160
  21784270.984        1663.008        1296.138          47.000          47.100
  85486154.825 8  21784267.563        1242.128          48.100


 112576763.545 8  87559714.148 7  21067209.234    21067211.453    21067208.020
  21067211.359       -2530.846       -1968.441          48.800          47.200



 132784357.635 7                  25268024.094
                      2385.820                          43.800
  99157192.497 7  25268036.660        1781.816          42.300   101743896.706 7
  25268035.027        1828.281          43.900   100450556.397 7  25268037.742
      1805.039          45.600
 139894586.122 7                  26621054.078
                      1789.262                          43.000
 104466740.722 7  26621055.984        1336.399          42.700   107191952.591 7
  26621053.977        1371.273          43.900   105829357.456 7  26621056.926
      1353.839          45.200
 124534102.414 8                  23698051.367
                       757.883                          50.900
  92996248.045 8  23698052.707         566.085          49.000    95422230.704 8
  23698051.324         580.836          50.300    94209249.669 8  23698053.859
       573.458          51.300
 119450842.560 8                  22730741.047
                      -864.664                          49.100
  89200297.836 7  22730742.309        -645.469          47.400    91527255.087 8
  22730740.277        -662.303          48.900    90363788.260 8  22730743.082
      -653.885          49.900
 129538958.239 8                  24650443.531
                     -1630.535                          50.200
  96733640.408 7  24650444.078       -1217.485          47.800    99257119.127 8
  24650442.160       -1249.248          48.900    97995387.563 8  24650445.074
     -1233.364          50.200
 134299071.888 7                  25556260.328
                      1669.332                          44.100
 100288273.962 7  25556264.039        1246.804          43.400   102904489.187 7
  25556261.414        1279.335          43.900   101596397.869 7  25556264.598
      1263.068          45.300
 138477667.559 7                  26351425.805
                     -2983.699                          45.700
 103408647.066 7  26351426.113       -2227.893          43.300   106106255.751 7
  26351424.836       -2286.020          45.100   104757460.711 7  26351427.422
     -2256.970          46.400
 143674936.765 7                  27340431.633
                      -856.699                          42.300
 107289729.112 6  27340433.301        -639.569          40.000   110088584.240 6
  27340431.535        -656.257          41.500   108689166.480 7  27340434.246
      -647.913          43.000
 146633939.632 6                  27903502.742
                      3040.137                          40.100
 109499333.789 6  27903504.656        2270.335          39.100   112355838.939 6
  27903502.492        2329.573          40.000   110927572.170 7  27903505.371
      2299.929          42.100
 205375628.230 7                  39081690.453
                         5.625                          42.300
 153364818.197 6  39081671.676           4.280          38.800


 201156740.891 7                  38278854.797
                         4.227                          44.200
 150214401.518 6  38278835.809           3.423          41.200


 20  6  3  7  8  0.0000000  0 32S25G14R07G29G24R06R24G15G02G12G19G10
                                R09R18R17G17R05R16G25G32R15E24E05E31
                                E09E01E26E04E13E33S23S36
 204131462.244 6                  38879364.297
                       268.070                          41.900



 123707638.982 6  96395628.71944  23540794.727
  23540797.617        2854.574        2224.491          41.500          26.400



 115345339.835 7  89713064.639 7  21547479.039    21547482.082    21547478.297
  21547481.246        1467.140        1141.100          47.600          46.800



 129028605.901 6 100541877.546 6  24553339.406    24553344.738
  24553344.621        3938.121        3068.665          40.600          38.300



 111474583.670 7  86863228.604 8  21212879.875    21212885.684
  21212885.609       -2182.539       -1700.553          46.600          49.500
  83243907.819 8  21212883.102       -1629.705          50.700


 111814693.718 7                  20954027.078                    20954025.609
                     -2483.554                          43.800



 124925248.875 7  97164121.532 6  23361653.688    23361656.227    23361653.395
  23361655.730       -2956.615       -2299.597          42.000          39.200



 136285548.131 5 106196651.277 5  25934306.469    25934311.734
  25934311.652       -3776.766       -2943.085          35.500          34.200



 131642768.089 6 102578880.55743  25050804.781
  25050808.156        2337.734        1821.658          40.000          21.800



 104889094.164 8  81731861.983 8  19959747.430    19959749.715
  19959749.625        -264.445        -205.864          48.900          50.700



 122296987.830 7  95296405.42044  23272353.906
  23272356.168       -2617.348       -2039.273          43.700          29.500



 130324075.101 6 101551286.015 6  24799860.125    24799866.422
  24799866.902       -2809.328       -2189.018          39.000          40.000
  97319943.242 6  24799862.488       -2097.803          41.300


 124922198.123 7  97161730.946 6  23393917.609    23393919.613    23393917.242
  23393918.738        3290.969        2559.668          42.000          40.400



 117207484.910 7  91161370.888 7  21956908.969    21956913.586    21956908.094
  21956912.754        3748.634        2915.608          45.200          46.300



 112481403.656 8  87485561.884 7  21019835.664    21019837.324    21019835.023
  21019837.699         432.858         336.675          49.500          47.600



 133455363.684 6 103991245.566 5  25395721.289    25395725.637
  25395725.125       -3166.309       -2467.189          36.200          34.900



 128403355.692 6  99869282.381 6  24020509.703    24020512.996    24020510.180
  24020513.680       -4562.018       -3548.248          41.400          38.400



 104372585.143 7  81178684.431 7  19538769.852    19538769.820    19538768.789
  19538770.602         643.156         500.233          45.100          46.000



 108288969.169 8  84381192.651 8  20606741.016    20606747.480
  20606746.938        1737.082        1353.676          48.100          48.800
  80865294.709 8  20606744.918        1297.275          50.500


 114427466.493 8  89164281.140 7  21774821.266    21774826.371
  21774826.113        1645.754        1282.599          48.600          47.500
  85449091.897 7  21774823.027        1229.141          47.800


 112652800.094 8  87618853.658 7  21081438.023    21081439.801    21081437.094
  21081440.273       -2538.031       -1974.032          49.500          46.400



 132712823.288 7                  25254410.930
                      2383.016                          43.300
  99103774.013 7  25254425.574        1779.518          44.000   101689084.728 7
  25254423.012        1825.948          44.200   100396441.168 7  25254425.613
      1802.726          46.200
 139841071.385 7                  26610870.203
                      1778.195                          43.400
 104426778.420 7  26610872.523        1328.039          42.600   107150947.808 7
  26610870.605        1362.662          44.000   105788873.901 7  26610873.406
      1345.362          46.000
 124511470.422 8                  23693744.695
                       750.828                          50.200
  92979347.535 8  23693745.945         560.805          49.000    95404889.305 8
  23693744.605         575.429          50.400    94192128.714 8  23693747.133
       568.117          51.300
 119476991.695 8                  22735717.367
                      -878.668                          49.000
  89219824.769 7  22735718.500        -655.980          47.900    91547291.428 8
  22735716.367        -673.096          48.600    90383569.884 8  22735719.105
      -664.528          49.800
 129587941.848 8                  24659764.750
                     -1635.098                          49.900
  96770219.069 8  24659765.418       -1220.966          48.100    99294652.014 8
  24659763.305       -1252.823          49.400    98032443.332 8  24659766.344
     -1236.888          50.000
 134249167.064 7                  25546763.703
                      1657.609                          44.100
 100251007.460 7  25546767.363        1237.915          43.100   102866250.474 7
  25546764.793        1270.197          43.900   101558645.254 7  25546767.762
      1254.055          45.800
 138567244.578 7                  26368471.883
                     -2988.297                          45.600
 103475538.979 7  26368472.371       -2231.437          43.700   106174892.637 7
  26368470.691       -2289.647          45.500   104825225.107 7  26368473.211
     -2260.547          46.800
 143700855.137 7                  27345363.898
                      -871.164                          42.100
 107309083.737 6  27345365.164        -650.365          39.300   110108443.778 6
  27345363.281        -667.352          41.500   108708773.543 7  27345366.367
      -658.866          42.700
 146542746.250 6                  27886148.578
                      3039.270                          40.100
 109431234.867 6  27886150.945        2269.636          39.000   112285963.572 6
  27886148.926        2328.831          40.200   110858585.004 7  27886152.023
      2299.230          42.000
 205375456.274 6                  39081657.797
                         5.762                          41.400
 153364689.802 6  39081638.961           4.303          38.600


 201156611.442 7                  38278830.656
                         4.250                          45.900
 150214308.452 6  38278811.199           3.350          41.300


 20  6  3  7  8 30.0000000  0 32S25G14R07G29G24R06R24G15G02G12G19G10
                                R09R18R17G17R05R16G25G32R15E24E05E31
                                E09E01E26E04E13E33S23S36
 204123419.659 6                  38879191.156
                       268.527                          41.600



 123622150.242 6  96329014.13444  23524526.914
  23524529.328        2844.582        2216.708          41.900          29.100



 115301724.945 7  89679141.953 7  21539331.922    21539334.551    21539330.699
  21539333.625        1441.327        1121.031          47.300          46.300



 128910483.452 6 100449834.098 5  24530861.094    24530864.785
  24530863.867        3936.570        3067.557          40.100          34.700



 111540224.464 7  86914377.245 8  21225370.758    21225376.918
  21225376.648       -2193.633       -1709.110          47.500          49.400
  83292925.267 8  21225374.262       -1637.898          50.500


 111889541.109 7                  20968052.406                    20968051.500
                     -2505.511                          43.700



 125014236.520 6  97233334.129 6  23378294.320    23378296.969    23378293.367
  23378297.090       -2975.333       -2314.170          40.800          40.100



 136398811.045 6 106284908.000 5  25955859.094    25955863.918
  25955865.070       -3774.145       -2940.767          40.000          34.100



 131572728.902 6 102524304.65643  25037477.148
  25037480.270        2331.344        1816.862          38.400          22.300



 104897270.063 8  81738232.795 8  19961302.930    19961305.652
  19961305.469        -280.754        -218.469          48.400          51.200



 122375743.065 7  95357773.09344  23287339.695
  23287342.391       -2633.059       -2051.524          44.300          29.400



 130408443.693 6 101617027.718 6  24815915.648    24815921.574
  24815922.012       -2815.402       -2193.654          39.400          40.000
  97382945.682 6  24815917.301       -2102.234          40.400


 124823505.521 6  97084970.020 6  23375435.719    23375438.047    23375435.105
  23375437.352        3288.526        2557.755          41.400          41.300



 117095238.035 7  91074067.795 7  21935880.820    21935884.680    21935880.488
  21935884.793        3734.833        2904.884          44.700          46.300



 112468850.403 8  87475798.245 7  21017489.570    21017491.395    21017488.813
  21017491.750         404.889         314.923          48.900          47.100



 133550453.641 6 104065341.541 5  25413812.977    25413820.770
  25413820.504       -3173.203       -2472.386          37.300          35.100



 128540202.799 6  99975718.992 6  24046110.039    24046114.254    24046110.078
  24046113.891       -4561.187       -3547.576          40.800          40.000



 104353486.440 7  81163829.876 7  19535194.391    19535194.039    19535193.621
  19535195.246         630.436         490.335          45.000          46.000



 108237072.110 7  84340753.389 8  20596865.320    20596871.875
  20596871.012        1722.824        1342.637          46.700          48.200
  80826540.424 8  20596869.242        1286.682          50.500


 114378357.371 7  89126014.296 7  21765476.031    21765481.609
  21765480.813        1628.152        1268.953          47.300          47.500
  85412419.504 7  21765477.801        1216.068          47.800


 112729053.232 8  87678161.601 7  21095707.031    21095709.512    21095706.801
  21095710.266       -2545.310       -1979.677          49.200          46.300



 132641380.022 7                  25240816.555
                      2379.809                          43.500
  99050423.595 6  25240828.914        1777.231          41.600   101634342.495 7
  25240826.453        1823.579          43.400   100342394.839 7  25240829.895
      1800.398          45.000
 139787894.160 7                  26600750.922
                      1766.797                          43.400
 104387068.187 7  26600753.098        1319.575          42.600   107110201.647 7
  26600751.352        1353.991          44.800   105748645.709 7  26600754.047
      1336.787          46.000
 124489050.530 8                  23689478.406
                       743.668                          51.200
  92962605.409 8  23689479.578         555.479          49.300    95387710.422 8
  23689478.234         569.978          50.300    94175168.208 8  23689480.773
       562.739          51.600
 119503563.268 8                  22740773.508
                      -892.867                          48.800
  89239667.175 8  22740774.785        -666.534          48.100    91567651.459 8
  22740772.469        -683.916          49.200    90403671.108 8  22740775.520
      -675.221          49.800
 129637065.171 8                  24669112.656
                     -1639.891                          49.900
  96806902.058 8  24669113.301       -1224.485          48.300    99332291.946 8
  24669111.410       -1256.413          49.400    98069604.793 8  24669114.215
     -1240.439          50.500
 134199620.710 7                  25537335.500
                      1645.418                          44.100
 100214008.580 7  25537338.898        1228.941          42.700   102828286.413 7
  25537336.348        1261.002          43.700   101521163.792 7  25537339.461
      1244.972          45.600
 138656962.698 7                  26385544.688
                     -2993.098                          44.700
 103542536.217 7  26385545.324       -2234.974          43.600   106243637.667 7
  26385543.293       -2293.279          44.700   104893096.235 7  26385546.266
     -2264.113          46.500
 143727207.646 7                  27350378.328
                      -885.660                          42.800
 107328762.536 6  27350379.977        -661.232          39.800   110128635.907 6
  27350378.430        -678.451          41.800   108728709.026 7  27350381.035
      -669.838          43.000
 146451581.848 6                  27868801.109
                      3038.082                          40.600
 109363157.574 6  27868803.297        2268.848          40.100   112216110.307 6
  27868801.035        2328.036          41.000   110789619.733 7  27868803.699
      2298.434          42.400
 205375284.350 7                  39081625.750
                         5.633                          42.900
 153364561.317 6  39081606.000           4.245          38.600


 201156482.358 7                  38278805.750
                         4.293                          45.500
 150214205.717 6  38278786.375           3.388          41.400


 20  6  3  7  9  0.0000000  0 32S25G14R07G29G24R06R24G15G02G12G19G10
                                R09R18R17G17R05R16G25G32R15E24E05E31
                                E09E01E26E04E13E33S23S36
 204115357.184 6                  38879007.344
                       268.938                          41.700



 123536959.597 6  96262631.82244  23508315.906
  23508318.473        2834.699        2208.928          41.600          27.800



 115258884.447 7  89645821.577 7  21531328.453    21531331.281    21531327.855
  21531330.762        1415.500        1100.923          47.600          45.900



 128792405.343 6 100357825.203 6  24508391.461    24508397.129
  24508396.809        3935.156        3066.334          39.600          38.600



 111606192.702 7  86965781.017 8  21237923.977    21237930.262
  21237930.191       -2204.422       -1717.628          47.900          49.600
  83342187.198 8  21237927.543       -1646.060          50.400


 111965044.170 7                  20982201.938                    20982201.066
                     -2527.341                          43.600



 125103780.993 6  97302979.734 6  23395039.180    23395041.137    23395037.141
  23395042.430       -2993.778       -2328.500          38.800          39.900



 136511983.803 6 106373094.387 5  25977395.930    25977400.902
  25977400.699       -3771.039       -2938.421          36.400          35.600



 131502875.338 6 102469873.40143  25024184.414
  25024187.262        2325.281        1811.991          38.200          21.500



 104905929.249 8  81744980.223 8  19962950.617    19962953.441
  19962953.109        -296.648        -231.002          49.700          50.600



 122454966.435 7  95419505.54244  23302416.203
  23302417.766       -2648.477       -2063.646          44.000          28.700



 130492986.466 6 101682905.185 6  24832003.266    24832008.422
  24832009.574       -2820.895       -2198.074          39.900          39.200
  97446078.301 6  24832005.172       -2106.507          40.600


 124724886.070 6  97008266.066 6  23356967.672    23356967.449    23356966.895
  23356968.508        3286.099        2555.848          41.600          39.400



 116983405.693 7  90987087.107 7  21914931.422    21914934.043    21914930.398
  21914934.688        3720.989        2894.111          45.200          45.000



 112457136.168 8  87466687.173 7  21015300.508    21015302.629    21015299.645
  21015302.723         376.920         293.161          48.500          47.200



 133645739.131 6 104139589.992 5  25431948.914    25431951.852
  25431952.426       -3179.410       -2477.420          38.300          33.600



 128677021.883 6 100082133.766 6  24071704.719    24071708.949    24071704.633
  24071708.969       -4560.199       -3546.823          40.100          39.500



 104334769.361 7  81149272.146 7  19531690.477    19531690.395    19531690.074
  19531691.410         617.671         480.420          45.400          45.400



 108185599.650 7  84300644.993 8  20587070.422    20587076.742
  20587076.355        1708.699        1331.578          47.900          48.600
  80788103.202 8  20587074.379        1276.100          50.400


 114329773.149 8  89088156.472 7  21756230.625    21756235.969
  21756235.578        1610.816        1255.308          48.800          47.500
  85376139.084 7  21756232.508        1202.995          47.800


 112805522.184 8  87737637.433 7  21110017.859    21110019.387    21110016.977
  21110020.590       -2552.449       -1985.242          49.600          46.400



 132570028.147 7                  25227238.188
                      2376.914                          42.700
  98997141.340 6  25227250.988        1774.933          41.800   101579670.268 7
  25227249.484        1821.239          43.700   100288417.608 7  25227252.141
      1798.082          45.100
 139735055.934 7                  26590696.109
                      1755.766                          43.600
 104347611.070 7  26590698.469        1311.131          42.700   107069715.236 7
  26590696.461        1345.320          43.600   105708673.955 7  26590699.324
      1328.205          45.700
 124466842.617 8                  23685252.430
                       736.766                          50.600
  92946021.578 8  23685253.563         550.213          49.500    95370693.977 8
  23685252.164         564.560          50.500    94158368.070 8  23685254.750
       557.390          52.000
 119530556.779 8                  22745910.008
                      -906.754                          49.000
  89259824.656 8  22745911.367        -677.016          48.000    91588334.790 8
  22745909.031        -694.682          48.800    90424091.518 8  22745912.199
      -685.850          49.900
 129686327.715 8                  24678486.945
                     -1644.453                          49.800
  96843688.984 8  24678487.664       -1227.929          48.000    99370038.542 8
  24678485.809       -1259.969          49.300    98106871.556 8  24678488.582
     -1243.954          50.900
 134150434.363 7                  25527975.219
                      1633.512                          44.900
 100177278.575 7  25527979.066        1219.947          43.600   102790598.212 7
  25527976.336        1251.784          43.400   101483954.690 7  25527979.543
      1235.860          46.000
 138746820.267 7                  26402643.820
                     -2997.516                          45.300
 103609637.620 7  26402644.566       -2238.403          43.500   106312489.518 7
  26402643.004       -2296.811          45.300   104961072.853 7  26402645.453
     -2267.601          46.400
 143753993.597 6                  27355475.773
                      -899.961                          41.900
 107348765.009 6  27355476.945        -672.016          39.100   110149160.198 6
  27355475.680        -689.535          41.700   108748972.399 7  27355478.203
      -680.768          43.200
 146360448.506 6                  27851459.414
                      3037.297                          40.200
 109295103.540 6  27851459.109        2268.054          37.100   112146280.997 6
  27851458.668        2327.216          40.200   110720678.049 6  27851461.836
      2297.644          41.400
 205375112.972 7                  39081592.750
                         5.621                          42.200
 153364433.082 6  39081573.305           4.242          38.300


 201156347.069 7                  38278780.906
                         4.387                          45.900
 150214110.729 6  38278761.578           3.176          41.900


 20  6  3  7  9 30.0000000  0 33S25G14R07G29G24R06R24G15G02G12G19G10
                                R09R18R17G17R05R16G25G06G32R15E24E05
                                E31E09E01E26E04E13E33S23S36
 204107283.926 6                  38878831.391
                       269.305                          41.900



 123452069.401 6  96196483.62744  23492161.047
  23492164.168        2824.563        2201.155          41.700          28.500



 115216820.739 7  89613105.352 7  21523470.266    21523473.125    21523470.309
  21523472.957        1389.552        1080.757          47.600          46.800



 128674373.893 6 100265852.631 6  24485930.781    24485935.387
  24485934.621        3933.445        3065.138          40.300          36.800



 111672487.634 7  87017439.335 8  21250539.344    21250545.973
  21250545.801       -2215.340       -1726.028          47.300          49.200
  83391693.076 8  21250543.133       -1654.112          50.300


 112041199.391 7                  20996473.930                    20996472.805
                     -2548.956                          43.900



 125193878.340 6  97373055.430 6  23411889.508    23411891.387    23411887.098
  23411891.602       -3012.066       -2342.719          39.300          41.100



 136625064.429 6 106461209.366 5  25998913.891    25998919.316
  25998919.617       -3767.941       -2935.989          37.700          32.800



 131433210.174 6 102415588.92743  25010926.992
  25010930.297        2319.055        1807.066          37.700          19.600



 104915071.041 8  81752103.702 8  19964690.727    19964693.086
  19964692.676        -312.773        -243.492          49.600          50.300



 122534655.191 7  95481600.64844  23317580.656
  23317582.891       -2664.062       -2075.643          44.200          29.900



 130577700.585 6 101748916.164 6  24848124.383    24848129.672
  24848129.578       -2826.723       -2202.487          40.600          39.200
  97509338.787 6  24848125.992       -2110.693          41.500


 124626340.180 6  96931619.273 6  23338512.594    23338514.574    23338512.121
  23338514.473        3283.678        2553.971          41.200          40.600



 116871992.527 7  90900432.470 7  21894059.313    21894062.613    21894058.637
  21894063.469        3706.987        2883.206          44.500          46.200



 112446261.646 8  87458229.213 7  21013268.805    21013270.332    21013267.719
  21013270.539         348.964         271.415          49.000          46.800



 133741217.566 6 104213988.799 5  25450117.516    25450121.617
  25450121.961       -3186.000       -2482.414          38.900          35.100



 128813809.363 6 100188524.000 6  24097295.000    24097297.547    24097293.422
  24097297.688       -4559.034       -3545.937          41.100          38.600



 104316434.230 7  81135011.488 7  19528258.563    19528257.277    19528257.289
  19528258.957         605.029         470.578          45.600          45.900



 108134552.218 7  84260867.774 8  20577356.367    20577362.887
  20577362.145        1694.488        1320.571          47.400          48.000
  80749983.385 8  20577360.277        1265.546          50.500


 129594496.886 4 100982686.60942  24660993.500
  24661002.488        1787.645        1393.402          29.400          14.800



 114281715.752 8  89050709.158 7  21747085.914    21747091.008
  21747090.660        1593.121        1241.604          48.000          47.400
  85340252.065 7  21747087.535        1189.885          47.500


 112882206.164 8  87797280.498 7  21124367.953    21124370.863    21124367.504
  21124370.688       -2559.564       -1990.781          49.300          45.800



 132498767.737 7                  25213678.469
                      2373.660                          44.000
  98943927.407 6  25213691.449        1772.720          41.900   101525068.205 7
  25213689.262        1818.963          44.400   100234509.596 7  25213692.086
      1795.836          45.900
 139682558.121 7                  26580706.016
                      1744.238                          44.400
 104308408.191 7  26580708.273        1302.656          42.900   107029489.641 7
  26580706.520        1336.646          44.500   105668959.707 7  26580709.285
      1319.658          45.900
 124444846.545 8                  23681066.648
                       729.535                          50.700
  92929595.926 8  23681067.922         544.989          49.300    95353839.828 8
  23681066.469         559.203          50.400    94141728.177 8  23681069.016
       552.086          52.000
 119557971.601 8                  22751127.258
                      -920.941                          48.700
  89280296.741 8  22751128.168        -687.446          48.000    91609340.931 8
  22751125.898        -705.382          49.400    90444830.637 8  22751129.090
      -696.419          50.200
 129735728.828 8                  24687887.781
                     -1649.074                          50.400
  96880579.406 8  24687888.371       -1231.322          48.600    99407891.328 8
  24687886.453       -1263.461          49.400    98144243.161 8  24687889.309
     -1247.391          50.900
 134101609.525 7                  25518684.305
                      1621.379                          44.800
 100140818.493 7  25518687.840        1210.999          42.800   102753187.001 7
  25518685.551        1242.589          43.900   101447019.050 7  25518688.375
      1226.783          46.000
 138836815.488 7                  26419769.555
                     -3002.164                          44.900
 103676841.772 7  26419769.926       -2241.768          44.000   106381446.852 7
  26419768.746       -2300.238          44.400   105029153.619 7  26419771.133
     -2271.018          46.400
 143781212.288 7                  27360655.313
                      -914.395                          42.100
 107369090.659 6  27360656.773        -682.728          39.200   110170016.047 6
  27360654.891        -700.533          41.700   108769563.157 7  27360657.691
      -691.638          42.600
 146269348.411 6                  27834122.328
                      3036.008                          39.600
 109227074.230 6  27834125.930        2267.220          39.300   112076476.997 6
  27834122.719        2326.382          40.200   110651761.413 7  27834126.074
      2296.802          42.500
 205374942.746 7                  39081560.391
                         5.535                          42.700
 153364305.976 6  39081540.832           4.237          38.800


 201156224.141 7                  38278756.719
                         4.039                          45.600
 150214015.123 6  38278737.484           3.343          41.400


 20  6  3  7 10  0.0000000  0 32S25G14R07G29G24R06R24G15G02G12G19G10
                                R09R18R17G17R05R16G25G32R15E24E05E31
                                E09E01E26E04E13E33S23S36
 204099187.650 7                  38878645.469
                       270.184                          42.100



 123367482.042 6  96130571.42344  23476063.648
  23476068.102        2814.496        2193.223          40.900          27.500



 115175534.945 8  89580994.187 7  21515758.133    21515760.738    21515757.660
  21515760.254        1363.635        1060.619          48.400          46.100



 128556391.788 6 100173918.643 6  24463479.563    24463484.113
  24463484.270        3931.996        3063.814          41.100          36.900



 111739108.549 7  87069351.731 8  21263217.477    21263223.488
  21263223.367       -2226.055       -1734.493          47.300          49.300
  83441442.445 8  21263220.875       -1662.230          50.300


 112118002.852 7                  21010866.977                    21010865.891
                     -2570.566                          43.400



 125284524.987 6  97443558.299 6  23428839.539    23428841.688    23428838.672
  23428842.527       -3030.363       -2356.938          40.100          40.000



 136738051.667 6 106549251.068 5  26020414.813    26020420.523
  26020420.754       -3764.633       -2933.559          36.300          34.800



 131363736.112 6 102361453.38043  24997707.063
  24997710.227        2312.555        1802.034          37.300          19.900



 104924694.606 8  81759602.577 8  19966521.391    19966524.496
  19966524.102        -328.719        -255.994          49.100          50.800



 122614806.652 7  95544056.27744  23332833.172
  23332835.266       -2679.273       -2087.625          43.600          29.200



 130662582.684 6 101815058.075 6  24864276.141    24864282.953
  24864282.637       -2832.270       -2206.846          40.400          39.400
  97572724.760 6  24864278.383       -2114.876          41.600


 124527868.407 6  96855030.180 6  23320071.859    23320073.992    23320071.480
  23320073.445        3281.156        2552.040          41.300          40.200



 116761003.086 7  90814107.411 7  21873267.539    21873270.785    21873267.137
  21873271.117        3692.791        2872.163          44.900          45.900



 112436227.752 8  87450425.064 7  21011393.688    21011395.527    21011392.141
  21011395.621         320.894         249.577          48.400          47.800



 133836886.956 6 104288536.338 6  25468322.773    25468327.844
  25468327.148       -3192.133       -2487.318          37.600          36.200



 128950561.160 6 100294886.480 6  24122876.164    24122880.973    24122875.773
  24122880.281       -4557.752       -3544.938          41.400          38.600



 104298481.181 7  81121048.004 7  19524897.141    19524897.684    19524896.660
  19524898.152         592.265         460.648          44.700          45.800



 108083930.392 8  84221422.208 7  20567723.391    20567730.086
  20567729.152        1680.398        1309.506          48.000          47.900
  80712181.380 8  20567727.246        1254.952          50.500


 114234186.867 8  89013673.667 7  21738041.289    21738046.605
  21738046.238        1575.531        1227.857          48.500          47.200
  85304759.739 8  21738043.133        1176.694          48.100


 112959104.152 8  87857090.020 7  21138758.875    21138760.867    21138758.117
  21138760.949       -2566.728       -1996.341          49.500          45.900



 132427599.119 7                  25200134.195
                      2370.746                          42.300
  98890782.075 6  25200147.145        1770.406          41.400   101470536.367 7
  25200145.633        1816.567          43.500   100180671.001 7  25200148.414
      1793.495          44.900
 139630402.130 7                  26570781.328
                      1732.871                          44.200
 104269460.561 7  26570783.289        1294.111          42.700   106989525.975 7
  26570781.547        1327.878          44.100   105629504.065 7  26570784.328
      1310.994          45.600
 124423062.105 8                  23676921.273
                       722.660                          50.700
  92913328.336 8  23676922.512         539.712          48.900    95337147.872 8
  23676921.082         553.784          50.800    94125248.408 8  23676923.598
       546.739          51.700
 119585807.147 8                  22756424.102
                      -934.773                          48.800
  89301083.036 8  22756425.086        -697.931          48.000    91630669.473 8
  22756422.738        -716.146          49.500    90465888.049 8  22756425.992
      -707.034          49.800
 129785267.982 8                  24697314.703
                     -1653.559                          50.100
  96917572.922 8  24697315.570       -1234.769          48.300    99445849.888 8
  24697313.418       -1266.985          49.600    98181719.201 8  24697316.309
     -1250.880          51.300
 134053147.841 7                  25509462.414
                      1609.387                          44.700
 100104629.637 7  25509465.867        1201.909          42.600   102716054.101 7
  25509463.406        1233.255          44.500   101410358.164 7  25509466.523
      1217.586          45.400
 138926946.656 7                  26436920.648
                     -3006.660                          45.400
 103744147.484 7  26436921.887       -2245.156          42.500   106450508.363 7
  26436920.027       -2303.724          45.000   105097337.216 7  26436922.488
     -2274.429          46.000
 143808863.042 7                  27365916.930
                      -928.762                          42.200
 107389738.919 6  27365918.641        -693.477          38.900   110191202.964 6
  27365916.457        -711.566          41.500   108790480.731 7  27365919.422
      -702.515          43.100
 146178283.599 6                  27816794.641
                      3034.820                          40.500
 109159071.314 6  27816796.000        2266.311          39.300   112006700.074 6
  27816793.203        2325.437          40.200   110582871.491 7  27816796.895
      2295.880          42.600
 205374772.859 7                  39081528.609
                         5.695                          42.600
 153364179.160 6  39081508.328           4.254          38.500


 201156093.444 7                  38278732.203
                         4.402                          45.300
 150213919.249 6  38278712.559           3.039          41.300


 20  6  3  7 10 30.0000000  0 32S25G14R07G29G24R06R24G15G02G12G19G10
                                R09R18R17G17R05R16G25G32R15E24E05E31
                                E09E01E26E04E13E33S23S36
 204091081.542 6                  38878459.375
                       270.215                          41.400



 123283199.940 6  96064897.08344  23460025.805
  23460029.484        2804.461        2185.306          41.300          26.400



 115135029.590 7  89549490.007 7  21508190.258    21508194.660    21508190.711
  21508193.422        1337.573        1040.341          47.800          45.700



 128438461.956 6 100082025.275 6  24441038.039    24441043.227
  24441043.293        3930.176        3062.423          39.600          36.900



 111806054.096 7  87121517.066 8  21275956.734    21275962.848
  21275962.750       -2236.852       -1742.894          47.200          49.300
  83491434.223 8  21275960.090       -1670.284          50.300


 112195451.430 7                  21025381.484                    21025379.730
                     -2592.006                          44.300



 125375717.059 6  97514485.430 7  23445894.164    23445894.988    23445892.445
  23445896.074       -3048.468       -2371.039          41.400          42.700



 136850943.592 6 106637218.755 5  26041898.055    26041901.668
  26041902.781       -3761.320       -2931.019          39.300          31.700



 131294455.416 6 102307468.48543  24984523.398
  24984525.941        2306.137        1797.049          39.000          21.100



 104934798.982 8  81767476.112 8  19968444.430    19968447.180
  19968446.934        -344.711        -268.458          48.500          50.500



 122695417.948 7  95606870.23745  23348172.711
  23348175.016       -2694.555       -2099.556          43.700          30.400



 130747629.693 6 101881328.419 6  24880460.898    24880466.570
  24880466.598       -2837.613       -2211.039          40.500          39.500
  97636233.827 6  24880462.027       -2118.896          41.300


 124429471.638 7  96778499.325 6  23301646.117    23301647.320    23301645.328
  23301647.531        3278.693        2550.073          42.800          41.600



 116650442.232 7  90728115.666 7  21852556.172    21852558.504    21852555.160
  21852559.477        3678.413        2860.972          45.400          46.000



 112427035.065 8  87443275.202 7  21009675.453    21009677.992    21009674.695
  21009677.816         292.875         227.794          48.800          47.300



 133932744.763 5 104363230.592 5  25486560.906    25486568.555
  25486567.918       -3198.437       -2492.163          35.400          34.800



 129087273.678 6 100401218.385 6  24148451.359    24148455.355    24148451.309
  24148454.656       -4556.400       -3543.838          40.700          37.800



 104280910.621 7  81107382.015 7  19521607.805    19521607.230    19521607.254
  19521608.945         579.512         450.742          44.900          45.400



 108033734.644 7  84182308.647 8  20558171.719    20558177.723
  20558177.309        1666.176        1298.438          46.600          48.100
  80674697.541 8  20558175.410        1244.343          50.500


 114187188.563 7  88977051.608 7  21729097.875    21729102.781
  21729102.836        1557.852        1214.069          47.700          47.000
  85269663.596 7  21729099.555        1163.489          47.700


 113036215.401 8  87917065.403 7  21153189.039    21153190.926    21153188.547
  21153191.434       -2573.774       -2001.829          49.300          45.800



 132356522.310 7                  25186609.422
                      2367.648                          43.600
  98837705.201 7  25186622.969        1768.129          42.000   101416074.953 7
  25186620.469        1814.242          43.800   100126901.873 7  25186623.531
      1791.187          45.300
 139578589.280 7                  26560922.188
                      1721.352                          44.700
 104230769.146 7  26560923.801        1285.574          42.900   106949825.229 7
  26560921.938        1319.120          44.200   105590307.985 7  26560924.703
      1302.340          46.100
 124401489.169 8                  23672815.984
                       715.609                          50.800
  92897218.681 8  23672817.316         534.453          49.200    95320617.957 8
  23672815.934         548.395          51.400    94108928.617 8  23672818.402
       541.424          52.100
 119614062.768 8                  22761800.742
                      -948.770                          48.600
  89322183.000 8  22761801.891        -708.371          48.200    91652319.871 8
  22761799.695        -726.862          48.800    90487263.229 8  22761802.859
      -717.616          51.000
 129834944.523 8                  24706767.867
                     -1658.141                          50.000
  96954669.026 8  24706768.723       -1238.184          48.100    99483913.715 8
  24706766.492       -1270.477          49.300    98219299.172 8  24706769.449
     -1254.340          50.400
 134005050.793 7                  25500309.953
                      1597.188                          45.400
 100068713.044 7  25500313.363        1192.837          42.600   102679200.532 7
  25500310.754        1223.941          44.000   101373973.080 7  25500313.805
      1208.390          45.400
 139017211.944 7                  26454097.719
                     -3011.000                          45.500
 103811553.349 7  26454098.676       -2248.462          43.900   106519672.632 7
  26454096.648       -2307.119          44.900   105165622.273 7  26454099.414
     -2277.787          46.700
 143836945.000 6                  27371261.031
                      -943.187                          41.600
 107410709.166 6  27371262.488        -704.160          39.400   110212720.301 6
  27371260.422        -722.576          40.900   108811724.534 7  27371263.262
      -713.376          42.700
 146087256.000 6                  27799472.219
                      3033.754                          39.800
 109091096.262 6  27799474.316        2265.384          39.600   111936951.720 7
  27799473.246        2324.484          42.800   110514009.789 7  27799474.699
      2294.921          43.900
 205374603.502 7                  39081496.797
                         5.637                          43.400
 153364052.758 6  39081475.902           4.172          38.000


 201155962.123 7                  38278707.125
                         4.258                          45.800
 150213823.326 6  38278687.961           3.167          41.900


 20  6  3  7 11  0.0000000  0 33S25G14R07G29G24R06R24G15G02G12G19G10
                                R09R18R17G17R05R16G25G06G32R15E24E05
                                E31E09E01E26E04E13E33S23S36
 204082964.888 6                  38878268.359
                       271.090                          41.100



 123199225.622 6  95999462.57244  23444045.852
  23444049.824        2793.914        2177.264          41.400          25.800



 115095306.379 7  89518594.199 7  21500770.969    21500773.230    21500770.105
  21500772.691        1311.503        1020.064          47.900          45.700



 128320586.676 6  99990174.412 6  24418607.258    24418611.570
  24418610.719        3928.129        3060.976          40.200          36.200



 111873323.576 7  87173934.803 8  21288757.648    21288763.785
  21288763.758       -2247.746       -1751.324          47.000          49.400
  83541667.880 8  21288761.105       -1678.353          50.400


 112273540.773 7                  21040014.930                    21040013.594
                     -2613.258                          43.400



 125467450.896 6  97585833.943 6  23463047.719    23463049.832    23463046.641
  23463050.926       -3066.456       -2385.020          41.200          41.600



 136963737.977 6 106725110.434 5  26063362.102    26063367.324
  26063367.645       -3758.332       -2928.473          39.100          35.400



 131225370.712 6 102253636.30043  24971377.305
  24971379.563        2299.551        1791.951          38.800          20.400



 104945382.520 8  81775723.024 8  19970458.375    19970461.109
  19970460.934        -360.789        -280.897          49.100          50.700



 122776486.619 7  95670040.59244  23363599.891
  23363602.051       -2709.875       -2111.373          43.700          29.800



 130832838.126 6 101947724.571 6  24896674.102    24896680.781
  24896681.660       -2843.090       -2215.207          39.400          38.800
  97699863.470 6  24896676.504       -2122.882          41.000


 124331149.720 7  96702026.804 6  23283232.813    23283234.621    23283232.707
  23283234.527        3276.198        2548.151          42.300          41.200



 116540313.992 7  90642460.428 7  21831924.391    21831928.336    21831924.305
  21831928.738        3663.951        2849.734          45.700          46.200



 112418683.851 8  87436779.801 8  21008115.086    21008118.172    21008114.137
  21008117.141         264.837         205.990          48.800          48.200



 134028788.269 6 104438069.677 5  25504840.055    25504843.918
  25504844.301       -3204.586       -2496.933          38.900          32.700



 129223942.729 6 100507516.519 6  24174018.430    24174020.969    24174017.574
  24174021.965       -4554.888       -3542.677          38.600          36.900



 104263722.333 7  81094013.336 7  19518390.070    19518390.535    19518389.559
  19518391.391         566.803         440.873          45.400          46.100



 107983965.211 7  84143527.263 8  20548700.664    20548707.074
  20548706.414        1651.840        1287.369          47.700          48.100
  80637532.057 8  20548704.414        1233.725          50.800


 129435463.611 5                  24630734.734
                      1745.824                          31.900
  96656292.645 5  24630737.906        1303.854          32.700


 114140722.176 8  88940844.045 7  21720255.828    21720261.188
  21720260.535        1539.977        1200.229          49.300          47.500
  85234964.690 7  21720257.293        1150.221          47.900


 113113538.655 8  87977205.701 7  21167658.773    21167660.719    21167658.586
  21167661.402       -2580.846       -2007.332          49.400          45.700



 132285537.274 7                  25173101.313
                      2364.543                          44.000
  98784696.929 7  25173114.574        1765.863          42.300   101361683.867 7
  25173112.059        1811.904          43.700   100073202.191 7  25173115.426
      1788.884          45.500
 139527120.661 7                  26551128.367
                      1709.844                          44.200
 104192334.805 7  26551129.680        1276.990          42.900   106910388.264 7
  26551127.672        1310.290          44.900   105551372.319 7  26551130.520
      1293.651          46.500
 124380127.240 8                  23668750.734
                       708.469                          50.100
  92881266.594 8  23668752.262         529.198          49.800    95304249.731 8
  23668750.828         543.005          51.500    94092768.456 8  23668753.371
       536.103          52.800
 119642737.516 8                  22767257.586
                      -962.875                          48.300
  89343595.949 8  22767258.480        -718.808          48.200    91674291.415 8
  22767256.621        -737.547          49.400    90508955.476 8  22767259.496
      -728.170          50.800
 129884757.613 8                  24716246.977
                     -1662.793                          49.600
  96991867.090 8  24716247.797       -1241.572          49.100    99522082.159 8
  24716245.836       -1273.956          49.400    98256982.417 8  24716248.574
     -1257.755          51.500
 133957319.599 7                  25491227.016
                      1584.867                          45.100
 100033069.652 7  25491230.086        1183.705          42.200   102642627.302 7
  25491228.098        1214.590          45.100   101337864.771 7  25491230.852
      1199.152          46.600
 139107609.318 7                  26471300.023
                     -3015.500                          45.300
 103879057.818 7  26471300.484       -2251.715          43.100   106588938.131 7
  26471299.074       -2310.451          44.900   105234007.270 7  26471301.664
     -2281.075          46.700
 143865457.147 6                  27376686.328
                      -957.566                          41.500
 107432000.673 6  27376688.230        -714.884          38.700   110234567.210 6
  27376685.883        -733.528          41.400   108833293.745 7  27376688.957
      -724.217          42.000
 145996267.557 6                  27782157.508
                      3032.059                          40.400
 109023150.275 6  27782158.270        2264.386          37.300   111867233.364 6
  27782156.430        2323.450          40.000   110445177.621 7  27782160.766
      2293.908          42.100
 205374434.450 7                  39081464.188
                         5.547                          42.900
 153363926.592 6  39081443.551           4.186          37.800


 201155833.495 7                  38278683.078
                         4.219                          45.300
 150213724.550 6  38278663.352           3.002          41.400


 20  6  3  7 11 30.0000000  0 33S25G14R07G29G24R06R24G15G02G12G19G10
                                R09R18R17G17R05R16G25G06G32R15E24E05
                                E31E09E01E26E04E13E33S23S36
 204074829.986 6                  38878077.172
                       271.359                          41.600



 123115561.810 6  95934270.01744  23428125.563
  23428128.793        2783.641        2169.147          41.100          26.500



 115056367.285 7  89488308.220 7  21493496.586    21493499.379    21493495.910
  21493498.520        1285.278         999.671          47.800          45.400



 128202769.127 6  99898368.571 6  24396187.500    24396192.176
  24396192.813        3926.289        3059.430          41.700          38.100



 111940916.687 7  87226604.724 8  21301620.070    21301626.371
  21301626.340       -2258.457       -1759.752          47.500          48.900
  83592143.196 8  21301623.625       -1686.419          50.300


 112352267.724 7                  21054768.125                    21054766.789
                     -2634.489                          44.000



 125559722.883 7  97657601.029 7  23480303.172    23480306.715    23480302.738
  23480306.055       -3084.319       -2398.942          42.200          42.300



 137076433.480 5 106812924.867 4  26084808.242    26084811.980
  26084812.090       -3754.852       -2925.860          31.800          29.800



 131156485.483 6 102199959.54743  24958268.297
  24958271.676        2292.824        1786.669          38.800          20.400



 104956445.001 8  81784343.146 8  19972563.477    19972566.480
  19972566.195        -376.656        -293.362          49.300          50.900



 122858009.762 7  95733565.07445  23379113.313
  23379115.449       -2724.832       -2123.180          44.200          30.600



 130918205.529 6 102014244.591 6  24912920.375    24912926.320
  24912926.566       -2848.152       -2219.313          40.600          38.900
  97763611.852 6  24912921.500       -2126.844          40.700


 124232904.160 6  96625613.565 6  23264834.555    23264836.289    23264833.656
  23264836.848        3273.624        2546.118          41.100          41.400



 116430623.852 7  90557145.888 7  21811376.016    21811379.527    21811375.293
  21811380.059        3649.223        2838.284          45.600          46.000



 112411175.493 8  87430939.977 7  21006711.703    21006712.996    21006710.895
  21006713.855         236.699         184.092          49.100          46.700



 134125015.702 6 104513052.129 5  25523152.563    25523155.730
  25523156.055       -3210.598       -2501.678          36.500          33.300



 129360565.338 6 100613778.479 6  24199576.102    24199579.668    24199575.332
  24199580.102       -4553.327       -3541.457          39.200          38.900



 104246916.837 7  81080942.416 7  19515243.938    19515243.891    19515243.434
  19515245.246         553.999         430.881          45.000          45.500



 107934623.194 8  84105078.967 7  20539311.273    20539317.758
  20539316.949        1637.672        1276.238          48.400          47.900
  80600685.767 8  20539315.035        1223.059          50.500


 129383303.372 5 100818120.48142  24620806.969
  24620813.660        1731.691        1349.429          33.700          17.400
  96617341.764 5  24620812.465        1293.222          34.500


 114094790.206 8  88905052.915 7  21711514.930    21711520.699
  21711519.906        1522.273        1186.296          49.800          47.600
  85200664.852 8  21711516.668        1136.866          48.000


 113191073.732 8  88037510.717 7  21182168.758    21182170.375    21182168.078
  21182170.918       -2587.951       -2012.852          49.600          45.500



 132214644.726 7                  25159611.695
                      2361.633                          44.900
  98731757.771 6  25159623.055        1763.494          41.400   101307363.589 7
  25159621.953        1809.521          43.700   100019572.480 7  25159624.570
      1786.506          44.800
 139475998.268 7                  26541399.633
                      1698.395                          44.700
 104154159.013 7  26541401.262        1268.332          43.300   106871216.563 7
  26541399.523        1301.413          45.300   105512698.577 7  26541402.227
      1284.884          46.500
 124358976.747 8                  23664726.102
                       701.539                          50.200
  92865472.404 8  23664727.484         523.923          49.100    95288043.518 8
  23664726.035         537.589          51.100    94076768.255 8  23664728.566
       530.757          51.700
 119671831.340 8                  22772794.078
                      -976.672                          48.900
  89365321.851 7  22772795.238        -729.250          47.700    91696584.074 8
  22772793.105        -748.261          49.100    90530964.754 8  22772795.871
      -738.750          50.200
 129934707.247 8                  24725751.992
                     -1667.234                          49.000
  97029167.116 8  24725752.855       -1244.977          48.200    99560355.244 8
  24725750.660       -1277.463          49.400    98294768.976 8  24725753.688
     -1261.221          50.600
 133909956.375 7                  25482214.133
                      1572.742                          45.600
  99997701.057 6  25482217.250        1174.490          41.900   102606336.046 7
  25482215.086        1205.149          44.800   101302034.838 7  25482218.090
      1189.824          45.600
 139198137.616 7                  26488526.742
                     -3019.676                          44.900
 103946660.089 7  26488527.508       -2254.993          43.600   106658303.911 7
  26488525.426       -2313.808          44.800   105302491.287 7  26488528.484
     -2284.391          46.400
 143894399.258 6                  27382193.906
                      -971.852                          41.200
 107453613.281 6  27382195.438        -725.630          39.300   110256743.617 6
  27382193.613        -744.523          40.800   108855188.253 7  27382196.473
      -735.069          42.500
 145905320.885 6                  27764850.398
                      3030.813                          39.800
 108955235.581 6  27764853.445        2263.288          40.100   111797546.865 7
  27764851.254        2322.334          42.100   110376377.041 7  27764853.598
      2292.800          43.600
 205374266.331 7                  39081432.094
                         5.602                          42.600
 153363801.146 6  39081411.375           4.161          38.100


 201155701.181 7                  38278657.688
                         4.469                          44.900
 150213628.510 6  38278638.555           3.423          41.800


 20  6  3  7 12  0.0000000  0 33S25G14R07G29G24R06R24G15G02G12G19G10
                                R09R18R17G17R05R16G25G06G32R15E24E05
                                E31E09E01E26E04E13E33S23S36
 204066684.267 6                  38877885.156
                       271.457                          40.600



 123032211.048 6  95869321.39244  23412264.102
  23412267.770        2773.117        2160.993          41.100          26.000



 115018214.408 7  89458633.770 7  21486369.352    21486371.633    21486368.543
  21486371.262        1259.097         979.302          47.800          45.200



 128085011.771 7  99806609.621 6  24373779.070    24373783.309
  24373782.297        3924.191        3057.837          42.300          36.000



 112008833.121 7  87279526.579 8  21314543.945    21314550.641
  21314550.500       -2269.262       -1768.091          47.600          49.800
  83642859.986 8  21314547.879       -1694.429          50.700


 112431628.854 7                  21069640.328                    21069639.020
                     -2655.559                          43.800



 125652529.653 7  97729784.001 7  23497659.031    23497661.434    23497657.988
  23497661.379       -3102.108       -2412.754          42.300          42.400



 137189026.771 5 106900660.17814  26106233.414    26106239.664
  26106238.762       -3751.375       -2923.097          32.500          29.900



 131087802.477 6 102146440.37543  24945198.117
  24945201.465        2286.082        1781.400          39.900          21.500



 104967985.315 8  81793335.588 8  19974759.203    19974762.258
  19974762.266        -392.656        -305.739          50.300          50.700



 122939984.867 7  95797441.73845  23394712.297
  23394714.734       -2740.043       -2134.872          44.100          30.500



 131003728.875 6 102080886.141 6  24929194.586    24929199.902
  24929201.047       -2853.445       -2223.321          39.900          38.400
  97827476.648 6  24929196.297       -2130.663          41.700


 124134735.892 7  96549260.521 6  23246450.328    23246451.316    23246451.035
  23246452.367        3271.033        2544.124          42.100          40.200



 116321376.280 7  90472175.575 7  21790910.500    21790913.371    21790909.930
  21790914.098        3634.379        2826.752          45.700          45.800



 112404510.562 8  87425756.156 7  21005466.164    21005468.824    21005465.406
  21005468.430         208.573         162.220          49.200          47.200



 134221424.717 5 104588175.997 5  25541497.750    25541502.047
  25541502.273       -3216.723       -2506.396          33.100          33.200



 129497137.718 6 100720001.417 6  24225125.242    24225129.090    24225125.059
  24225128.703       -4551.587       -3540.137          39.700          37.600



 104230494.856 7  81068169.773 7  19512169.953    19512171.125    19512169.398
  19512171.078         541.213         420.934          44.700          46.300



 107885709.198 8  84066964.162 7  20530002.945    20530009.605
  20530008.945        1623.289        1265.118          48.900          47.600
  80564159.088 8  20530007.082        1212.404          51.000


 129331572.272 5 100777810.51042  24610964.414
  24610969.555        1717.215        1338.238          31.600          17.800
  96578711.464 5  24610968.168        1282.511          34.900


 114049394.511 8  88869679.652 7  21702876.797    21702881.492
  21702881.254        1504.332        1172.362          50.100          47.200
  85166765.478 8  21702878.199        1123.513          48.700


 113268819.912 8  88097979.928 7  21196717.742    21196719.762    21196717.152
  21196720.293       -2594.927       -2018.268          49.500          45.700



 132143845.098 7                  25146138.563
                      2358.363                          44.600
  98678887.868 7  25146151.910        1761.202          42.800   101253114.565 7
  25146149.184        1807.157          43.500    99966013.010 7  25146152.332
      1784.184          45.700
 139425223.617 7                  26531737.625
                      1686.676                          45.600
 104116242.868 7  26531739.395        1259.675          43.300   106832311.325 7
  26531737.477        1292.533          43.700   105474287.899 7  26531740.141
      1276.103          45.900
 124338037.678 8                  23660741.406
                       694.441                          50.800
  92849836.089 8  23660742.969         518.673          49.500    95271999.302 8
  23660741.340         532.208          50.600    94060927.994 8  23660743.984
       525.429          51.800
 119701343.707 8                  22778410.172
                      -990.672                          49.000
  89387360.294 8  22778411.242        -739.634          48.100    91719197.450 8
  22778409.301        -758.945          49.200    90553290.676 8  22778411.895
      -749.295          50.700
 129984792.989 8                  24735283.055
                     -1671.770                          49.700
  97066568.796 8  24735283.922       -1248.353          48.500    99598732.617 8
  24735281.734       -1280.918          49.200    98332658.496 8  24735284.707
     -1264.630          50.700
 133862962.766 7                  25473271.328
                      1560.402                          45.400
  99962608.461 7  25473274.625        1165.298          43.300   102570328.011 7
  25473272.559        1195.712          45.300   101266484.542 7  25473275.551
      1180.495          46.400
 139288795.269 7                  26505778.633
                     -3024.168                          45.600
 104014358.912 7  26505779.500       -2258.159          43.100   106727768.841 7
  26505777.188       -2317.079          44.700   105371073.168 7  26505780.355
     -2287.611          46.200
 143923770.736 6                  27387782.930
                      -986.223                          40.500
 107475546.498 6  27387785.180        -736.249          39.800   110279249.026 6
  27387783.254        -755.474          41.400   108877407.552 7  27387785.680
      -745.870          42.700
 145814418.236 6                  27747553.344
                      3029.293                          40.700
 108887353.795 6  27747554.328        2262.160          38.500   111727894.251 6
  27747552.219        2321.203          41.400   110307609.815 7  27747555.484
      2291.685          42.500
 205374098.602 7                  39081400.047
                         5.508                          42.400
 153363675.748 6  39081379.395           4.166          38.600


 201155574.196 7                  38278633.844
                         4.207                          45.300
 150213529.330 7  38278614.270           3.279          42.500


 20  6  3  7 12 30.0000000  0 34S25G14R07G29G24R06R24G15G02G12R08G19
                                G10R09R18R17G17R05R16G25G06G32R15E24
                                E05E31E09E01E26E04E13E33S23S36
 204058524.313 7                  38877687.828
                       272.402                          42.200



 122949175.395 6  95804618.30544  23396463.203
  23396466.434        2762.637        2152.815          41.600          26.000



 114980849.117 8  89429571.877 7  21479388.797    21479391.430    21479388.445
  21479391.281        1232.815         958.865          48.000          46.100



 127967316.618 6  99714899.176 6  24351381.797    24351387.242
  24351386.941        3922.109        3056.235          41.200          37.700



 112077071.213 7  87332699.071 8  21327529.531    21327536.098
  21327535.680       -2279.977       -1776.442          46.600          48.700
  83693816.946 8  21327533.129       -1702.419          50.400


 112511619.937 7                  21084630.555                    21084629.207
                     -2676.452                          43.900



 125745866.643 6  97802379.408 7  23515112.578    23515116.289    23515112.359
  23515116.078       -3119.713       -2426.433          41.600          42.700



 137301518.101 6 106988315.653 5  26127639.359    26127644.707
  26127644.754       -3748.105       -2920.564          37.100          33.700



 131019323.796 6 102093080.38743  24932166.820
  24932169.445        2279.156        1776.086          41.400          22.900



 104980001.901 8  81802699.160 8  19977045.859    19977049.086
  19977049.012        -408.469        -318.082          49.500          50.700



 131362321.194 6 102170705.883 5  24530988.594    24530989.980    24530987.430
  24530990.637        3760.273        2924.673          36.600          35.100



 123022408.658 7  95861668.01544  23410396.875
  23410399.438       -2754.984       -2146.469          43.600          29.200



 131089404.301 6 102147646.203 6  24945498.922    24945504.254
  24945504.457       -2858.449       -2227.209          39.500          39.400
  97891455.026 6  24945499.762       -2134.382          41.100


 124036644.703 7  96472967.361 7  23228082.578    23228083.938    23228081.379
  23228083.617        3268.468        2542.147          42.400          42.200



 116212575.438 7  90387552.740 7  21770528.484    21770532.164    21770527.777
  21770532.148        3619.514        2815.157          45.000          46.600



 112398688.963 8  87421228.264 7  21004377.750    21004380.395    21004377.512
  21004380.348         180.494         140.374          49.100          46.700



 134318012.234 5 104663438.916 5  25559876.492    25559882.730
  25559882.301       -3222.480       -2510.991          34.600          35.800



 129633655.771 6 100826182.050 6  24250663.727    24250665.656    24250663.184
  24250667.082       -4549.657       -3538.619          41.100          38.400



 104214455.533 7  81055694.745 7  19509167.414    19509167.305    19509166.906
  19509168.461         528.472         411.056          44.700          46.000



 107837223.074 8  84029182.786 8  20520776.813    20520782.902
  20520782.242        1609.074        1254.010          49.100          48.400
  80527951.934 8  20520780.457        1201.770          50.700


 129280272.248 5 100737803.434 5  24601200.680    24601208.574
  24601208.082        1702.785        1327.110          33.000          34.600
  96540402.930 5  24601206.016        1271.762          34.900


 114004536.242 8  88834725.144 7  21694340.461    21694345.512
  21694345.125        1486.324        1158.413          50.000          47.400
  85133267.415 8  21694341.816        1110.136          48.200


 113346775.716 8  88158612.202 7  21211306.500    21211308.621    21211305.707
  21211308.719       -2601.894       -2023.692          49.800          46.200



 132073137.817 7                  25132683.539
                      2355.297                          44.100
  98626087.074 7  25132695.828        1758.911          42.600   101198936.305 7
  25132694.113        1804.811          42.700    99912523.476 7  25132696.879
      1781.859          45.100
 139374797.405 7                  26522141.898
                      1675.121                          45.700
 104078586.937 7  26522143.504        1251.009          43.100   106793673.050 7
  26522141.535        1283.653          45.300   105436140.785 7  26522144.375
      1267.338          46.800
 124317309.228 8                  23656797.008
                       687.438                          50.100
  92834357.051 8  23656798.402         513.455          48.500    95256116.470 8
  23656796.887         526.834          50.100    94045247.055 8  23656799.500
       520.146          51.000
 119731273.296 8                  22784105.289
                     -1004.578                          49.100
  89409710.305 7  22784106.727        -749.998          47.900    91742130.506 8
  22784104.590        -769.573          49.000    90575932.200 8  22784107.301
      -759.783          50.300
 130035013.640 8                  24744839.750
                     -1676.305                          49.800
  97104071.209 7  24744840.512       -1251.686          47.800    99637213.353 8
  24744838.492       -1284.340          49.200    98370650.077 8  24744841.387
     -1268.017          50.600
 133816339.691 7                  25464399.070
                      1547.957                          44.400
  99927792.578 7  25464402.566        1156.065          42.200   102534603.871 7
  25464400.430        1186.229          45.300   101231214.522 7  25464403.363
      1171.153          46.300
 139379579.748 7                  26523054.133
                     -3028.266                          44.900
 104082152.502 7  26523055.023       -2261.279          43.200   106797330.913 7
  26523053.051       -2320.287          45.300   105439751.009 7  26523055.809
     -2290.787          46.500
 143953570.125 6                  27393453.914
                     -1000.445                          40.900
 107497799.292 6  27393455.523        -746.914          38.400   110302082.298 6
  27393453.871        -766.379          41.200   108899950.599 7  27393456.441
      -756.654          42.200
 145723561.037 6                  27730261.766
                      3027.785                          39.500
 108819505.938 6  27730265.297        2261.041          39.600   111658276.440 7
  27730263.824        2320.027          42.700   110238876.987 7  27730265.914
      2290.534          43.900
 205373931.150 7                  39081368.203
                         5.535                          42.600
 153363550.587 6  39081347.535           4.202          38.500


 201155444.612 7                  38278608.781
                         4.332                          45.000
 150213431.067 7  38278589.477           3.314          42.200


 20  6  3  7 13  0.0000000  0 34S25G14R07G29G24R06R24G15G02G12R08G19
                                G10R09R18R17G17R05R16G25G06G32R15E24
                                E05E31E09E01E26E04E13E33S23S36
 204050344.836 6                  38877487.953
                       272.809                          41.300



 122866456.906 6  95740162.35244  23380722.563
  23380725.457        2751.832        2144.568          40.600          27.100



 114944273.109 7  89401123.868 7  21472556.078    21472559.070    21472555.602
  21472558.539        1206.496         938.382          47.600          46.000



 127849686.762 6  99623239.505 6  24328997.867    24329002.996
  24329003.152        3919.742        3054.484          39.900          38.700



 112145629.856 7  87386121.386 8  21340576.305    21340582.168
  21340581.879       -2290.652       -1784.745          47.300          48.800
  83745013.323 8  21340579.492       -1710.385          50.200


 112592236.981 7                  21099738.844                    21099737.086
                     -2697.276                          43.400



 125839730.382 7  97875384.481 7  23532665.984    23532669.402    23532665.469
  23532669.117       -3137.264       -2440.075          42.200          42.300



 137413904.526 6 107075871.54143  26149025.648
  26149030.965       -3744.551       -2917.879          36.500          18.600



 130951052.145 6 102039881.73343  24919175.656
  24919178.418        2272.098        1770.648          39.000          21.300



 104992494.222 8  81812433.433 8  19979423.508    19979426.703
  19979426.133        -424.375        -330.433          49.500          50.500



 131249688.535 6 102083102.739 6  24509954.836    24509957.418    24509954.852
  24509957.773        3749.000        2915.877          40.700          36.800



 123105278.565 7  95926241.92344  23426166.930
  23426169.109       -2769.773       -2158.040          44.000          29.500



 131175228.967 6 102214522.561 6  24961829.930    24961836.480
  24961835.906       -2863.312       -2231.065          40.200          37.600
  97955544.863 6  24961831.332       -2138.080          40.900


 123938631.570 7  96396734.978 6  23209727.492    23209727.574    23209726.227
  23209728.520        3265.833        2540.084          42.400          41.400



 116104226.111 7  90303281.039 7  21750230.914    21750233.938    21750230.137
  21750234.625        3604.311        2803.371          45.700          45.100



 112393711.459 8  87417356.856 7  21003448.102    21003450.230    21003447.230
  21003450.281         152.320         118.490          49.000          46.600



 134414775.703 5 104738838.997 5  25578290.805    25578296.383
  25578295.863       -3228.305       -2515.553          35.500          35.800



 129770115.723 6 100932317.524 6  24276191.211    24276195.457    24276190.566
  24276195.055       -4547.746       -3537.075          40.200          38.800



 104198799.337 7  81043517.704 7  19506236.945    19506236.230    19506236.012
  19506237.652         515.744         401.130          45.000          45.800



 107789165.463 7  83991735.312 7  20511631.320    20511637.609
  20511637.117        1594.684        1242.870          46.600          47.800
  80492064.769 8  20511635.285        1191.085          50.700


 129229405.807 5 100698167.368 5  24591522.602    24591529.590
  24591528.430        1688.074        1315.735          33.900          34.300
  96502418.302 6  24591526.738        1260.925          37.200


 113960217.312 8  88800190.930 7  21685906.844    21685912.039
  21685911.641        1468.215        1144.354          48.600          47.800
  85100172.114 7  21685908.313        1096.688          47.500


 113424940.563 8  88219407.049 7  21225933.758    21225936.586    21225933.082
  21225936.129       -2608.880       -2029.125          49.200          45.700



 132002523.340 7                  25119245.555
                      2352.133                          43.700
  98573355.482 6  25119257.926        1756.593          41.800   101144829.090 7
  25119256.855        1802.424          44.400    99859104.086 7  25119259.215
      1779.500          45.500
 139324721.191 7                  26512612.867
                      1663.289                          45.300
 104041192.397 7  26512614.371        1242.262          43.600   106755302.997 7
  26512612.332        1274.661          45.600   105398258.486 7  26512615.133
      1258.471          46.600
 124296791.420 8                  23652892.445
                       680.328                          49.600
  92819035.325 8  23652893.949         508.188          49.300    95240395.030 8
  23652892.492         521.450          50.100    94029725.470 8  23652895.082
       514.821          51.300
 119761619.646 8                  22789880.148
                     -1018.457                          48.600
  89432371.537 8  22789881.340        -760.382          48.600    91765382.896 8
  22789879.031        -780.219          49.700    90598889.011 8  22789882.059
      -770.293          50.800
 130085368.844 8                  24754422.141
                     -1680.863                          49.800
  97141674.103 8  24754422.844       -1255.051          48.100    99675797.184 8
  24754420.656       -1287.771          49.400    98408743.434 8  24754423.664
     -1271.406          50.300
 133770088.749 7                  25455598.063
                      1535.402                          44.300
  99893254.563 7  25455601.039        1146.776          42.900   102499164.879 7
  25455599.098        1176.686          45.700   101196226.014 7  25455602.051
      1161.733          46.600
 139470489.591 7                  26540353.742
                     -3032.457                          45.100
 104150039.665 7  26540354.520       -2264.401          43.200   106866989.098 7
  26540352.695       -2323.474          44.100   105508523.681 7  26540355.707
     -2293.938          46.000
 143983796.817 6                  27399206.000
                     -1014.723                          40.600
 107520371.111 6  27399207.379        -757.523          37.600   110325243.016 6
  27399205.066        -777.292          40.500   108922816.864 6  27399208.484
      -767.412          41.400
 145632751.676 6                  27712982.539
                      3025.922                          41.600
 108751693.694 6  27712984.418        2259.818          39.300   111588695.232 6
  27712981.602        2318.772          40.200   110170180.276 7  27712985.582
      2289.284          42.300
 205373764.405 7                  39081336.578
                         5.371                          43.200
 153363426.001 6  39081315.895           4.134          37.800


 201155315.719 7                  38278583.969
                         4.348                          45.500
 150213335.695 6  38278564.910           3.053          41.700


 20  6  3  7 13 30.0000000  0 33S25G14R07G29G24R06R24G02G12R08G19G10
                                R09R18R17G17R05R16G25G06G32R15E24E05
                                E31E09E01E26E04E13E33S23S36
 204042152.948 6                  38877283.797
                       273.414                          41.000



 122784058.017 6  95675955.43244  23365042.023
  23365044.969        2741.320        2136.211          41.400          25.600



 114908487.849 7  89373290.897 7  21465871.211    21465874.375    21465870.574
  21465873.586        1180.108         917.843          47.500          45.900



 127732124.528 7  99531632.638 5  24306626.492    24306630.430
  24306629.285        3917.684        3052.727          42.100          35.400



 112214508.255 7  87439792.830 8  21353683.109    21353689.113
  21353688.977       -2301.180       -1793.051          47.600          49.300
  83796448.450 8  21353686.422       -1718.337          50.000


 112673476.334 7                  21114962.164                    21114960.875
                     -2717.977                          43.700



 125934116.748 6  97948796.089 6  23550317.000    23550319.566    23550316.160
  23550319.984       -3154.558       -2453.555          41.700          41.400



 130882990.366 6 101986846.62643  24906223.969
  24906226.145        2265.363        1765.185          39.400          21.800



 105005460.911 8  81822537.333 8  19981890.750    19981893.637
  19981893.633        -440.035        -342.738          49.500          50.400



 131137394.988 7 101995763.419 6  24488984.617    24488988.137    24488984.488
  24488987.285        3737.662        2907.064          42.900          37.600



 123188591.314 7  95991160.90744  23442020.852
  23442022.820       -2784.320       -2169.491          42.800          29.400



 131261199.537 6 102281512.587 6  24978189.344    24978195.164
  24978195.637       -2868.121       -2234.802          40.100          39.100
  98019743.674 6  24978190.688       -2141.711          40.800


 123840696.834 7  96320563.519 6  23191387.297    23191389.270    23191386.781
  23191388.984        3263.227        2538.063          42.100          41.000



 115996332.647 7  90219363.972 7  21730018.688    21730022.262    21730018.250
  21730022.563        3589.090        2791.495          46.400          46.100



 112389578.290 8  87414142.195 7  21002676.047    21002677.051    21002674.680
  21002677.684         124.173          96.565          48.100          46.300



 134511713.168 6 104814374.582 5  25596738.328    25596742.594
  25596742.227       -3233.992       -2519.979          36.600          35.600



 129906513.842 6 101038404.937 6  24301706.758    24301709.754    24301706.875
  24301710.973       -4545.570       -3535.471          40.600          38.100



 104183526.588 7  81031638.884 7  19503377.750    19503376.941    19503376.707
  19503378.543         502.933         391.180          45.000          46.000



 107741536.759 8  83954622.039 8  20502568.102    20502574.375
  20502573.738        1580.496        1231.732          48.800          48.100
  80456497.909 8  20502571.859        1180.398          50.700


 129178975.403 5 100658870.964 5  24581924.688    24581933.160
  24581931.738        1673.746        1304.352          32.500          34.900
  96464759.268 6  24581930.320        1250.041          38.200


 113916439.407 8  88766078.286 7  21677575.867    21677581.285
  21677580.863        1450.359        1130.280          50.600          47.200
  85067480.837 7  21677577.684        1083.192          47.600


 113503313.337 8  88280363.614 7  21240600.250    21240602.617    21240599.477
  21240602.746       -2615.762       -2034.479          48.900          45.800



 131932001.689 7                  25105826.234
                      2349.246                          44.300
  98520693.207 7  25105839.203        1754.308          42.600   101090793.087 7
  25105836.766        1800.043          43.700    99805754.936 7  25105839.766
      1777.180          45.500
 139274996.251 7                  26503150.211
                      1651.719                          45.500
 104004060.153 7  26503151.898        1233.490          42.800   106717202.067 7
  26503149.996        1265.687          44.900   105360641.900 7  26503152.789
      1249.595          46.100
 124276484.013 8                  23649028.297
                       673.473                          49.800
  92803870.698 8  23649029.598         502.969          48.500    95224834.813 8
  23649028.156         516.086          50.200    94014363.055 8  23649030.734
       509.522          50.600
 119792381.984 8                  22795734.164
                     -1032.297                          49.000
  89455343.407 8  22795734.945        -770.727          48.000    91788954.026 8
  22795732.781        -790.830          49.300    90622160.512 8  22795735.945
      -780.779          50.800
 130135857.931 8                  24764029.883
                     -1685.180                          50.400
  97179376.979 8  24764030.465       -1258.372          48.000    99714483.613 8
  24764028.391       -1291.177          49.500    98446938.093 8  24764031.422
     -1274.777          50.800
 133724211.364 7                  25446867.469
                      1523.059                          43.900
  99858995.514 7  25446870.918        1137.474          42.700   102464012.115 7
  25446869.090        1167.132          45.100   101161520.115 7  25446871.910
      1152.303          46.300
 139561522.910 7                  26557677.172
                     -3036.414                          44.900
 104218019.080 7  26557677.922       -2267.445          42.600   106936741.854 7
  26557675.832       -2326.585          44.300   105577389.760 7  26557678.598
     -2297.019          46.100
 144014449.877 6                  27405038.883
                     -1028.742                          39.600
 107543261.420 6  27405040.109        -768.128          38.500   110348730.428 6
  27405038.793        -788.182          40.400   108946005.717 6  27405041.461
      -778.151          41.800
 145541992.011 7                  27695712.469
                      3024.520                          42.300
 108683918.724 6  27695713.891        2258.549          40.700   111519152.114 7
  27695711.977        2317.485          42.100   110101521.207 7  27695714.184
      2288.012          43.300
 205373598.285 7                  39081304.984
                         5.555                          42.700
 153363301.958 6  39081284.207           4.131          38.300


 201155185.115 7                  38278559.188
                         4.359                          44.600
 150213241.863 6  38278540.418           3.319          41.800


 20  6  3  7 14  0.0000000  0 33S25G14R07G29G24R06R24G02G12R08G19G10
                                R09R18R17G17R05R16G25G06G32R15E24E05
                                E31E09E01E26E04E13E33S23S36
 204033936.969 6                  38877078.453
                       273.867                          41.400



 122701981.493 6  95611999.72144  23349423.469
  23349426.738        2730.453        2127.792          41.800          26.400



 114873495.344 8  89346074.500 7  21459334.539    21459337.391    21459334.113
  21459336.758        1153.607         897.242          48.000          46.400



 127614633.104 7  99440080.931 6  24284268.945    24284274.012
  24284274.383        3915.082        3050.796          42.800          39.400



 112283705.428 8  87493712.689 8  21366850.617    21366857.070
  21366856.742       -2311.801       -1801.324          48.100          48.500
  83848121.658 8  21366854.297       -1726.276          49.900


 112755334.485 7                  21130303.477                    21130302.082
                     -2738.523                          43.700



 126029022.296 7  98022611.483 7  23568064.930    23568067.355    23568064.574
  23568067.891       -3171.841       -2467.013          42.100          42.000



 130815140.933 6 101933977.00143  24893312.555
  24893314.840        2258.168        1759.654          39.900          22.900



 105018900.995 8  81833010.132 8  19984448.109    19984451.426
  19984451.148        -455.844        -355.020          49.600          51.000



 131025443.687 6 101908690.177 6  24468077.516    24468081.473    24468078.246
  24468081.055        3726.196        2898.151          41.100          40.900



 123272344.730 7  96056423.26244  23457958.859
  23457960.293       -2799.086       -2180.900          44.300          29.300



 131347312.961 6 102348613.930 6  24994577.000    24994581.715
  24994582.840       -2872.879       -2238.480          39.200          38.900
  98084049.094 6  24994577.949       -2145.206          39.600


 123742841.297 6  96244453.705 6  23173061.313    23173063.801    23173060.598
  23173063.234        3260.570        2536.003          41.200          41.800



 115888899.695 7  90135805.039 7  21709893.633    21709896.121    21709892.426
  21709896.629        3573.605        2779.468          45.700          44.800



 112386289.653 8  87411584.365 7  21002061.109    21002062.895    21002060.102
  21002063.055          95.998          74.667          48.500          45.800



 134608821.910 6 104890043.644 5  25615217.305    25615221.148
  25615221.508       -3239.859       -2524.420          36.800          35.100



 130042846.867 6 101144441.686 6  24327210.953    24327215.789    24327210.898
  24327215.059       -4543.295       -3533.736          40.600          38.900



 104168637.263 7  81020058.312 7  19500589.914    19500590.512    19500589.586
  19500591.180         490.157         381.223          44.900          46.000



 107694337.387 8  83917843.331 8  20493586.430    20493592.641
  20493592.000        1566.156        1220.548          48.700          48.600
  80421251.631 8  20493590.055        1169.694          50.500


 129128983.438 5 100619916.150 6  24572412.000    24572419.047
  24572418.277        1658.988        1292.957          35.400          36.300
  96427427.596 6  24572416.566        1239.126          38.000


 113873204.239 8  88732388.526 7  21669348.578    21669353.766
  21669353.324        1432.141        1116.175          51.100          47.200
  85035194.829 7  21669350.328        1069.656          47.900


 113581893.425 8  88341481.427 7  21255305.477    21255308.707    21255304.695
  21255308.105       -2622.659       -2039.846          49.400          47.100



 131861573.083 7                  25092423.969
                      2346.039                          44.300
  98468100.492 7  25092436.125        1751.968          42.600   101036828.289 7
  25092434.344        1797.672          42.800    99752476.182 7  25092437.195
      1774.818          45.700
 139225623.889 7                  26493755.102
                      1639.820                          45.500
 103967191.171 7  26493756.449        1224.723          43.000   106679371.301 7
  26493754.895        1256.661          45.000   105323292.037 7  26493757.539
      1240.683          46.000
 124256386.819 8                  23645203.758
                       666.363                          49.700
  92788863.057 8  23645205.191         497.723          49.000    95209435.670 8
  23645203.754         510.711          50.300    93999159.656 8  23645206.340
       504.214          51.500
 119823559.546 8                  22801666.891
                     -1046.199                          48.300
  89478625.330 7  22801667.711        -781.051          47.600    91812843.309 8
  22801665.648        -801.425          49.100    90645746.115 8  22801668.844
      -791.239          50.200
 130186480.335 8                  24773663.133
                     -1689.664                          50.000
  97217179.395 7  24773663.621       -1261.677          47.500    99753272.202 8
  24773661.563       -1294.597          49.100    98485233.601 8  24773664.574
     -1278.138          50.100
 133678708.962 7                  25438208.734
                      1510.543                          44.800
  99825016.474 7  25438212.047        1128.118          42.900   102429146.672 7
  25438210.027        1157.525          45.600   101127097.865 7  25438213.129
      1142.824          46.600
 139652677.904 7                  26575022.969
                     -3040.531                          44.200
 104286089.323 7  26575023.836       -2270.461          42.900   107006587.860 7
  26575021.934       -2329.693          44.400   105646347.888 7  26575024.902
     -2300.085          46.000
 144045528.497 6                  27410952.617
                     -1042.965                          39.700
 107566469.425 6  27410954.262        -778.713          38.000   110372543.869 6
  27410952.520        -799.003          40.200   108969516.447 6  27410955.508
      -788.862          41.900
 145451284.202 6                  27678448.977
                      3022.699                          38.800
 108616182.359 6  27678452.488        2257.233          38.300   111449648.768 6
  27678450.016        2316.141          40.900   110032901.377 7  27678453.418
      2286.668          42.300
 205373431.844 7                  39081273.000
                         5.535                          43.000
 153363177.338 6  39081252.707           4.178          38.300


 201155052.830 7                  38278535.016
                         4.281                          45.300
 150213149.638 6  38278515.973           3.105          41.400


 20  6  3  7 14 30.0000000  0 33S25G14R07G29G24R06R24G02G12R08G19G10
                                R09R18R17G17R05R16G25G06G32R15E24E05
                                E31E09E01E26E04E13E33S23S36
 204025712.942 6                  38876873.250
                       274.441                          41.600



 122620229.944 6  95548297.22544  23333867.109
  23333870.164        2719.527        2119.281          41.400          26.800



 114839297.045 8  89319475.827 7  21452946.070    21452948.969    21452945.551
  21452948.336        1127.132         876.660          48.100          46.600



 127497214.991 7  99348586.305 5  24261924.516    24261928.848
  24261927.559        3912.695        3048.868          42.500          35.700



 112353220.905 8  87547880.575 8  21380078.750    21380085.625
  21380085.238       -2322.484       -1809.611          48.000          48.800
  83900032.539 8  21380082.559       -1734.225          49.900


 112837807.330 7                  21145758.188                    21145756.629
                     -2759.016                          43.000



 126124443.266 6  98096827.758 6  23585908.898    23585911.703    23585908.395
  23585911.738       -3188.995       -2480.338          41.900          40.500



 130747506.744 6 101881275.07443  24880441.453
  24880444.977        2250.934        1753.989          38.700          23.200



 105032813.702 8  81843851.194 8  19987095.852    19987098.891
  19987098.688        -471.594        -367.322          49.300          50.700



 130913838.464 7 101821886.184 6  24447237.086    24447239.672    24447237.418
  24447239.625        3714.519        2889.062          42.500          41.400



 123356535.930 7  96122026.77944  23473980.039
  23473981.355       -2813.527       -2192.283          44.300          29.300



 131433566.288 6 102415824.289 6  25010988.695    25010996.070
  25010995.926       -2877.508       -2242.082          38.900          38.800
  98148459.028 6  25010992.113       -2148.682          41.200


 123645065.713 6  96168406.019 6  23154751.492    23154753.875    23154750.930
  23154753.293        3257.894        2533.926          41.700          41.600



 115781931.968 7  90052607.971 7  21689854.563    21689858.191    21689853.559
  21689857.906        3558.041        2767.358          45.100          46.700



 112383846.432 8  87409684.082 7  21001604.789    21001607.117    21001603.477
  21001606.477          67.786          52.735          48.300          46.300



 134706099.857 6 104965844.630 5  25633728.969    25633732.633
  25633732.836       -3245.430       -2528.817          36.800          35.900



 130179111.099 6 101250424.896 6  24352702.750    24352705.949    24352702.254
  24352706.070       -4541.031       -3531.915          39.700          37.600



 104154131.558 7  81008776.096 7  19497874.625    19497873.961    19497874.145
  19497875.680         477.302         371.230          45.500          46.000



 107647567.985 8  83881399.661 8  20484686.953    20484692.621
  20484692.047        1551.922        1209.361          48.000          48.000
  80386326.443 8  20484690.195        1158.979          50.700


 129079432.436 5 100581304.956 6  24562982.758    24562989.820
  24562989.246        1644.316        1281.505          35.000          37.400
  96390425.247 6  24562987.203        1228.070          38.000


 113830513.711 8  88699123.196 7  21661224.953    21661229.996
  21661229.664        1414.000        1101.978          49.100          47.000
  85003315.547 7  21661226.625        1056.053          47.600


 113660680.041 8  88402759.878 7  21270048.859    21270050.867    21270048.660
  21270051.828       -2629.563       -2045.223          49.500          46.400



 131791237.864 7                  25079039.617
                      2342.945                          45.200
  98415577.424 6  25079051.867        1749.627          41.000   100982935.089 7
  25079050.492        1795.267          44.300    99699268.053 7  25079052.984
      1772.440          45.600
 139176605.642 7                  26484427.180
                      1628.156                          45.400
 103930586.668 7  26484428.656        1215.849          43.300   106641811.889 7
  26484426.949        1247.577          44.700   105286210.080 7  26484429.652
      1231.704          46.400
 124236499.868 8                  23641419.344
                       659.457                          50.200
  92774012.421 8  23641420.906         492.479          48.800    95194197.620 8
  23641419.418         505.328          50.400    93984115.314 8  23641421.984
       498.902          51.500
 119855151.816 8                  22807678.820
                     -1059.906                          48.900
  89502216.957 7  22807679.559        -791.393          47.600    91837050.374 8
  22807677.758        -812.036          48.900    90669645.456 8  22807680.652
      -801.712          49.900
 130237235.693 8                  24783321.477
                     -1694.035                          49.600
  97255081.117 7  24783321.984       -1265.005          47.300    99792162.665 8
  24783320.301       -1298.007          49.200    98523629.681 8  24783323.016
     -1281.502          50.300
 133633583.235 7                  25429621.914
                      1497.895                          45.300
  99791318.716 7  25429624.961        1118.707          42.600   102394569.828 7
  25429622.934        1147.877          44.900   101092960.576 7  25429625.891
      1133.281          46.200
 139743953.078 7                  26592392.102
                     -3044.500                          44.900
 104354249.306 7  26592392.871       -2273.464          42.400   107076525.937 7
  26592391.738       -2332.757          44.900   105715396.918 7  26592394.078
     -2303.111          45.900
 144077031.997 6                  27416948.195
                     -1057.074                          40.900
 107589994.756 6  27416949.160        -789.293          36.700   110396682.911 6
  27416947.047        -809.898          39.400   108993348.638 6  27416950.313
      -799.599          40.600
 145360630.554 6                  27661200.461
                      3020.859                          41.800
 108548486.511 6  27661201.949        2255.839          40.200   111380186.915 6
  27661199.227        2314.679          41.200   109964322.502 7  27661202.430
      2285.273          43.300
 205373266.445 7                  39081242.656
                         5.500                          43.000
 153363053.597 6  39081221.371           4.096          38.400


 201154925.691 7                  38278509.922
                         4.398                          44.900
 150213051.014 6  38278491.461           3.239          41.600


 20  6  3  7 15  0.0000000  0 33S25G14R07G29G24R06R24G02G12R08G19G10
                                R09R18R17G17R05R16G25G06G32R15E24E05
                                E31E09E01E26E04E13E33S23S36
 204017477.615 6                  38876667.750
                       274.508                          41.700



 122538805.155 7  95484849.35244  23318372.305
  23318375.203        2708.738        2110.819          42.100          27.000



 114805894.086 7  89293495.765 7  21446706.094    21446708.887    21446705.102
  21446708.457        1100.619         856.042          47.600          46.800



 127379872.328 6  99257150.519 6  24239594.414    24239599.777
  24239600.184        3910.133        3046.903          41.800          38.000



 112423052.816 7  87602295.030 8  21393367.938    21393374.078
  21393373.938       -2332.984       -1817.785          47.500          49.300
  83952179.722 8  21393371.203       -1742.051          49.800


 112920890.799 7                  21161328.117                    21161326.813
                     -2779.292                          43.000



 126220375.147 7  98171441.445 6  23603848.141    23603851.527    23603848.309
  23603851.699       -3205.905       -2493.517          42.100          40.300



 130680089.782 6 101828742.40043  24867611.898
  24867615.508        2243.559        1748.325          38.900          22.900



 105047197.285 8  81855059.174 8  19989832.859    19989835.898
  19989835.727        -487.258        -379.490          50.300          51.000



 130802583.349 6 101735354.434 6  24426460.328    24426464.063    24426460.320
  24426463.195        3702.804        2879.940          37.100          40.300



 123441161.684 7  96187968.88344  23490083.359
  23490085.285       -2827.961       -2203.492          43.600          29.700



 131519955.913 6 102483140.843 6  25027428.156    25027434.895
  25027435.383       -2881.969       -2245.602          38.400          38.400
  98212970.701 6  25027431.199       -2152.032          39.800


 123547370.431 6  96092420.869 6  23136456.781    23136456.961    23136455.797
  23136457.656        3255.288        2531.858          41.900          41.700



 115675433.942 7  89969776.192 7  21669902.992    21669907.223    21669902.844
  21669907.102        3542.297        2755.122          44.900          45.400



 112382248.186 8  87408441.024 7  21001305.258    21001307.020    21001304.879
  21001307.859          39.649          30.836          48.000          45.900



 134803544.293 5 105041775.287 5  25652272.641    25652276.098
  25652276.297       -3250.934       -2533.084          33.800          35.100



 130315302.545 6 101356351.545 6  24378180.164    24378183.426    24378179.117
  24378183.664       -4538.437       -3529.913          39.800          37.500



 104140009.651 7  80997792.396 7  19495231.484    19495230.559    19495230.371
  19495231.977         464.571         361.337          45.600          45.800



 107601228.488 8  83845290.967 8  20475868.422    20475874.633
  20475873.852        1537.492        1198.236          48.800          48.000
  80351722.291 8  20475872.055        1148.309          50.700


 129030324.250 5 100543038.905 6  24553637.672    24553645.027
  24553643.996        1629.641        1269.954          35.500          36.900
  96353753.595 6  24553642.453        1217.042          39.500


 113788368.975 8  88666283.142 7  21653205.133    21653210.328
  21653209.738        1395.773        1087.811          49.800          47.500
  84971843.836 8  21653206.719        1042.480          48.200


 113739671.959 8  88464197.985 7  21284831.461    21284833.680    21284830.879
  21284834.184       -2636.354       -2050.507          49.300          46.300



 131720995.726 7                  25065672.711
                      2339.805                          44.000
  98363123.885 7  25065686.066        1747.342          42.400   100929113.241 7
  25065683.301        1792.908          43.900    99646130.354 7  25065686.539
      1770.148          45.400
 139127942.379 7                  26475167.063
                      1616.148                          45.700
 103894247.212 7  26475168.445        1207.044          43.000   106604524.445 7
  26475166.492        1238.551          45.100   105249396.623 7  26475169.328
      1222.789          46.300
 124216822.544 8                  23637674.898
                       652.461                          50.700
  92759318.317 8  23637676.422         487.295          49.500    95179120.197 8
  23637674.883         499.997          50.600    93969229.550 8  23637677.496
       493.648          51.500
 119887157.572 8                  22813769.156
                     -1073.684                          49.000
  89526117.345 8  22813770.297        -801.639          48.300    91861574.253 8
  22813768.516        -822.550          49.200    90693857.592 8  22813771.156
      -812.093          50.800
 130288122.946 8                  24793005.133
                     -1698.414                          49.500
  97293081.326 8  24793005.547       -1268.258          48.000    99831154.173 8
  24793003.563       -1301.339          49.400    98562125.543 8  24793006.523
     -1284.789          50.300
 133588835.162 7                  25421106.430
                      1485.336                          44.300
  99757902.981 7  25421109.621        1109.304          42.800   102360282.344 7
  25421107.621        1138.257          45.600   101059108.964 7  25421110.469
      1123.773          46.100
 139835346.100 7                  26609783.688
                     -3048.332                          44.000
 104422497.310 7  26609784.777       -2276.302          43.500   107146554.332 7
  26609782.410       -2335.711          43.600   105784535.120 7  26609785.484
     -2306.017          45.900
 144108959.062 6                  27423023.438
                     -1071.328                          40.400
 107613836.364 6  27423025.082        -799.792          38.200   110421146.441 6
  27423023.199        -820.628          39.400   109017501.199 6  27423025.742
      -810.217          41.300
 145270032.705 6                  27643959.141
                      3018.996                          41.700
 108480832.236 6  27643960.992        2254.474          39.400   111310767.763 7
  27643959.336        2313.270          42.100   109895785.806 7  27643962.094
      2283.864          43.300
 205373101.544 7                  39081211.391
                         5.453                          43.000
 153362930.346 6  39081190.063           4.118          38.100


 201154796.656 7                  38278485.938
                         4.148                          45.300
 150212949.585 7  38278466.824           3.067          42.100


 20  6  3  7 15 30.0000000  0 33S25G14R07G29G24R06R24G02G12R08G19G10
                                R09R18R17G17R05R16G25G06G32R15E24E05
                                E31E09E01E26E04E13E33S23S36
 204009223.167 6                  38876450.250
                       275.766                          41.100



 122457710.197 7  95421658.50844  23302940.602
  23302943.645        2697.676        2102.217          42.100          27.000



 114773288.655 7  89268135.987 7  21440615.125    21440617.988    21440614.492
  21440617.453        1074.007         835.335          47.800          46.600



 127262608.379 7  99165776.000 6  24217280.328    24217285.113
  24217285.473        3907.426        3044.837          43.000          38.800



 112493202.157 7  87656956.803 8  21406716.563    21406723.223
  21406722.902       -2343.602       -1826.042          47.800          49.000
  84004563.910 8  21406720.426       -1749.941          49.900


 113004581.343 7                  21177011.453                    21177010.043
                     -2799.426                          42.800



 126316814.610 6  98246449.803 6  23621883.633    23621886.750    23621882.422
  23621886.594       -3222.772       -2506.607          39.900          40.800



 130612893.493 6 101776381.68743  24854825.789
  24854828.129        2236.211        1742.615          38.700          22.500



 105062051.147 8  81866633.625 8  19992659.500    19992662.547
  19992662.332        -502.902        -391.712          50.400          51.000



 130691682.603 6 101649098.317 6  24405750.633    24405752.953    24405750.660
  24405753.230        3690.931        2870.755          38.100          38.700



 123526219.517 7  96254247.68644  23506269.594
  23506271.117       -2842.391       -2214.692          44.400          28.700



 131606478.975 6 102550561.364 6  25043893.242    25043899.859
  25043899.941       -2886.289       -2248.944          41.000          37.600
  98277582.061 6  25043896.379       -2155.285          41.100


 123449756.160 6  96016498.624 7  23118177.070    23118179.570    23118175.484
  23118178.219        3252.513        2529.738          41.900          42.700



 115569410.067 7  89887313.202 7  21650042.438    21650044.602    21650040.785
  21650045.211        3526.464        2742.813          46.000          46.400



 112381495.628 8  87407855.696 7  21001165.273    21001167.168    21001164.543
  21001167.328          11.457           8.909          48.900          46.100



 134901153.021 5 105117834.053 5  25670846.547    25670850.156
  25670850.371       -3256.437       -2537.393          34.300          32.300



 130451417.677 6 101462218.813 6  24403642.805    24403647.465    24403643.109
  24403646.961       -4535.877       -3527.904          38.700          36.600



 104126271.820 7  80987107.411 7  19492660.008    19492659.180    19492658.191
  19492660.246         451.773         351.383          45.200          45.800



 107555319.710 8  83809517.899 8  20467132.180    20467138.414
  20467137.734        1523.137        1187.036          49.000          48.500
  80317439.772 8  20467135.859        1137.581          50.600


 128981661.709 6 100505120.061 6  24544375.891    24544385.211
  24544383.750        1614.582        1258.384          38.100          38.600
  96317414.714 6  24544382.168        1205.917          40.200


 113746772.118 8  88633870.019 7  21645289.602    21645294.492
  21645294.168        1377.500        1073.549          50.400          47.600
  84940781.251 7  21645291.012        1028.828          47.500


 113818868.551 8  88525795.299 7  21299651.703    21299654.434    21299651.441
  21299654.840       -2643.186       -2055.818          49.300          46.300



 131650847.220 7                  25052323.539
                      2336.676                          43.900
  98310740.329 7  25052336.039        1745.009          42.200   100875363.058 7
  25052334.102        1790.513          43.700    99593063.484 7  25052337.199
      1767.769          45.300
 139079635.781 7                  26465974.586
                      1604.203                          46.300
 103858174.097 7  26465975.711        1198.147          42.600   106567510.308 7
  26465974.141        1229.386          45.200   105212853.000 7  26465976.895
      1213.769          46.000
 124197355.035 8                  23633970.570
                       645.402                          50.800
  92744780.890 8  23633971.832         482.058          49.100    95164203.528 8
  23633970.297         494.636          50.700    93954502.508 8  23633972.953
       488.338          51.700
 119919576.418 8                  22819938.125
                     -1087.543                          48.400
  89550326.211 7  22819939.586        -811.908          47.900    91886414.663 8
  22819937.586        -833.097          49.000    90718382.239 8  22819940.266
      -822.508          50.300
 130339141.975 8                  24802713.703
                     -1702.867                          49.900
  97331179.931 7  24802714.234       -1271.525          47.800    99870246.657 8
  24802712.176       -1304.692          48.900    98600721.088 8  24802715.145
     -1288.111          50.300
 133544466.476 7                  25412663.555
                      1472.637                          44.800
  99724770.552 7  25412666.520        1099.827          42.600   102326285.600 7
  25412664.496        1128.535          45.100   101025544.374 7  25412667.410
      1114.183          46.300
 139926855.653 7                  26627197.531
                     -3052.316                          44.700
 104490832.289 7  26627198.164       -2279.193          42.300   107216672.002 7
  26627196.668       -2338.658          44.600   105853761.452 7  26627199.449
     -2308.936          45.900
 144141309.103 6                  27429178.984
                     -1085.273                          40.400
 107637993.902 6  27429180.738        -810.342          37.800   110445934.156 6
  27429179.090        -831.479          39.300   109041973.826 6  27429181.617
      -820.922          41.200
 145179493.049 6                  27626730.391
                      3016.906                          41.000
 108413221.520 6  27626731.516        2252.978          38.900   111241393.311 7
  27626730.215        2311.746          42.300   109827293.207 7  27626733.164
      2282.363          42.800
 205372937.489 7                  39081179.594
                         5.449                          42.600
 153362807.859 6  39081158.852           4.066          37.700


 201154668.879 7                  38278460.375
                         4.227                          44.500
 150212857.796 6  38278442.063           3.388          41.800


 20  6  3  7 16  0.0000000  0 33S25G14R07G29G24R06R24G02G12R08G19G10
                                R09R18R17G17R05R16G25G06G32R15E24E05
                                E31E09E01E26E04E13E33S23S36
 204000946.720 6                  38876238.234
                       276.078                          41.900



 122376946.913 7  95358726.07944  23287571.508
  23287574.504        2686.613        2093.573          42.000          27.700



 114741482.091 7  89243397.552 7  21434673.023    21434676.020    21434672.645
  21434675.590        1047.355         814.622          47.600          46.200



 127145425.577 7  99074464.800 6  24194981.500    24194985.656
  24194985.270        3904.711        3042.697          43.000          37.600



 112563666.472 8  87711864.030 8  21420125.469    21420131.934
  21420132.121       -2354.094       -1834.187          48.300          48.800
  84057183.326 8  21420129.172       -1757.765          50.100


 113088874.821 7                  21192808.891                    21192806.906
                     -2819.477                          43.400



 126413757.662 6  98321849.900 6  23640011.000    23640015.605    23640011.117
  23640015.266       -3239.508       -2519.594          39.600          39.600



 130545920.285 6 101724194.82243  24842081.078
  24842083.898        2228.785        1736.765          37.600          21.100



 105077374.189 8  81878573.638 8  19995575.375    19995578.668
  19995578.176        -518.543        -403.865          49.900          50.800



 130581140.538 6 101563121.127 6  24385108.484    24385110.340    24385107.910
  24385110.547        3678.927        2861.402          41.300          38.700



 123611706.407 7  96320860.82244  23522537.281
  23522538.875       -2856.684       -2225.802          44.300          28.900



 131693132.341 6 102618083.468 6  25060383.211    25060389.902
  25060390.148       -2890.691       -2252.346          38.700          38.700
  98342290.698 6  25060385.844       -2158.471          41.800


 123352223.688 7  95940640.115 6  23099910.984    23099912.582    23099911.320
  23099913.137        3249.752        2527.578          42.300          41.600



 115463864.675 7  89805222.385 7  21630269.180    21630272.602    21630268.863
  21630273.141        3510.437        2730.339          46.200          46.400



 112381588.794 8  87407928.160 7  21001182.680    21001185.359    21001181.859
  21001184.793         -16.715         -13.004          48.900          46.700



 134998923.843 5 105194019.019 4  25689451.516    25689455.535
  25689455.324       -3261.770       -2541.478          32.000          29.500



 130587453.198 6 101568024.177 5  24429091.133    24429095.066    24429090.777
  24429095.180       -4533.199       -3525.815          38.600          35.000



 104112917.987 7  80976721.092 7  19490159.039    19490159.617    19490158.477
  19490160.484         438.945         341.406          45.100          45.700



 107509841.970 8  83774080.710 8  20458477.945    20458484.445
  20458483.656        1508.773        1175.851          48.300          48.300
  80283479.144 8  20458481.688        1126.844          50.700


 128933447.007 6 100467550.190 6  24535202.617    24535209.391
  24535209.063        1599.617        1246.695          38.000          38.600
  96281410.253 6  24535207.152        1194.745          40.600


 113705724.694 8  88601885.005 7  21637478.219    21637483.520
  21637483.105        1359.043        1059.268          50.200          47.100
  84910128.955 7  21637479.887        1015.131          47.800


 113898269.209 8  88587551.327 7  21314510.586    21314512.207    21314510.113
  21314513.410       -2649.967       -2061.073          48.800          45.600



 131580792.466 7                  25038992.695
                      2333.602                          44.800
  98258426.700 6  25039005.570        1742.667          41.900   100821684.776 7
  25039004.234        1788.126          45.000    99540067.527 7  25039006.555
      1765.394          45.700
 139031687.048 7                  26456850.188
                      1592.336                          45.800
 103822368.244 7  26456851.648        1189.228          42.900   106530770.391 7
  26456849.770        1220.243          44.800   105176580.116 7  26456852.570
      1204.744          46.000
 124178097.076 8                  23630305.922
                       638.414                          50.500
  92730399.953 8  23630307.211         476.858          49.200    95149447.437 8
  23630305.680         489.294          50.600    93939933.987 8  23630308.281
       483.076          52.200
 119952407.548 8                  22826185.836
                     -1101.180                          48.200
  89574842.974 7  22826187.133        -822.169          47.400    91911570.977 8
  22826184.883        -843.617          48.800    90743218.767 8  22826187.816
      -832.895          50.100
 130390292.109 8                  24812447.039
                     -1707.230                          49.900
  97369376.435 8  24812447.922       -1274.778          48.000    99909439.602 8
  24812445.938       -1308.035          49.500    98639415.815 8  24812448.727
     -1291.408          50.600
 133500478.570 7                  25404292.805
                      1459.926                          45.500
  99691922.464 7  25404295.910        1090.353          43.100   102292580.596 7
  25404293.820        1118.796          45.600   100992267.819 7  25404296.656
      1104.580          46.700
 140018479.878 7                  26644633.398
                     -3056.113                          45.000
 104559252.963 7  26644633.918       -2282.066          43.400   107286877.504 7
  26644631.574       -2341.588          44.400   105923074.532 7  26644634.734
     -2311.829          46.500
 144174081.264 6                  27435416.141
                     -1099.465                          40.700
 107662466.590 6  27435417.359        -820.833          38.300   110471045.267 6
  27435415.777        -842.240          39.500   109066765.733 6  27435417.910
      -831.556          40.900
 145089013.678 6                  27609512.453
                      3014.918                          40.900
 108345655.732 6  27609515.172        2251.455          39.900   111172064.938 7
  27609512.289        2310.180          42.100   109758846.134 7  27609515.520
      2280.818          43.100
 205372774.048 7                  39081148.172
                         5.379                          42.900
 153362685.909 6  39081127.637           4.094          38.100


 201154538.062 7                  38278435.813
                         4.289                          44.900
 150212760.028 6  38278417.406           3.097          41.800


 20  6  3  7 16 30.0000000  0 33S25G14R07G29G24R06R24G02G12R08G19G10
                                R09R18R17G17R05R16G25G06G32R15E24E05
                                E31E09E01E26E04E13E33S23S36
 203992653.770 6                  38876017.234
                       276.711                          41.400



 122296517.851 7  95296054.10644  23272266.148
  23272270.211        2675.434        2084.807          43.000          28.100



 114710475.598 8  89219281.415 7  21428880.594    21428884.168    21428880.484
  21428883.551        1020.602         793.797          48.000          47.100



 127028326.134 7  98983218.496 6  24172697.781    24172703.492
  24172703.762        3901.891        3040.434          43.200          39.300



 112634445.476 7  87767016.469 8  21433594.297    21433600.840
  21433600.816       -2364.543       -1842.414          47.600          48.800
  84110037.737 8  21433598.098       -1765.655          49.800


 113173767.311 7                  21208716.805                    21208715.559
                     -2839.404                          43.000



 126511200.245 6  98397638.570 6  23658235.570    23658237.355    23658233.422
  23658237.211       -3256.148       -2532.561          38.100          38.500



 130479172.531 6 101672183.62843  24829379.414
  24829382.320        2221.113        1730.819          38.000          23.400



 105093164.767 8  81890877.975 8  19998580.477    19998583.238
  19998582.996        -534.117        -416.054          49.800          49.800



 130470960.242 6 101477425.361 6  24364532.633    24364535.379    24364532.844
  24364534.703        3666.777        2851.946          40.200          39.100



 123697619.393 7  96387805.96744  23538885.320
  23538887.613       -2870.707       -2236.871          43.100          28.400



 131779912.597 6 102685704.470 6  25076896.078    25076903.609
  25076904.047       -2894.664       -2255.624          37.000          39.000
  98407094.150 6  25076899.266       -2161.656          40.200


 123254773.546 7  95864845.545 6  23081662.828    23081663.414    23081661.469
  23081664.031        3246.980        2525.426          42.000          41.300



 115358802.401 7  89723507.315 7  21610587.883    21610590.621    21610587.262
  21610591.160        3494.188        2717.701          46.600          45.600



 112382527.591 8  87408658.335 7  21001358.445    21001359.914    21001357.242
  21001360.340         -44.989         -34.992          49.500          46.300



 135096853.929 5 105270328.18414  25708086.727    25708092.152
  25708091.617       -3267.141       -2545.498          31.500          27.700



 130723405.193 6 101673764.593 5  24454523.492    24454528.078    24454524.145
  24454527.633       -4530.401       -3523.629          36.700          33.600



 104099948.221 7  80966633.511 7  19487732.094    19487730.836    19487730.691
  19487732.434         426.109         331.417          45.200          46.000



 107464795.372 7  83738979.491 8  20449905.945    20449912.480
  20449911.656        1494.379        1164.585          47.500          48.600
  80249840.468 8  20449909.648        1116.054          51.000


 128885682.181 6 100430330.899 6  24526112.328    24526119.762
  24526119.254        1584.602        1234.921          37.100          39.600
  96245741.747 6  24526117.828        1183.504          41.300


 113665228.057 8  88570329.188 8  21629772.172    21629777.332
  21629776.945        1340.738        1044.899          49.800          48.100
  84879887.965 7  21629773.680        1001.355          47.800


 113977872.600 8  88649465.043 7  21329407.969    21329409.898    21329407.051
  21329410.344       -2656.753       -2066.363          49.500          46.000



 131510831.320 7                  25025679.891
                      2330.520                          44.600
  98206183.025 7  25025692.980        1740.277          43.200   100768078.229 7
  25025690.328        1785.688          44.000    99487142.418 7  25025693.473
      1762.984          46.000
 138984097.244 7                  26447793.828
                      1580.379                          46.200
 103786830.416 7  26447795.598        1180.226          42.500   106494305.467 7
  26447793.691        1211.023          44.900   105140578.747 7  26447796.512
      1195.612          46.400
 124159048.251 8                  23626680.914
                       631.473                          50.800
  92716175.191 8  23626682.359         471.601          48.900    95134851.591 8
  23626680.824         483.912          50.800    93925523.684 8  23626683.410
       477.754          51.200
 119985649.879 8                  22832511.750
                     -1114.887                          48.500
  89599666.781 7  22832512.711        -832.437          47.900    91937042.367 8
  22832510.230        -854.161          49.000    90768366.365 8  22832513.633
      -843.301          50.900
 130441572.531 8                  24822205.398
                     -1711.594                          49.800
  97407670.240 8  24822206.336       -1278.072          48.100    99948732.376 8
  24822204.234       -1311.411          49.400    98678209.102 8  24822207.059
     -1294.735          50.500
 133456872.572 7                  25395994.648
                      1447.156                          45.200
  99659359.546 7  25395997.934        1080.797          42.800   102259168.214 7
  25395996.145        1108.985          46.200   100959280.174 7  25395998.742
      1094.897          46.700
 140110216.643 7                  26662090.219
                     -3059.746                          45.100
 104627757.643 7  26662090.828       -2284.874          43.100   107357169.330 7
  26662089.563       -2344.470          44.600   105992472.773 7  26662092.063
     -2314.670          46.000
 144207274.246 6                  27441731.859
                     -1113.355                          39.400
 107687253.569 6  27441733.824        -831.338          39.300   110496478.844 6
  27441732.129        -853.037          39.300   109091875.995 6  27441734.219
      -842.165          41.300
 144998596.452 6                  27592305.938
                      3012.816                          40.900
 108278136.429 6  27592308.801        2249.832          40.500   111102784.207 6
  27592306.617        2308.525          41.900   109690446.111 7  27592309.453
      2279.185          43.500
 205372611.605 7                  39081117.047
                         5.410                          42.200
 153362565.063 6  39081096.535           4.019          37.800


 201154413.826 7                  38278411.922
                         4.262                          44.900
 150212662.109 6  38278393.117           3.118          41.700


 20  6  3  7 17  0.0000000  0 33S25G14R07G29G24R06R24G02G12R08G19G10
                                R09R18R17G17R05R16G25G06G32R15E24E05
                                E31E09E01E26E04E13E33S23S36
 203984343.046 6                  38875801.734
                       277.188                          41.100



 122216426.104 7  95233644.96444  23257025.563
  23257028.746        2664.043        2076.100          42.800          28.000



 114680271.280 8  89195789.188 7  21423238.281    21423241.223    21423237.875
  21423241.070         993.936         773.074          48.100          47.000



 126911313.578 7  98892039.880 6  24150431.109    24150435.191
  24150434.500        3898.852        3038.231          43.800          37.300



 112705538.728 7  87822413.789 8  21447122.969    21447129.578
  21447129.598       -2375.000       -1850.487          47.800          49.000
  84163126.843 8  21447126.742       -1773.385          50.100


 113259255.296 7                  21224736.719                    21224735.926
                     -2859.073                          43.300



 126609139.310 6  98473813.390 6  23676548.781    23676551.977    23676548.309
  23676552.707       -3272.508       -2545.320          36.900          37.000



 130412653.797 6 101620350.87544  24816721.023
  24816724.203        2213.496        1724.885          39.000          24.400



 105109422.926 8  81903546.670 8  20001674.266    20001676.852
  20001676.934        -549.727        -428.112          49.800          50.600



 130361146.461 6 101392014.655 6  24344024.859    24344029.105    24344024.770
  24344028.184        3654.554        2842.442          37.300          40.800



 123783956.437 7  96455081.55744  23555314.961
  23555317.031       -2884.934       -2247.780          42.700          28.400



 131866817.464 6 102753422.459 6  25093435.250    25093440.633
  25093441.266       -2899.008       -2258.756          38.600          38.200
  98471990.577 6  25093436.945       -2164.646          40.200


 123157406.908 6  95789115.984 6  23063429.016    23063430.133    23063427.887
  23063430.094        3244.255        2523.340          41.800          40.600



 115254228.493 7  89642172.093 7  21590998.352    21591000.094    21590996.801
  21591000.902        3477.969        2705.080          46.200          44.800



 112384313.094 8  87410047.072 7  21001691.461    21001693.980    21001690.914
  21001694.004         -73.091         -56.861          48.900          46.700



 135194941.680 4 105346744.22642  25726751.945
  25726756.680       -3272.137       -2549.625          27.600          15.600



 130859271.180 5 101779438.033 4  24479939.930    24479943.594    24479940.543
  24479944.500       -4527.407       -3521.291          34.500          29.400



 104087363.422 7  80956845.331 7  19485375.430    19485375.035    19485374.762
  19485376.492         413.366         321.507          45.100          46.300



 107420181.137 8  83704215.151 8  20441415.953    20441422.488
  20441421.906        1479.938        1153.421          48.200          48.600
  80216524.643 8  20441419.820        1105.359          51.000


 128838370.417 6 100393464.639 6  24517109.820    24517117.176
  24517116.539        1569.484        1223.201          38.400          39.900
  96210411.600 7  24517114.813        1172.235          42.300


 113625284.630 8  88539204.450 7  21622171.117    21622176.344
  21622175.926        1322.277        1030.557          50.500          47.900
  84850060.091 7  21622172.648         987.632          47.900


 114057678.921 8  88711536.587 7  21344342.500    21344345.160    21344341.422
  21344345.063       -2663.375       -2071.520          49.500          45.700



 131440964.815 7                  25012384.625
                      2327.230                          44.600
  98154010.027 7  25012396.867        1737.992          42.400   100714544.126 7
  25012395.246        1783.350          44.400    99434288.866 7  25012397.930
      1760.664          46.000
 138936868.467 7                  26438806.563
                      1568.305                          45.700
 103751562.168 7  26438808.121        1171.289          43.100   106458117.207 7
  26438806.461        1201.843          45.600   105104850.480 7  26438809.191
      1186.575          46.800
 124140209.204 8                  23623096.094
                       624.477                          50.100
  92702107.083 8  23623097.406         466.442          49.200    95120416.482 8
  23623095.906         478.616          50.700    93911272.077 8  23623098.453
       472.531          51.100
 120019303.465 8                  22838915.711
                     -1128.621                          48.400
  89624797.685 7  22838916.391        -842.599          47.400    91962828.858 8
  22838914.297        -864.579          49.200    90793825.069 8  22838917.688
      -853.594          49.700
 130492983.530 8                  24831988.633
                     -1715.871                          49.600
  97446061.547 8  24831989.543       -1281.239          48.500    99988125.208 8
  24831987.289       -1314.673          48.900    98717101.166 8  24831990.320
     -1297.943          50.200
 133413650.698 7                  25387770.125
                      1434.359                          45.400
  99627083.488 7  25387773.063        1071.276          43.200   102226050.184 7
  25387771.363        1099.227          45.300   100926583.135 7  25387773.992
      1085.247          46.900
 140202065.083 7                  26679568.508
                     -3063.461                          44.400
 104696345.736 7  26679568.895       -2287.573          42.600   107427546.586 7
  26679567.230       -2347.208          44.600   106061955.457 7  26679569.824
     -2317.392          45.700
 144240888.095 6                  27448128.320
                     -1127.535                          40.100
 107712354.741 6  27448130.215        -841.692          39.100   110522234.878 6
  27448128.109        -863.671          39.700   109117304.591 6  27448130.848
      -852.674          41.500
 144908244.155 6                  27575113.789
                      3010.586                          41.600
 108210665.604 6  27575114.930        2248.285          39.900   111033553.261 7
  27575113.332        2306.913          42.700   109622095.210 7  27575115.906
      2277.602          43.900
 205372449.036 7                  39081087.234
                         5.367                          43.200
 153362443.685 6  39081065.621           4.074          38.200


 201154284.194 7                  38278387.266
                         4.688                          45.200
 150212564.498 7  38278368.160           3.396          42.200


 20  6  3  7 17 30.0000000  0 33S25G14R07G29G24R06R24G02G12R08G19G10
                                R09R18R17G17R05R16G25G06G32R15E24E05
                                E31E09E01E26E04E13E33S23S36
 203976025.177 6                  38875574.953
                       277.383                          40.500



 122136673.491 7  95171500.09544  23241848.828
  23241852.742        2652.723        2067.215          43.200          28.500



 114650869.898 8  89172921.459 7  21417745.883    21417749.734    21417745.516
  21417748.613         967.111         752.189          48.400          46.500



 126794389.868 7  98800930.601 6  24128180.797    24128186.273
  24128186.801        3895.863        3035.816          43.200          38.900



 112776944.599 8  87878054.707 8  21460710.813    21460717.609
  21460717.691       -2385.516       -1858.604          48.300          49.800
  84216449.386 8  21460714.988       -1781.165          50.300


 113345334.744 7                  21240868.492                    21240867.109
                     -2878.785                          43.500



 126707570.448 6  98550370.872 6  23694957.414    23694959.219    23694955.113
  23694959.633       -3288.885       -2557.998          36.700          36.700



 130346366.044 6 101568698.12143  24804107.070
  24804109.801        2205.613        1718.856          38.900          23.900



 105126146.864 8  81916578.311 8  20004856.648    20004859.492
  20004859.355        -565.273        -440.209          50.200          50.700



 130251703.275 6 101306892.138 6  24323587.383    24323590.988    24323587.891
  24323590.215        3642.103        2832.757          40.900          39.000



 123870714.133 7  96522684.91344  23571825.805
  23571826.727       -2898.891       -2258.682          42.800          28.900



 131953843.326 6 102821234.821 6  25109995.148    25110000.684
  25110001.898       -2903.066       -2261.887          37.600          37.700
  98536977.417 6  25109997.766       -2167.645          40.300


 123060124.031 7  95713451.519 6  23045210.906    23045212.523    23045209.883
  23045212.305        3241.415        2521.084          42.200          41.000



 115150147.060 7  89561219.908 7  21571499.906    21571502.633    21571498.961
  21571502.898        3461.452        2692.240          46.200          46.000



 112386944.912 8  87412094.058 7  21002183.500    21002185.281    21002182.391
  21002185.883        -101.342         -78.835          48.400          47.200



 135293184.348 4 105423296.81842  25745447.328
  25745451.078       -3277.371       -2553.622          26.800          13.900



 130995047.310 5 101885041.714 4  24505341.219    24505342.477    24505338.660
  24505343.883       -4524.402       -3518.950          31.600          28.700



 104075163.527 7  80947356.523 7  19483091.930    19483091.785    19483090.703
  19483092.594         400.474         311.487          44.900          46.300



 107375999.178 8  83669787.656 8  20433008.383    20433015.051
  20433014.316        1465.414        1142.167          48.500          48.800
  80183531.627 8  20433012.215        1094.584          50.900


 128791513.496 6 100356952.777 6  24508192.719    24508200.672
  24508199.711        1554.238        1211.352          38.300          40.500
  96175421.100 7  24508197.848        1160.854          42.000


 113585895.591 8  88508511.695 7  21614675.570    21614680.688
  21614680.480        1303.664        1016.135          49.600          47.900
  84820646.203 7  21614677.238         973.786          47.800


 114137686.680 8  88773764.811 7  21359314.531    21359317.105    21359313.762
  21359317.160       -2670.137       -2076.768          48.800          45.400



 131371192.627 7                  24999107.516
                      2324.051                          45.400
  98101907.396 7  24999120.012        1735.639          42.300   100661082.378 7
  24999118.672        1780.909          45.100    99381506.673 7  24999121.105
      1758.287          45.700
 138890001.568 7                  26429887.852
                      1556.090                          44.900
 103716564.164 7  26429889.859        1162.250          43.300   106422206.225 7
  26429888.164        1192.554          45.500   105069395.993 7  26429890.742
      1177.405          46.700
 124121579.360 8                  23619550.906
                       617.395                          50.700
  92688195.176 8  23619552.270         461.221          49.000    95106141.664 8
  23619550.676         473.254          50.300    93897178.710 8  23619553.320
       467.247          51.300
 120053367.042 8                  22845397.680
                     -1142.359                          48.600
  89650234.765 8  22845398.348        -852.817          48.200    91988929.515 8
  22845396.676        -875.058          49.200    90819593.944 8  22845399.789
      -863.945          50.300
 130544524.127 8                  24841796.563
                     -1720.309                          49.300
  97484549.636 8  24841797.461       -1284.474          48.300   100027617.333 8
  24841795.160       -1317.987          48.900    98756091.278 8  24841798.188
     -1301.232          50.700
 133370813.921 7                  25379618.523
                      1421.270                          44.900
  99595095.000 7  25379621.801        1061.675          44.000   102193227.224 7
  25379619.707        1089.346          45.900   100894177.406 7  25379622.426
      1075.502          47.300
 140294022.952 7                  26697066.922
                     -3067.285                          44.100
 104765015.511 7  26697068.051       -2290.294          43.100   107498007.837 7
  26697066.684       -2350.014          43.900   106131520.962 7  26697069.262
     -2320.155          45.600
 144274921.322 6                  27454604.758
                     -1141.508                          40.400
 107737769.177 6  27454607.020        -852.154          39.300   110548312.289 6
  27454604.117        -874.400          38.100   109143050.533 6  27454607.285
      -863.284          41.200
 144817958.533 6                  27557932.313
                      3008.348                          41.600
 108143244.480 6  27557933.879        2246.539          39.200   110964373.355 6
  27557931.711        2305.184          40.700   109553794.731 7  27557935.406
      2275.837          42.800
 205372287.326 7                  39081055.469
                         5.324                          42.400
 153362322.988 6  39081034.828           4.043          37.900


 201154150.366 7                  38278362.625
                         4.066                          44.400
 150212466.786 6  38278343.711           3.306          41.800


 20  6  3  7 18  0.0000000  0 32S25G14R07G29G24R06R24G02G12R08G19G10
                                R09R18R17R05R16G25G06G32R15E24E05E31
                                E09E01E26E04E13E33S23S36
 203967693.103 6                  38875347.922
                       278.070                          41.200



 122057261.919 7  95109620.96444  23226737.578
  23226740.859        2641.289        2058.319          43.000          28.900



 114622272.363 8  89150678.950 7  21412403.984    21412407.172    21412403.180
  21412406.422         940.297         731.346          48.000          47.800



 126677557.790 7  98709892.537 6  24105948.828    24105953.719
  24105953.809        3892.766        3033.421          43.400          38.700



 112848661.893 7  87933938.273 8  21474358.211    21474365.133
  21474365.035       -2395.777       -1866.690          47.900          48.700
  84270004.463 8  21474362.293       -1788.919          50.000


 113432001.216 7                  21257109.273                    21257108.578
                     -2898.311                          42.200



 126806489.177 6  98627307.645 6  23713455.625    23713456.887    23713454.547
  23713457.762       -3305.113       -2570.661          38.900          37.800



 130280311.709 6 101517227.19844  24791537.469
  24791540.500        2197.879        1712.755          40.300          24.800



 105143335.167 8  81929971.799 8  20008127.211    20008130.387
  20008130.176        -580.680        -452.282          50.000          50.800



 130142633.791 6 101222060.258 6  24303220.523    24303223.113    24303220.168
  24303222.809        3629.581        2823.001          41.700          40.600



 123957889.464 7  96590613.70644  23588413.727
  23588415.051       -2912.758       -2269.529          42.200          28.100



 132040986.714 6 102889138.748 6  25126577.758    25126585.063
  25126584.914       -2906.781       -2264.948          38.700          39.900
  98602051.983 6  25126580.727       -2170.546          41.600


 122962925.167 7  95637852.452 7  23027008.516    23027009.613    23027007.613
  23027009.793        3238.581        2518.895          42.200          42.100



 115046561.940 7  89480653.744 7  21552093.828    21552097.738    21552094.074
  21552097.887        3444.750        2679.250          46.100          45.700



 112390422.330 8  87414798.713 7  21002833.016    21002835.734    21002832.227
  21002835.813        -129.547        -100.758          48.600          47.600



 131130729.172 4 101990572.032 4  24530721.867    24530726.516    24530720.383
  24530726.141       -4521.219       -3516.480          29.500          28.300



 104063348.103 7  80938166.743 7  19480879.859    19480879.191    19480879.367
  19480880.820         387.643         301.516          45.300          45.800



 107332249.395 8  83635696.925 8  20424682.898    20424689.488
  20424688.922        1451.074        1130.913          49.300          49.100
  80150861.355 8  20424687.020        1083.791          51.000


 128745113.236 6 100320796.769 6  24499362.984    24499370.871
  24499370.238        1539.016        1199.439          37.700          40.800
  96140771.606 6  24499368.059        1149.483          41.100


 113547062.000 8  88478251.756 8  21607285.305    21607291.109
  21607290.695        1285.184        1001.670          49.400          48.000
  84791647.096 8  21607287.434         959.933          48.200


 114217894.930 8  88836148.962 7  21374324.641    21374326.676    21374323.578
  21374327.313       -2676.855       -2082.003          48.700          46.500



 131301514.520 7                  24985847.922
                      2320.969                          44.700
  98049875.081 7  24985861.270        1733.257          43.400   100607692.661 7
  24985858.559        1778.473          44.000    99328795.663 7  24985861.676
      1755.859          45.600
 138843497.358 7                  26421038.742
                      1544.082                          46.200
 103681837.011 7  26421040.199        1153.184          44.300   106386573.131 7
  26421038.523        1183.260          45.500   105034215.866 7  26421041.316
      1168.221          47.000
 124103158.008 8                  23616045.414
                       610.602                          50.600
  92674438.987 8  23616046.855         456.027          49.600    95092026.608 8
  23616045.297         467.921          50.500    93883243.089 8  23616047.848
       461.974          51.700
 120087839.312 8                  22851957.898
                     -1155.871                          48.900
  89675977.034 7  22851958.598        -862.992          47.400    92015343.337 8
  22851957.047        -885.512          49.000    90845671.980 8  22851959.641
      -874.255          50.300
 130596193.278 8                  24851628.695
                     -1724.473                          48.900
  97523133.725 7  24851629.863       -1287.690          47.800   100067207.967 8
  24851627.398       -1321.281          49.000    98795178.643 8  24851630.535
     -1304.483          50.200
 133328363.092 7                  25371540.406
                      1408.531                          44.800
  99563394.752 7  25371543.648        1052.014          44.500   102160700.010 7
  25371541.305        1079.448          45.100   100862063.675 7  25371544.309
      1065.731          47.200
 140386087.984 7                  26714587.070
                     -3070.633                          44.600
 104833765.344 7  26714587.336       -2292.929          42.400   107568551.102 7
  26714586.313       -2352.769          45.200   106201167.529 7  26714588.391
     -2322.849          46.100
 144309372.538 6                  27461161.266
                     -1155.312                          41.200
 107763495.740 6  27461162.973        -862.575          39.800   110574709.973 6
  27461160.219        -885.058          39.000   109169112.653 7  27461163.414
      -873.831          42.200
 144727741.225 6                  27540764.250
                      3005.984                          39.700
 108075874.436 6  27540767.496        2244.806          41.900   110895245.843 7
  27540764.746        2303.370          42.400   109485545.935 7  27540767.508
      2274.096          44.800
 205372125.325 7                  39081025.047
                         5.328                          42.400
 153362201.874 6  39081004.047           3.994          38.600


 201154021.529 7                  38278338.438
                         4.422                          44.400
 150212372.294 6  38278319.148           2.906          41.600


 20  6  3  7 18 30.0000000  0 31S25G14R07G29G24R06R24G02G12R08G19G10
                                R09R18R17R16G25G06G32R15E24E05E31E09
                                E01E26E04E13E33S23S36
 203959344.384 6                  38875118.531
                       278.121                          41.100



 121978194.590 7  95048010.09444  23211691.469
  23211694.664        2629.684        2049.316          42.900          28.900



 114594480.790 8  89129063.289 7  21407211.609    21407215.059    21407211.301
  21407214.523         913.326         710.365          48.200          47.700



 126560820.477 7  98618928.490 6  24083734.391    24083739.168
  24083738.520        3889.512        3030.867          43.600          38.500



 112920690.205 8  87990064.198 8  21488065.195    21488071.715
  21488071.527       -2406.301       -1874.809          48.200          48.800
  84323791.797 8  21488068.918       -1796.687          49.800


 113519250.935 7                  21273460.531                    21273459.219
                     -2917.705                          43.200



 126905892.294 6  98704621.091 6  23732044.859    23732046.988    23732043.527
  23732046.820       -3321.238       -2583.198          40.500          37.500



 130214493.767 6 101465940.49644  24779012.273
  24779015.672        2189.777        1706.546          38.500          24.700



 105160987.200 8  81943726.625 8  20011486.367    20011489.461
  20011489.195        -596.277        -464.342          50.100          50.700



 130033942.598 6 101137522.708 6  24282922.828    24282924.914    24282922.473
  24282924.891        3616.869        2813.103          41.000          40.700



 124045479.670 7  96658865.77244  23605081.570
  23605083.152       -2926.695       -2280.278          42.700          28.200



 132128245.000 6 102957132.165 6  25143183.461    25143189.219
  25143188.992       -2910.766       -2267.896          37.200          39.100
  98667212.342 6  25143185.207       -2173.398          40.500


 122865811.673 7  95562319.675 6  23008821.469    23008822.969    23008821.285
  23008823.605        3235.682        2516.658          42.600          40.600



 114943478.201 7  89400477.518 7  21532782.969    21532786.172    21532782.797
  21532786.633        3427.957        2666.196          46.400          46.200



 112394745.994 8  87418161.567 7  21003641.656    21003642.785    21003640.371
  21003643.555        -157.771        -122.723          49.100          47.000



 104051917.706 7  80929276.435 7  19478740.063    19478740.328    19478738.988
  19478740.969         374.741         291.476          45.100          46.200



 107288932.678 8  83601943.653 8  20416440.383    20416446.844
  20416446.203        1436.484        1119.643          48.800          48.500
  80118514.470 8  20416444.082        1072.989          50.900


 128699172.500 6 100284998.844 6  24490621.195    24490628.832
  24490627.934        1523.559        1187.480          38.100          40.200
  96106465.275 7  24490625.840        1137.971          42.200


 113508785.981 8  88448426.291 8  21600001.914    21600007.371
  21600006.965        1266.422         987.151          49.300          48.000
  84763064.359 7  21600003.699         946.022          47.900


 114298303.235 8  88898688.724 7  21389371.914    21389374.055    21389371.102
  21389374.563       -2683.512       -2087.185          48.100          46.100



 131231931.102 7                  24972607.047
                      2317.676                          44.800
  97997913.477 7  24972619.453        1730.876          42.800   100554375.513 7
  24972617.617        1776.042          44.600    99276156.294 7  24972620.145
      1753.459          45.600
 138797357.612 7                  26412258.227
                      1531.676                          45.300
 103647382.020 7  26412260.340        1144.074          43.400   106351219.319 7
  26412258.277        1173.898          45.500   104999311.464 7  26412261.223
      1158.990          47.000
 124084945.579 8                  23612579.453
                       603.508                          50.100
  92660838.791 8  23612581.012         450.799          48.800    95078071.622 8
  23612579.555         462.566          50.100    93869465.504 8  23612582.125
       456.680          51.200
 120122720.030 8                  22858595.461
                     -1169.594                          49.000
  89702024.310 7  22858596.684        -873.172          47.300    92042070.104 8
  22858594.918        -895.957          48.600    90872059.000 8  22858597.234
      -884.557          50.100
 130647991.026 8                  24861485.508
                     -1728.891                          48.900
  97561813.847 8  24861486.535       -1290.904          48.100   100106897.143 8
  24861484.039       -1324.582          48.800    98834363.295 8  24861487.359
     -1307.741          50.100
 133286300.129 7                  25363535.969
                      1395.547                          45.100
  99531984.111 7  25363539.258        1042.334          44.300   102128469.921 7
  25363536.793        1069.529          45.000   100830243.319 7  25363539.848
      1055.915          46.700
 140478258.994 7                  26732126.266
                     -3074.273                          44.300
 104902594.279 7  26732127.469       -2295.586          42.800   107639175.619 7
  26732125.602       -2355.482          43.600   106270894.237 7  26732128.238
     -2325.537          45.500
 144344241.427 6                  27467796.313
                     -1169.461                          40.700
 107789534.132 6  27467798.184        -872.980          40.100   110601427.701 6
  27467795.500        -895.779          38.700   109195490.718 6  27467799.008
      -884.380          41.800
 144637594.861 6                  27523609.719
                      3003.508                          40.200
 108008557.374 6  27523611.941        2243.007          40.100   110826172.689 7
  27523610.012        2301.500          42.000   109417350.824 7  27523613.148
      2272.257          43.600
 205371963.917 6                  39080993.797
                         5.219                          41.800
 153362081.187 6  39080973.539           3.959          37.900


 201153889.919 7                  38278313.578
                         4.082                          44.500
 150212282.780 7  38278294.609           3.042          42.000


 20  6  3  7 19  0.0000000  0 31S25G14R07G29G24R06R24G02G12R08G19G10
                                R09R18R17R16G25G06G32R15E24E05E31E09
                                E01E26E04E13E33S23S36
 203950973.761 6                  38874888.266
                       279.363                          40.600



 121899473.619 7  94986669.08044  23196711.406
  23196714.676        2618.234        2040.338          42.900          29.600



 114567495.999 8  89108075.146 7  21402171.469    21402173.754    21402170.551
  21402173.625         886.469         689.455          48.300          47.500



 126444180.087 7  98528039.812 6  24061538.766    24061544.395
  24061544.742        3886.293        3028.385          43.800          39.700



 112993028.476 8  88046431.658 8  21501830.477    21501837.219
  21501836.953       -2416.445       -1882.795          48.100          49.000
  84377810.601 8  21501834.211       -1804.342          49.800


 113607079.474 7                  21289919.453                    21289918.559
                     -2936.947                          42.400



 127005775.236 6  98782307.821 6  23750722.883    23750726.000    23750722.137
  23750725.785       -3337.142       -2595.573          41.200          38.600



 130148914.752 6 101414839.94944  24766533.297
  24766536.191        2181.934        1700.333          40.900          24.100



 105179101.498 8  81957841.664 8  20014933.930    20014936.523
  20014936.270        -611.520        -476.299          48.800          50.300



 129925633.496 6 101053282.403 6  24262696.570    24262698.324    24262696.445
  24262698.770        3604.123        2803.179          40.200          38.900



 124133481.932 7  96727438.92044  23621828.078
  23621829.727       -2940.223       -2290.937          42.200          27.500



 132215614.791 6 103025212.521 6  25159808.359    25159814.398
  25159815.430       -2914.199       -2270.740          38.700          38.600
  98732455.999 6  25159811.160       -2176.093          40.900


 122768783.664 7  95486853.531 6  22990652.305    22990652.711    22990651.688
  22990653.086        3232.891        2514.487          43.700          41.500



 114840900.329 7  89320694.744 7  21513566.805    21513570.242    21513566.426
  21513570.336        3411.063        2653.052          46.200          45.800



 112399915.620 8  87422182.372 7  21004607.492    21004609.219    21004606.840
  21004609.484        -185.930        -144.594          48.600          47.000



 104040872.496 7  80920685.709 7  19476671.891    19476671.820    19476671.473
  19476673.070         362.001         281.572          45.000          45.900



 107246049.101 8  83568527.893 8  20408279.547    20408286.340
  20408285.691        1422.219        1108.409          48.500          49.200
  80086491.023 8  20408283.566        1062.228          50.800


 128653693.218 6 100249560.491 6  24481965.797    24481974.441
  24481973.402        1508.340        1175.439          37.900          41.800
  96072503.510 7  24481971.277        1126.478          43.200


 113471068.809 8  88419036.289 8  21592824.766    21592830.012
  21592829.609        1247.875         972.647          50.000          48.700
  84734898.954 8  21592826.254         932.106          48.000


 114378910.372 8  88961383.150 7  21404456.391    21404458.766    21404455.777
  21404459.227       -2690.085       -2092.308          48.200          45.900



 131162442.388 7                  24959383.000
                      2314.641                          44.700
  97946022.530 7  24959396.637        1728.562          43.500   100501130.953 7
  24959394.215        1773.645          44.700    99223588.538 7  24959397.211
      1751.108          46.200
 138751583.362 7                  26403548.031
                      1519.590                          45.600
 103613199.956 7  26403549.773        1134.996          43.400   106316145.545 7
  26403547.949        1164.586          45.400   104964683.552 7  26403550.672
      1149.788          46.800
 124066941.645 8                  23609153.641
                       596.621                          50.200
  92647394.288 8  23609155.004         445.644          49.300    95064276.391 8
  23609153.496         457.276          50.800    93855845.633 8  23609156.078
       451.458          51.800
 120158008.047 8                  22865310.383
                     -1183.008                          48.500
  89728375.749 7  22865311.965        -883.274          47.800    92069108.964 8
  22865309.539        -906.320          49.000    90898754.151 8  22865312.344
      -894.797          50.300
 130699916.573 8                  24871366.727
                     -1733.055                          49.400
  97600589.407 8  24871367.809       -1294.059          48.000   100146684.238 8
  24871365.195       -1327.813          49.200    98873644.619 8  24871368.496
     -1310.939          50.600
 133244626.162 7                  25355605.836
                      1382.668                          45.100
  99500863.940 7  25355608.855        1032.659          43.800   102096537.923 7
  25355606.801        1059.595          45.100   100798717.230 7  25355609.535
      1046.124          47.200
 140570533.838 7                  26749685.516
                     -3077.617                          44.400
 104971500.786 6  26749686.516       -2298.116          41.600   107709879.668 7
  26749685.254       -2358.053          45.300   106340699.522 7  26749687.516
     -2328.081          46.000
 144379526.708 7                  27474510.938
                     -1183.070                          42.100
 107815883.513 6  27474512.797        -883.318          39.500   110628464.462 6
  27474510.168        -906.362          40.400   109222183.780 7  27474513.719
      -894.843          42.600
 144547521.351 7                  27506470.891
                      3001.172                          42.900
 107941294.704 6  27506472.293        2241.178          40.500   110757155.331 7
  27506469.457        2299.666          42.200   109349210.814 7  27506472.918
      2270.421          43.300
 205371802.966 7                  39080963.828
                         5.293                          42.500
 153361960.912 6  39080943.059           3.984          38.100


 201153765.674 7                  38278288.891
                         3.926                          43.900
 150212183.902 6  38278270.258           3.410          41.600


 20  6  3  7 19 30.0000000  0 32S25G14R07G29G24R06R24G02G12R08G19G10
                                R09R18R17R05R16G25G06G32R15E24E05E31
                                E09E01E26E04E13E33S23S36
 203942588.718 6                  38874658.125
                       279.789                          40.800



 121821101.357 7  94925599.81344  23181797.859
  23181801.035        2606.688        2031.240          43.500          28.700



 114541319.441 8  89087715.601 7  21397281.055    21397283.660    21397280.484
  21397283.684         859.539         668.525          48.200          47.100



 126327639.578 7  98437229.040 6  24039361.313    24039366.227
  24039365.445        3883.113        3025.797          42.100          37.900



 113065675.606 8  88103039.743 8  21515655.039    21515661.551
  21515661.449       -2426.613       -1890.796          48.200          48.600
  84432060.013 8  21515658.730       -1812.021          49.700


 113695483.650 7                  21306486.508                    21306484.918
                     -2955.983                          43.100



 127106134.744 7  98860365.144 6  23769490.422    23769492.875    23769490.320
  23769493.613       -3352.985       -2607.875          42.800          39.000



 130083577.402 6 101363927.75044  24754099.891
  24754102.789        2174.043        1694.035          40.500          24.500



 105197677.264 8  81972316.272 8  20018468.578    20018471.215
  20018471.043        -626.746        -488.265          49.400          50.700



 129817710.845 7 100969342.499 6  24242542.586    24242545.094    24242542.645
  24242545.508        3591.175        2793.127          42.000          39.100



 124221893.448 7  96796330.97744  23638652.008
  23638654.316       -2953.605       -2301.510          42.900          28.000



 132303093.068 6 103093377.376 6  25176454.875    25176461.602
  25176462.195       -2917.570       -2273.503          38.100          38.700
  98797780.675 6  25176457.223       -2178.751          40.600


 122671842.227 7  95411454.632 6  22972497.859    22972499.777    22972497.254
  22972499.320        3230.001        2512.218          43.400          41.500



 114738832.535 7  89241308.697 7  21494446.539    21494449.996    21494445.773
  21494449.816        3394.011        2639.780          46.800          46.300



 112405931.188 8  87426861.154 7  21005731.750    21005733.391    21005731.273
  21005733.641        -214.163        -166.560          48.700          46.600



 131537175.599 4 102306740.31613  24606760.820                    24606758.020
  24606761.035       -4510.967                          29.800          23.200



 104030212.687 7  80912394.755 7  19474676.820    19474676.344    19474675.758
  19474677.730         349.102         271.515          44.700          46.300



 107203599.219 8  83535450.056 8  20400201.984    20400208.430
  20400207.914        1407.938        1097.167          48.300          48.800
  80054791.443 8  20400205.684        1051.442          50.700


 128608677.772 6 100214483.569 6  24473399.242    24473407.152
  24473407.172        1493.039        1163.399          36.900          41.400
  96038888.169 7  24473405.156        1114.905          42.900


 113433912.150 8  88390083.053 7  21585754.016    21585758.953
  21585758.883        1229.352         958.065          50.300          47.900
  84707152.099 8  21585755.590         918.145          48.000


 114459715.930 8  89024231.878 7  21419578.445    21419580.414    21419577.262
  21419581.000       -2696.706       -2097.444          48.200          46.000



 131093048.580 7                  24946178.688
                      2311.680                          43.600
  97894202.552 7  24946191.457        1726.195          43.500   100447959.105 7
  24946188.938        1771.214          44.200    99171092.619 7  24946191.762
      1748.706          45.900
 138706176.011 7                  26394907.078
                      1507.637                          45.300
 103579291.891 7  26394909.070        1125.857          43.600   106281352.927 7
  26394907.254        1155.222          45.300   104930333.200 7  26394909.965
      1140.537          47.100
 124049146.163 8                  23605767.211
                       589.844                          50.500
  92634105.452 8  23605768.672         440.460          48.800    95050640.905 8
  23605767.090         451.947          49.700    93842383.471 8  23605769.730
       446.209          50.800
 120193702.694 8                  22872102.750
                     -1196.492                          49.600
  89755030.822 7  22872104.066        -893.377          47.500    92096459.396 8
  22872101.598        -916.692          48.900    90925756.911 8  22872104.820
      -905.042          50.200
 130751969.540 8                  24881272.227
                     -1737.090                          49.400
  97639460.104 7  24881272.984       -1297.212          47.700   100186568.960 8
  24881270.750       -1331.047          48.800    98913022.328 8  24881273.895
     -1314.130          50.300
 133203342.695 7                  25347749.758
                      1369.797                          45.300
  99470035.390 7  25347752.656        1022.914          43.700   102064905.159 7
  25347750.867        1049.600          45.600   100767486.573 7  25347753.645
      1036.245          47.100
 140662911.054 7                  26767264.594
                     -3080.832                          43.600
 105040483.701 7  26767265.582       -2300.630          43.400   107780662.160 7
  26767263.238       -2360.674          43.000   106410582.223 7  26767266.289
     -2330.642          45.300
 144415227.524 6                  27481304.672
                     -1196.840                          41.200
 107842543.201 6  27481306.328        -893.627          40.100   110655819.647 6
  27481304.176        -916.977          39.900   109249191.209 7  27481307.445
      -905.310          42.500
 144457522.909 6                  27489343.367
                      2998.766                          40.100
 107874088.076 6  27489345.961        2239.345          40.200   110688195.486 7
  27489343.598        2297.744          42.600   109281127.581 7  27489346.609
      2268.531          44.100
 205371642.754 6                  39080933.109
                         5.430                          41.800
 153361841.222 6  39080912.641           4.010          38.400


 201153640.217 7                  38278264.328
                         4.473                          43.800
 150212085.111 6  38278245.379           3.422          41.100


 20  6  3  7 20  0.0000000  0 31S25G14R07G29G24R06R24G02G12R08G19G10
                                R09R18R17R16G25G06G32R15E24E05E31E09
                                E01E26E04E13E33S23S36
 203934192.865 6                  38874424.250
                       280.020                          40.500



 121743080.419 7  94864804.29245  23166950.398
  23166954.105        2594.719        2022.013          43.200          30.200



 114515951.973 8  89067985.346 7  21392542.086    21392545.285    21392541.590
  21392544.773         832.421         647.428          48.700          47.500



 126211201.747 7  98346498.322 6  24017204.242    24017209.449
  24017209.695        3879.418        3023.003          43.400          39.900



 113138631.229 8  88159888.239 8  21529537.844    21529544.262
  21529544.113       -2437.137       -1898.890          48.600          48.700
  84486539.802 8  21529541.715       -1819.754          49.600


 113784458.855 7                  21323160.680                    21323158.992
                     -2975.112                          43.200



 127206966.663 7  98938789.938 6  23788347.055    23788350.281    23788345.910
  23788349.488       -3368.686       -2620.092          42.300          40.500



 130018484.189 6 101313205.80144  24741713.602
  24741716.215        2165.633        1687.612          40.700          25.200



 105216713.024 8  81987149.336 8  20022090.789    20022093.750
  20022093.328        -642.254        -500.263          50.000          50.300



 129710178.370 7 100885706.099 6  24222462.484    24222463.496    24222461.723
  24222464.117        3577.990        2782.919          43.200          37.900



 124310711.247 7  96865539.60944  23655553.586
  23655556.051       -2967.457       -2312.104          42.500          27.700



 132390676.718 6 103161624.334 6  25193122.359    25193128.457
  25193128.922       -2921.387       -2276.233          36.000          38.100
  98863183.995 6  25193124.574       -2181.406          41.100


 122574988.081 7  95336123.669 6  22954360.555    22954361.379    22954359.777
  22954361.285        3226.975        2509.870          43.000          41.400



 114637279.622 7  89162323.151 7  21475421.570    21475424.875    21475421.668
  21475425.293        3376.674        2626.295          46.100          45.900



 112412792.435 8  87432197.695 7  21007014.078    21007016.125    21007012.824
  21007015.813        -242.393        -188.528          49.500          47.200



 104019938.710 7  80904403.878 7  19472753.477    19472753.301    19472752.570
  19472754.293         336.148         261.437          44.100          45.800



 107161583.291 8  83502710.383 8  20392206.461    20392213.176
  20392212.586        1393.219        1085.808          49.000          49.700
  80023415.912 8  20392210.297        1040.572          50.900


 128564128.385 6 100179769.795 6  24464922.016    24464929.691
  24464929.637        1477.094        1151.187          37.300          41.100
  96005620.798 7  24464927.824        1103.229          43.800


 113397317.517 8  88361567.755 7  21578790.242    21578795.652
  21578795.344        1210.410         943.385          50.400          47.600
  84679824.934 7  21578791.801         904.072          47.900


 114540719.140 8  89087234.345 7  21434737.023    21434739.379    21434736.238
  21434739.742       -2703.342       -2102.590          48.500          46.000



 131023749.976 7                  24932991.828
                      2308.238                          45.900
  97842453.595 7  24933003.895        1723.772          42.800   100394860.173 7
  24933002.098        1768.720          45.200    99118668.678 7  24933004.605
      1746.253          46.600
 138661136.812 7                  26386336.320
                      1495.047                          44.000
 103545658.752 7  26386338.336        1116.591          43.600   106246842.395 7
  26386336.457        1145.721          45.900   104896261.368 7  26386339.301
      1131.162          47.500
 124031559.005 8                  23602420.398
                       582.652                          50.100
  92620972.185 8  23602422.008         435.216          48.900    95037165.024 8
  23602420.391         446.561          50.200    93829078.896 8  23602422.969
       440.890          51.200
 120229803.104 8                  22878972.320
                     -1210.168                          49.000
  89781988.926 7  22878973.340        -903.532          47.800    92124120.746 8
  22878970.996        -927.102          48.400    90953066.633 8  22878974.488
      -915.325          50.000
 130804149.413 8                  24891201.734
                     -1741.562                          49.400
  97678425.582 8  24891202.426       -1300.436          48.000   100226550.928 8
  24891200.324       -1334.356          48.900    98952496.051 8  24891203.441
     -1317.389          50.200
 133162451.064 7                  25339968.352
                      1356.383                          44.900
  99439499.440 7  25339971.531        1013.072          43.700   102033572.612 7
  25339969.289        1039.510          45.300   100736552.329 7  25339972.219
      1026.293          47.000
 140755388.700 7                  26784862.086
                     -3084.336                          44.400
 105109541.646 6  26784863.047       -2303.164          41.700   107851521.646 7
  26784862.453       -2363.277          44.600   106480540.953 7  26784864.500
     -2333.228          46.000
 144451342.936 7                  27488177.445
                     -1210.957                          42.300
 107869512.468 6  27488178.801        -904.019          40.200   110683492.434 6
  27488176.816        -927.581          40.800   109276512.244 7  27488180.016
      -915.800          43.000
 144367601.642 6                  27472232.586
                      2995.898                          40.700
 107806939.158 6  27472233.793        2237.299          39.900   110619294.834 7
  27472231.945        2295.665          42.500   109213102.785 7  27472235.176
      2266.490          43.800
 205371482.848 7                  39080902.656
                         5.207                          42.800
 153361721.660 6  39080882.371           3.930          38.600


 201153507.696 7                  38278239.109
                         4.402                          44.500
 150211989.651 6  38278220.699           3.147          41.400


 20  6  3  7 20 30.0000000  0 31S25G14R07G29G24R06R24G02G12R08G19G10
                                R09R18R17R16G25G06G32R15E24E05E31E09
                                E01E26E04E13E33S23S36
 203925785.853 6                  38874187.813
                       280.336                          40.700



 121665413.019 7  94804284.26644  23152171.117
  23152174.484        2583.047        2012.880          43.800          29.600



 114491395.239 8  89048885.670 7  21387955.008    21387958.020    21387954.496
  21387957.430         805.510         626.514          48.700          47.800



 126094868.895 7  98255849.299 6  23995067.117    23995071.793
  23995071.770        3875.977        3020.302          44.700          39.100



 113211894.656 7  88216976.589 8  21543479.922    21543486.145
  21543486.047       -2447.195       -1906.796          47.300          48.800
  84541249.465 8  21543483.227       -1827.347          49.400


 113874001.419 7                  21339940.430                    21339939.438
                     -2993.832                          42.600



 127308267.017 7  99017579.104 6  23807290.805    23807293.168    23807290.082
  23807293.477       -3384.169       -2632.147          43.400          40.700



 129953638.060 6 101262676.35644  24729373.648
  24729376.219        2157.500        1681.212          40.600          25.800



 105236208.012 8  82002340.233 8  20025800.719    20025803.195
  20025802.984        -657.375        -512.110          49.300          50.000



 129603040.125 7 100802376.408 6  24202454.703    24202456.957    24202454.820
  24202457.461        3564.894        2772.685          43.700          40.700



 124399932.687 7  96935062.77344  23672531.711
  23672533.789       -2980.629       -2322.461          42.500          26.900



 132478362.821 6 103229951.165 6  25209808.109    25209814.613
  25209814.934       -2924.586       -2278.836          37.600          37.600
  98928663.875 6  25209810.645       -2183.877          40.300


 122478221.939 7  95260861.108 7  22936238.500    22936241.297    22936238.824
  22936240.805        3224.129        2507.657          43.500          42.600



 114536246.018 7  89083741.442 7  21456494.875    21456498.066    21456494.488
  21456498.449        3359.409        2612.892          46.300          45.800



 112420499.508 8  87438192.104 7  21008454.234    21008455.500    21008453.211
  21008455.938        -270.494        -210.389          49.300          46.200



 104010050.432 7  80896712.989 7  19470902.289    19470901.676    19470901.496
  19470903.305         323.392         251.530          44.600          46.000



 107120001.805 8  83470309.224 8  20384293.805    20384300.473
  20384299.855        1378.875        1074.595          49.100          49.400
  79992364.801 8  20384297.535        1029.821          50.700


 128520047.331 5 100145420.988 6  24456533.484    24456541.824
  24456541.152        1461.590        1139.085          35.600          40.200
  95972703.220 7  24456539.348        1091.617          43.500


 113361286.540 8  88333491.668 8  21571933.695    21571938.871
  21571938.758        1191.695         928.796          49.900          48.400
  84652918.668 7  21571935.418         890.101          47.500


 114621919.197 8  89150389.923 7  21449932.602    21449934.824    21449931.777
  21449935.277       -2709.830       -2107.656          48.500          46.600



 130954546.771 7                  24919821.852
                      2305.141                          43.900
  97790775.899 7  24919835.641        1721.450          43.300   100341834.387 7
  24919832.895        1766.349          44.600    99066316.939 7  24919835.969
      1743.906          46.500
 138616467.144 7                  26377836.164
                      1482.914                          44.200
 103512301.528 7  26377838.289        1107.449          43.800   106212614.980 7
  26377836.266        1136.345          45.800   104862469.045 7  26377838.922
      1121.908          46.900
 124014180.136 8                  23599113.453
                       575.867                          50.500
  92607994.452 8  23599114.891         430.109          48.200    95023848.743 8
  23599113.270         441.309          49.800    93815931.895 8  23599115.887
       435.704          50.200
 120266308.538 8                  22885919.156
                     -1223.512                          48.500
  89809249.441 7  22885919.816        -913.532          47.600    92152092.411 8
  22885918.176        -937.369          49.000    90980682.728 8  22885921.273
      -925.452          50.300
 130856455.791 8                  24901155.164
                     -1745.594                          49.700
  97717485.523 8  24901156.129       -1303.513          48.400   100266629.834 8
  24901153.883       -1337.511          48.800    98992065.475 8  24901157.035
     -1320.516          50.100
 133121952.682 7                  25332261.789
                      1343.438                          45.500
  99409257.135 7  25332264.910        1003.347          43.800   102002541.376 7
  25332262.664        1029.514          44.700   100705915.559 7  25332265.570
      1016.435          46.500
 140847965.287 7                  26802479.398
                     -3087.523                          44.800
 105178673.499 7  26802480.203       -2305.570          42.200   107922456.869 7
  26802477.977       -2365.699          43.600   106550574.472 7  26802480.871
     -2335.620          45.400
 144487872.020 6                  27495128.313
                     -1224.340                          41.900
 107896790.695 6  27495129.711        -914.242          39.900   110711482.275 6
  27495128.250        -938.101          41.100   109304146.264 7  27495131.105
      -926.164          43.100
 144277759.848 6                  27455136.031
                      2993.414                          41.600
 107739849.473 6  27455138.098        2235.376          40.500   110550455.027 7
  27455136.047        2293.662          42.800   109145138.058 7  27455138.875
      2264.507          43.900
 205371323.281 7                  39080872.859
                         5.324                          43.000
 153361602.149 6  39080852.172           4.019          38.000


 201153377.807 7                  38278215.109
                         4.125                          43.600
 150211895.555 6  38278196.434           3.013          41.600


 20  6  3  7 21  0.0000000  0 31S25G14R07G29G24R06R24G02G12R08G19G10
                                R09R18R17R16G25G06G32R15E24E05E31E09
                                E01E26E04E13E33S23S36
 203917366.603 6                  38873946.047
                       281.266                          40.800



 121588101.479 7  94744041.52644  23137459.305
  23137462.520        2571.152        2003.648          42.700          29.200



 114467649.782 8  89030417.002 7  21383518.430    21383521.617    21383518.359
  21383521.500         778.510         605.501          48.400          47.700



 125978643.864 7  98165284.434 6  23972949.742    23972954.363
  23972953.953        3872.352        3017.526          44.200          38.300



 113285463.962 8  88274303.299 8  21557479.430    21557485.977
  21557485.684       -2457.352       -1914.679          48.300          49.100
  84596187.566 8  21557483.133       -1834.909          49.300


 113964106.741 7                  21356826.109                    21356824.770
                     -3012.480                          43.000



 127410031.892 7  99096729.483 6  23826321.039    23826323.574    23826320.516
  23826323.930       -3399.558       -2644.106          43.000          40.100



 129889041.201 6 101212341.18344  24717080.891
  24717083.773        2149.031        1674.721          39.500          24.700



 105256160.669 8  82017887.761 8  20029597.531    20029600.230
  20029599.867        -672.629        -523.947          49.100          50.100



 129496299.373 7 100719355.815 6  24182521.109    24182524.066    24182521.477
  24182524.102        3551.593        2762.347          43.000          40.400



 124489554.544 6  97004897.94844  23689587.344
  23689587.973       -2993.926       -2332.791          41.500          26.400



 132566147.917 6 103298355.095 6  25226513.031    25226519.320
  25226519.898       -2927.742       -2281.319          37.400          39.900
  98994217.660 6  25226515.797       -2186.254          40.900


 122381544.161 7  95185667.327 7  22918133.477    22918135.609    22918133.691
  22918135.695        3221.213        2505.379          43.900          42.100



 114435735.830 7  89005566.912 7  21437666.117    21437669.000    21437665.574
  21437669.242        3341.905        2599.273          45.700          46.500



 112429051.740 8  87444843.835 7  21010052.289    21010054.520    21010051.387
  21010054.254        -298.619        -232.248          49.100          46.900



 104000548.130 7  80889322.293 7  19469123.539    19469123.230    19469122.582
  19469124.391         310.564         241.560          44.500          46.000



 107078854.763 8  83438246.600 8  20376463.797    20376470.195
  20376469.809        1364.355        1063.328          48.900          49.400
  79961638.117 8  20376467.590        1019.024          50.700


 128476436.526 5 100111438.662 6  24448234.781    24448242.480
  24448241.609        1445.926        1126.852          35.400          39.000
  95940136.825 7  24448240.355        1079.902          43.800


 113325820.337 8  88305855.665 7  21565184.586    21565190.254
  21565189.738        1172.883         914.147          50.800          47.900
  84626434.171 7  21565186.336         876.055          47.800


 114703315.169 8  89213697.864 7  21465164.250    21465166.574    21465163.848
  21465167.512       -2716.297       -2112.657          48.400          46.100



 130885438.885 7                  24906671.422
                      2302.055                          44.600
  97739169.423 7  24906684.441        1719.083          43.700   100288881.588 7
  24906681.645        1763.955          44.600    99014037.291 7  24906684.781
      1741.530          46.000
 138572167.919 7                  26369406.109
                      1470.609                          44.600
 103479220.976 7  26369407.965        1098.252          44.200   106178671.457 7
  26369406.355        1126.897          45.900   104828957.003 7  26369409.020
      1112.579          47.300
 123997009.082 8                  23595845.906
                       568.934                          50.300
  92595171.923 8  23595847.293         424.955          48.600    95010691.700 8
  23595845.820         436.049          50.400    93802942.104 8  23595848.328
       430.508          51.100
 120303217.815 8                  22892942.805
                     -1236.969                          48.900
  89836811.555 7  22892943.961        -923.554          47.400    92180373.539 8
  22892942.527        -947.631          48.900    91008604.341 8  22892944.871
      -935.596          50.100
 130908887.885 8                  24911132.680
                     -1749.805                          49.400
  97756639.343 8  24911133.613       -1306.599          48.300   100306805.062 8
  24911131.598       -1340.682          49.300    99031729.992 8  24911134.520
     -1323.631          50.500
 133081848.575 7                  25324630.117
                      1330.348                          45.300
  99379309.264 7  25324633.395         993.526          43.800   101971812.250 7
  25324631.129        1019.462          45.200   100675577.037 7  25324633.984
      1006.519          46.800
 140940638.627 7                  26820114.133
                     -3090.645                          44.300
 105247877.509 7  26820115.484       -2307.933          42.400   107993466.296 7
  26820114.102       -2368.113          44.600   106620681.197 7  26820116.496
     -2338.033          45.800
 144524813.567 6                  27502158.180
                     -1238.172                          41.200
 107924376.919 6  27502159.555        -924.451          39.900   110739788.114 6
  27502158.324        -948.584          41.500   109332092.316 7  27502160.785
      -936.522          42.700
 144187999.350 6                  27438053.922
                      2990.617                          39.900
 107672820.554 6  27438056.988        2233.334          40.400   110481677.482 7
  27438054.984        2291.602          42.800   109077234.810 7  27438057.910
      2262.472          44.200
 205371165.152 7                  39080843.141
                         5.242                          42.300
 153361484.194 6  39080822.160           3.935          37.600


 201153251.227 7                  38278190.375
                         4.242                          43.400
 150211798.699 6  38278172.121           3.444          41.600


 20  6  3  7 21 30.0000000  0 31S25G14R07G29G24R06R24G02G12R08G19G10
                                R09R18R17R16G25G06G32R15E24E05E31E09
                                E01E26E04E13E33S23S36
 203908932.236 6                  38873698.969
                       281.723                          41.500



 121511148.053 7  94684077.84044  23122815.438
  23122818.531        2559.121        1994.285          43.400          28.400



 114444716.781 8  89012580.223 7  21379234.148    21379238.129    21379234.168
  21379237.570         751.383         584.405          48.400          47.900



 125862529.146 7  98074805.417 6  23950854.289    23950859.473
  23950860.371        3868.668        3014.567          43.600          40.500



 113359338.229 7  88331867.649 8  21571537.688    21571543.910
  21571543.574       -2467.477       -1922.621          47.600          49.200
  84651353.396 8  21571540.652       -1842.511          49.500


 114054770.820 7                  21373817.180                    21373815.203
                     -3031.068                          42.800



 127512257.129 7  99176238.016 6  23845438.086    23845440.074    23845436.953
  23845440.359       -3414.846       -2655.962          42.000          39.600



 129824696.394 6 101162202.38944  24704836.563
  24704839.996        2140.516        1668.128          40.500          25.600



 105276569.777 8  82033790.951 8  20033481.109    20033484.133
  20033483.680        -687.836        -535.811          49.600          50.500



 129389960.669 7 100636647.981 6  24162663.063    24162665.414    24162663.504
  24162665.320        3538.155        2751.894          43.400          38.100



 124579573.942 6  97075042.88644  23706716.336
  23706718.672       -3007.125       -2343.106          41.200          28.100



 132654028.989 6 103366833.856 6  25243236.563    25243242.094
  25243243.109       -2930.871       -2283.822          37.500          37.500
  99059843.096 6  25243238.543       -2188.637          40.300


 122284955.370 7  95110542.723 7  22900046.711    22900047.879    22900045.680
  22900048.090        3218.209        2503.054          43.000          42.600



 114335753.498 7  88927802.909 7  21418936.203    21418939.051    21418934.898
  21418939.266        3324.195        2585.484          46.300          46.300



 112438448.721 8  87452152.597 7  21011808.688    21011810.301    21011807.379
  21011810.414        -326.842        -254.197          48.700          46.800



 103991431.514 7  80882231.595 7  19467417.047    19467417.234    19467415.824
  19467417.785         297.680         231.530          44.300          46.200



 107038142.380 8  83406522.670 8  20368716.469    20368723.117
  20368722.387        1349.906        1052.019          48.700          49.400
  79931236.019 8  20368720.164        1008.181          50.800


 128433298.113 6 100077824.349 6  24440026.406    24440034.125
  24440033.102        1430.203        1114.546          38.900          37.900
  95907923.108 7  24440031.316        1068.089          42.300


 113290920.336 8  88278660.868 7  21558543.961    21558548.957
  21558548.344        1153.973         899.390          50.300          47.900
  84600372.490 7  21558545.219         861.915          47.800


 114784906.283 8  89277157.600 7  21480433.328    21480436.164    21480432.613
  21480436.070       -2722.815       -2117.750          48.100          46.400



 130816426.421 7                  24893538.234
                      2298.871                          43.500
  97687634.141 7  24893551.617        1716.681          42.700   100236001.931 7
  24893549.543        1761.509          44.900    98961829.834 7  24893552.250
      1739.091          45.900
 138528240.363 7                  26361046.602
                      1458.098                          44.700
 103446417.927 7  26361049.117        1088.959          44.600   106145012.654 7
  26361047.008        1117.384          46.300   104795726.092 7  26361049.953
      1103.168          47.000
 123980045.607 8                  23592617.742
                       562.023                          50.100
  92582504.398 8  23592619.285         419.762          48.800    94997693.726 8
  23592617.691         430.708          50.100    93790109.360 8  23592620.285
       425.237          50.800
 120340529.985 8                  22900043.133
                     -1250.344                          49.100
  89864674.531 7  22900044.668        -933.597          47.600    92208963.383 8
  22900042.887        -957.946          49.100    91036830.748 8  22900045.160
      -945.766          50.100
 130961445.115 8                  24921133.969
                     -1753.934                          49.300
  97795886.612 8  24921134.973       -1309.727          48.500   100347076.173 8
  24921132.926       -1343.889          48.800    99071489.183 8  24921135.859
     -1326.804          50.100
 133042140.015 7                  25317073.844
                      1317.051                          45.200
  99349656.749 7  25317077.051         983.658          43.600   101941386.197 7
  25317074.773        1009.322          45.200   100645537.770 7  25317077.715
       996.482          47.000
 141033406.873 7                  26837767.492
                     -3093.809                          44.600
 105317152.502 7  26837768.105       -2310.289          42.000   108064548.385 7
  26837766.609       -2370.566          43.900   106690859.731 7  26837769.270
     -2340.426          45.000
 144562166.481 6                  27509266.289
                     -1251.910                          40.600
 107952270.294 6  27509267.980        -934.719          40.200   110768409.144 7
  27509266.145        -959.105          42.100   109360349.498 7  27509268.691
      -946.886          43.200
 144098322.103 7                  27420990.742
                      2987.754                          42.100
 107605853.861 6  27420992.105        2231.201          41.100   110412963.818 7
  27420990.195        2289.420          43.100   109009394.628 7  27420992.891
      2260.326          44.600
 205371008.289 7                  39080812.625
                         5.348                          42.200
 153361367.537 6  39080792.102           3.935          38.600


 201153122.654 7                  38278166.578
                         4.406                          43.800
 150211700.229 6  38278147.547           3.316          41.700


