     3.03           OBSERVATION DATA    M                   RINEX VERSION / TYPE
sbf2rin-12.3.1                          20181106 200225 UTC PGM / RUN BY / DATE
BRUX                                                        MARKER NAME
13101M010                                                   MARKER NUMBER
GEODETIC                                                    MARKER TYPE
ROB                 ROB                                     OBSERVER / AGENCY
3001376             SEPT POLARX4TR      2.9.6               REC # / TYPE / VERS
00464               JAVRINGANT_DM   NONE                    ANT # / TYPE
  4027881.8478   306998.2610  4919498.6554                  APPROX POSITION XYZ
        0.4689        0.0000        0.0010                  ANTENNA: DELTA H/E/N
G   14 C1C L1C S1C C1W S1W C2W L2W S2W C2L L2L S2L C5Q L5Q  SYS / # / OBS TYPES
       S5Q                                                  SYS / # / OBS TYPES
E   12 C1C L1C S1C C5Q L5Q S5Q C7Q L7Q S7Q C8Q L8Q S8Q      SYS / # / OBS TYPES
R   12 C1C L1C S1C C2P L2P S2P C2C L2C S2C C3Q L3Q S3Q      SYS / # / OBS TYPES
C    6 C2I L2I S2I C7I L7I S7I                              SYS / # / OBS TYPES
SEPTENTRIO RECEIVERS OUTPUT ALIGNED CARRIER PHASES.         COMMENT
NO FURTHER PHASE SHIFT APPLIED IN THE RINEX ENCODER.        COMMENT
G L1C                                                       SYS / PHASE SHIFT
G L2W                                                       SYS / PHASE SHIFT
G L2L  0.00000                                              SYS / PHASE SHIFT
G L5Q  0.00000                                              SYS / PHASE SHIFT
E L1C  0.00000                                              SYS / PHASE SHIFT
E L5Q  0.00000                                              SYS / PHASE SHIFT
E L7Q  0.00000                                              SYS / PHASE SHIFT
E L8Q  0.00000                                              SYS / PHASE SHIFT
R L1C                                                       SYS / PHASE SHIFT
R L2P  0.00000                                              SYS / PHASE SHIFT
R L2C                                                       SYS / PHASE SHIFT
R L3Q  0.00000                                              SYS / PHASE SHIFT
C L2I                                                       SYS / PHASE SHIFT
C L7I                                                       SYS / PHASE SHIFT
    30.000                                                  INTERVAL
  2018    11     6    19     0    0.0000000     GPS         TIME OF FIRST OBS
  2018    11     6    19    59   30.0000000     GPS         TIME OF LAST OBS
    43                                                      # OF SATELLITES
 C1C    0.000 C2C    0.000 C2P    0.000                     GLONASS COD/PHS/BIS
DBHZ                                                        SIGNAL STRENGTH UNIT
 11 R03  5 R04  6 R05  1 R06 -4 R13 -2 R14 -7 R15  0 R16 -1 GLONASS SLOT / FRQ #
    R22 -3 R23  3 R24  2                                    GLONASS SLOT / FRQ #
                                                            END OF HEADER
> 2018 11 06 19 00  0.0000000  0 31
C05  40278058.411 5 209738433.88205        35.000    40278053.546 6 162183054.61506        38.500
C10  39899167.919 6 207765467.14406        36.500    39899163.943 6 160657440.43806        40.000
C14  23592315.462 7 122851404.37907        43.500    23592312.173 8  94996489.69408        48.500
C18  40682893.411 6 211846535.82906        36.500
C24  22035687.055 8 114745651.85508        52.000
C25  25987556.245 5 135324023.84505        33.000
C26  22200013.345 8 115601347.71408        51.000
C29  25871433.174 6 134719354.13106        39.000
E07  25651683.364 7 134800539.63407        44.000    25651687.670 7 100662776.93007        47.250    25651683.773 7 103288744.64507        47.250    25651685.037 8 101975746.29508        50.250
E11                                                                                                                                                  27029845.740 4 107454466.60604        28.250
E19  25311692.795 6 133013852.19406        40.250    25311694.166 7  99328538.68907        43.250    25311690.663 7 101919704.00907        43.750    25311691.779 7 100624126.35407        46.500
E20  22407731.374 7 117753428.36707        42.250
E21  26253644.414 7 137963840.23007        42.000    26253648.089 7 103024969.13807        45.750    26253643.944 7 105712563.02407        44.750    26253645.515 8 104368764.09308        48.250
E27  23151127.336 8 121660042.13008        49.500    23151130.364 8  90850070.76308        53.750    23151126.610 8  93220054.38108        53.750    23151127.924 9  92035060.07809        56.750
E30  23301645.064 7 122451035.38307        46.000    23301647.971 8  91440752.57208        49.750    23301644.130 8  93826142.79508        49.750    23301645.456 8  92633444.18908        52.750
G05  24148980.351 6 126903771.43806        40.750    24148980.329 4        25.250    24148979.790 4  98886051.56404        25.250    24148980.141 6  98886040.56606        38.250
G13  20319006.082 8 106777151.40808        49.750    20319005.854 7        45.000    20319003.204 7  83202982.91307        45.000
G15  20676737.504 8 108657012.53008        52.000    20676737.526 7        45.000    20676734.835 7  84667802.19907        45.000    20676735.039 8  84667808.19908        48.250
G17  24268008.736 6 127529257.27106        41.500    24268008.602 4        24.250    24268006.582 4  99373434.55304        24.250    24268006.694 6  99373437.56506        36.750
G20  23406070.701 6 122999735.42506        38.750    23406069.865 3        21.500    23406066.916 3  95843935.49703        21.500
G24  22372616.851 7 117568919.09607        43.000    22372616.904 5        32.500    22372617.253 5  91612143.13305        32.500    22372617.696 7  91612138.13907        44.500    22372618.980 8  87794975.92608        49.750
G28  21738049.490 8 114234256.86708        48.000    21738048.851 6        38.000    21738046.420 6  89013715.22306        38.000
G30  23566304.820 7 123841837.95007        42.500    23566304.279 4        27.750    23566305.325 4  96500173.15004        27.750    23566305.080 6  96500169.15806        40.250    23566306.201 7  92479341.91407        45.000
R03  22941264.290 6 122806392.15306        40.250    22941265.059 6  95516116.36606        41.500    22941265.419 6  95516110.36006        40.750
R04  19474276.830 8 104283877.09908        51.500    19474276.741 8  81109702.06708        51.000    19474276.717 8  81109716.06608        50.000
R05  20382278.367 8 108954963.83708        50.250    20382278.949 8  84742767.68308        49.250    20382278.957 8  84742756.67808        48.500
R13  21776089.506 6 116283164.21706        40.250    21776090.214 6  90442485.75506        41.750    21776091.152 6  90442488.76606        41.500
R14  19214800.198 8 102425753.70108        51.250    19214802.036 8  79664504.85308        51.000    19214802.163 8  79664490.85008        50.250
R15  20245911.746 8 108188052.54008        48.500    20245915.017 6  84146269.22206        41.500    20245915.248 6  84146273.23906        41.250
R22  23189673.405 6 123788048.07506        41.000    23189674.671 6  96279604.97606        40.250    23189675.328 6  96279539.98106        40.000
R23  23544646.016 6 125947984.26606        39.750    23544649.992 5  97959556.99105        33.000    23544649.033 5  97959481.98705        33.500
> 2018 11 06 19 00 30.0000000  0 30
C05  40277819.057 5 209737186.71405        35.250    40277814.444 6 162182090.20406        39.000
C10  39904948.095 6 207795567.92306        36.250    39904944.786 6 160680716.26906        39.750
C14  23609438.688 7 122940574.52907        43.500    23609436.004 8  95065441.69308        48.750
C18  40689124.585 6 211878983.54706        37.000
C24  22028015.764 8 114705704.83808        52.000
C25  25970063.784 6 135232938.21606        36.750
C26  22208952.503 8 115647895.73308        50.750
C29  25869661.063 6 134710122.58206        40.250
E07  25667148.955 7 134881813.17407        44.500    25667153.408 7 100723468.19107        47.250    25667149.499 7 103351019.15407        47.000    25667151.002 8 102037229.18008        50.250
E19  25299844.542 6 132951590.19106        40.000    25299846.079 7  99282044.34107        43.250    25299842.708 7 101871996.76607        44.000    25299843.715 7 100577025.55807        46.500
E20  22409671.722 7 117763624.58407        42.500
E21  26238274.096 7 137883069.18407        42.250    26238277.555 7 102964653.13007        45.000    26238274.037 7 105650673.56307        45.750    26238275.251 8 104307661.34708        48.250
E27  23148160.709 8 121644452.24008        49.250    23148163.712 8  90838428.96608        53.250    23148159.933 8  93208108.88508        53.750    23148161.261 9  92023266.43109        56.500
E30  23313447.820 7 122513059.77607        45.750    23313450.839 8  91487069.48708        49.500    23313447.012 8  93873667.97708        49.500    23313448.313 8  92680365.23608        52.500
G05  24170159.828 7 127015065.86707        43.500    24170159.779 3        23.500    24170157.457 3  98972774.47603        23.500    24170157.592 6  98972763.49406        36.250
G13  20324751.754 8 106807344.77108        49.500    20324751.522 7        45.000    20324748.886 7  83226510.20007        45.000
G15  20669901.148 8 108621087.32608        52.000    20669901.170 7        44.750    20669898.480 7  84639808.53107        44.750    20669898.785 8  84639814.52008        48.250
G17  24252352.505 6 127446983.77106        41.750    24252352.376 4        24.000    24252350.456 4  99309325.37804        24.000    24252350.780 6  99309328.37306        37.250
G20  23395270.466 6 122942983.26606        38.500    23395269.653 3        22.000    23395267.657 3  95799713.04603        22.000
G24  22356385.317 7 117483620.80707        42.500    22356385.352 5        32.500    22356385.902 5  91545676.95605        32.500    22356385.670 7  91545671.96207        44.500    22356386.973 8  87731279.17208        49.500
G28  21747504.151 7 114283941.48407        47.750    21747503.517 6        37.750    21747501.054 6  89052430.50906        37.750
G30  23584154.530 7 123935638.50907        42.500    23584153.976 4        27.500    23584154.973 4  96573264.47304        27.500    23584154.960 6  96573260.48006        39.750    23584156.096 7  92549387.76107        45.000
R03  22966166.459 6 122939702.53506        40.250    22966168.299 6  95619802.20706        41.000    22966168.363 6  95619796.19006        40.500
R04  19484042.697 8 104336171.82308        52.000    19484042.357 8  81150375.72308        50.750    19484042.170 8  81150389.72208        50.000
R05  20368506.764 8 108881348.31208        49.750    20368507.442 8  84685511.16208        49.000    20368507.530 8  84685500.16308        48.500    20368591.658 7  81668348.76317        43.500
R13  21795989.466 6 116389431.94006        40.500    21795990.414 6  90525138.43606        41.000    21795990.739 6  90525141.42706        40.500
R14  19217884.532 8 102442195.04508        51.500    19217886.418 8  79677292.56608        51.250    19217886.510 8  79677278.56608        50.500
R15  20232582.290 8 108116824.16808        48.500    20232585.235 6  84090869.39806        41.250    20232585.751 6  84090873.38806        41.000
R22  23192181.497 6 123801434.60906        41.750    23192182.441 6  96290016.73406        40.250    23192181.976 6  96289951.71606        40.250
R23  23527759.931 6 125857653.80006        41.750    23527763.616 5  97889299.99405        33.000    23527761.442 5  97889225.00605        33.000
> 2018 11 06 19 01  0.0000000  0 31
C05  40277579.035 5 209735937.49405        35.500    40277574.677 6 162181124.23306        38.750
C10  39910730.373 5 207825682.16605        35.500    39910727.916 6 160704002.52006        39.750
C14  23626613.258 7 123030006.04207        43.000    23626610.599 8  95134595.79308        48.500
C18  40695352.565 6 211911416.86106        36.250
C24  22020407.309 8 114666085.91408        52.000
C25  25952586.963 5 135141942.76905        33.000
C26  22217944.533 8 115694720.00808        51.000
C29  25867982.415 6 134701383.19706        40.250
E07  25682652.132 7 134963282.53207        44.500    25682656.434 7 100784305.67407        46.750    25682652.850 7 103413443.70307        47.250    25682654.091 8 102098860.19608        50.000
E11                                                                                                                                                  27044622.794 4 107513211.63804        28.000
E19  25288043.470 6 132889574.36006        40.250    25288044.892 7  99235733.81607        43.250    25288041.379 7 101824478.13907        43.500    25288042.521 7 100530110.98407        46.500
E20  22411685.367 7 117774206.94307        42.750
E21  26222936.944 7 137802471.10107        42.500    26222940.721 7 102904466.25707        45.500    26222936.851 7 105588916.60607        45.750    26222938.172 8 104246689.44008        48.500
E27  23145259.770 8 121629207.89608        49.500    23145262.794 8  90827045.21008        53.500    23145259.023 8  93196428.15808        53.750    23145260.350 9  92011734.18909        56.500
E30  23325290.032 7 122575290.66307        46.000    23325292.906 8  91533540.59608        49.500    23325289.241 8  93921351.37908        49.500    23325290.471 8  92727442.49408        52.500
G05  24191352.147 6 127126435.39606        39.500    24191352.080 4        24.500    24191350.779 4  99059555.93704        24.500    24191351.832 6  99059544.93406        39.250
G13  20330586.567 8 106838007.50908        50.000    20330586.339 7        44.750    20330583.754 7  83250403.24307        44.750
G15  20663156.832 8 108585646.49208        52.000    20663156.845 7        45.250    20663154.316 7  84612192.29607        45.250    20663154.684 8  84612198.29208        48.500
G17  24236739.593 7 127364936.89207        42.500    24236739.482 4        24.000    24236737.880 4  99245392.77604        24.000    24236737.335 6  99245395.74806        36.750
G20  23384568.823 6 122886742.52806        38.750    23384568.010 3        22.000    23384565.369 3  95755889.08703        22.000
G24  22340198.068 7 117398555.76707        43.000    22340198.117 5        32.500    22340198.289 5  91479392.52205        32.500    22340198.452 7  91479387.53107        43.750    22340199.792 8  87667756.59308        49.750
G28  21757042.535 8 114334066.39508        48.000    21757041.901 6        38.000    21757039.441 6  89091488.88606        38.000
G30  23602024.969 7 124029547.24007        42.500    23602024.428 4        28.000    23602025.102 4  96646440.09704        28.000    23602024.805 6  96646436.10106        40.250    23602026.048 7  92619514.39907        44.500
R03  22991105.424 6 123073198.17806        41.750    22991106.100 6  95723632.10406        40.500    22991105.847 6  95723626.11606        40.500
R04  19493945.713 8 104389201.74508        52.000    19493945.168 8  81191621.20408        50.750    19493945.299 8  81191635.20008        49.750
R05  20354851.279 8 108808350.72008        50.250    20354851.720 8  84628735.24508        49.000    20354851.854 8  84628724.24908        48.500
R13  21815924.114 6 116495881.99806        39.250    21815925.592 6  90607932.91706        41.250    21815926.140 6  90607935.90606        41.250
R14  19221075.832 8 102459205.70008        51.750    19221077.547 8  79690523.07908        51.250    19221077.729 8  79690509.07608        50.500
R15  20219345.930 8 108046090.47808        49.000    20219348.544 6  84035854.31006        41.500    20219348.496 6  84035858.31006        41.000
R22  23194837.227 6 123815613.01206        41.500    23194838.227 6  96301044.39406        40.500    23194838.922 6  96300979.40306        40.000
R23  23510961.988 6 125767797.61706        40.000    23510965.622 5  97819411.85905        32.250    23510962.945 5  97819336.85005        33.250
> 2018 11 06 19 01 30.0000000  0 30
C05  40277338.315 5 209734686.33405        35.250    40277334.381 6 162180156.74006        38.750
C10  39916515.788 5 207855809.57005        34.500    39916513.964 6 160727298.91706        39.250
C14  23643837.483 7 123119696.84407        43.500    23643834.731 8  95203950.39808        48.750
C18  40701578.412 5 211943835.64805        35.250
C24  22012861.918 8 114626795.22508        52.250
C25  25935131.344 5 135051038.30505        35.750
C26  22226989.675 8 115741819.33308        50.750
C29  25866398.356 6 134693136.51906        38.750
E07  25698192.116 7 135044946.61207        44.000    25698196.748 7 100845288.57407        47.000    25698192.976 7 103476017.46407        47.000    25698194.205 8 102160638.52608        50.000
E19  25276289.279 6 132827806.18306        40.500    25276290.734 7  99189608.22707        43.250    25276287.399 7 101777149.27107        44.000    25276288.383 7 100483383.75507        46.500
E20  22413772.661 7 117785175.48707        42.500
E21  26207632.280 7 137722046.72007        42.500    26207636.185 7 102844409.11907        46.000    26207632.221 7 105527292.73807        45.250    26207633.623 8 104185848.93408        48.500
E27  23142424.604 8 121614308.79008        49.750    23142427.582 8  90815919.26508        53.500    23142423.813 8  93185011.96908        53.750    23142425.140 9  92000463.12209        56.750
E30  23337171.057 7 122637726.70807        46.250    23337174.101 8  91580164.91308        49.500    23337170.315 8  93969191.98108        49.500    23337171.648 8  92774674.95308        52.500
G05  24212559.844 7 127237877.51907        43.250    24212559.840 4        24.750    24212558.111 4  99146393.87204        24.750    24212557.160 5  99146382.91405        35.750
G13  20336510.865 8 106869139.65608        50.000    20336510.637 7        44.500    20336507.997 7  83274662.05007        44.500
G15  20656505.253 8 108550691.26308        51.500    20656505.266 7        45.250    20656502.519 7  84584954.45507        45.250    20656502.998 8  84584960.45508        48.500
G17  24221170.243 7 127283119.44507        42.750    24221170.123 4        24.000    24221168.249 4  99181638.93904        24.000    24221168.187 6  99181641.93906        36.750
G20  23373963.597 6 122831014.79006        40.000    23373962.779 3        22.250    23373961.135 3  95712464.87403        22.250
G24  22324055.072 7 117313724.96907        46.000    22324055.130 5        35.000    22324055.240 5  91413290.60105        35.000    22324055.546 7  91413285.60807        44.250    22324057.010 8  87604408.93008        49.750
G28  21766664.214 7 114384629.65907        47.500    21766663.575 6        38.000    21766661.286 6  89130888.83406        38.000
G30  23619915.098 7 124123563.04207        42.000    23619914.580 4        27.000    23619915.366 4  96719699.14804        27.000    23619915.866 6  96719695.15406        39.500    23619916.824 7  92689720.98607        44.500
R03  23016078.040 6 123206875.71406        40.750    23016078.386 6  95827603.51406        40.500    23016078.349 6  95827597.50806        40.750
R04  19503985.347 8 104442965.25008        51.750    19503985.114 8  81233437.25608        50.500    19503985.199 8  81233451.25008        49.750
R05  20341311.568 8 108735974.60708        50.000    20341312.590 8  84572442.72108        49.500    20341312.333 8  84572431.72508        48.750
R13  21835892.857 6 116602511.68406        40.250    21835894.212 7  90690867.12807        42.000    21835894.398 6  90690870.11306        41.750
R14  19224373.376 8 102476783.75808        51.750    19224375.171 8  79704194.90508        51.000    19224375.094 8  79704180.90808        50.500
R15  20206201.526 8 107975852.61208        49.000    20206204.415 6  83981224.87106        41.500    20206204.748 6  83981228.87806        41.250
R22  23197642.479 6 123830583.01806        41.000    23197642.941 6  96312687.74906        41.000    23197643.601 6  96312622.74906        41.000
R23  23494254.199 6 125678420.02806        41.500    23494257.704 5  97749895.98405        33.000    23494255.809 5  97749820.94805        32.500
> 2018 11 06 19 02  0.0000000  0 30
C05  40277098.401 5 209733433.09105        35.000    40277093.428 6 162179187.66106        38.750
C10  39922305.563 5 207885949.99205        35.000    39922301.686 6 160750605.39306        40.000
C14  23661111.625 7 123209645.01907        43.000    23661108.451 8  95273504.01308        48.500
C18  40707801.144 5 211976239.72605        35.250
C24  22005379.616 8 114587832.98608        52.000
C25  25917691.167 5 134960225.58005        33.750
C26  22236087.088 8 115789192.57908        50.500
C29  25864909.997 6 134685383.03106        39.000
E07  25713769.718 7 135126804.36807        43.750    25713773.793 7 100906416.09807        47.000    25713769.896 7 103538739.62607        47.000    25713771.276 8 102222563.36908        50.000
E19  25264582.669 6 132766287.06706        40.250    25264584.088 7  99143668.65107        43.500    25264580.770 7 101730011.27007        44.000    25264581.724 7 100436844.96607        46.750
E20  22415933.432 7 117796530.61207        42.500
E21  26192361.541 7 137641796.82907        42.250    26192364.974 7 102784482.27607        45.250    26192361.372 7 105465802.58807        45.750    26192362.576 8 104125140.43508        48.500
E27  23139655.011 8 121599754.60908        49.750    23139658.030 8  90805050.89108        53.750    23139654.279 8  93173860.07208        53.750    23139655.574 9  91989452.98609        56.750
E30  23349091.059 7 122700366.54407        46.000    23349094.133 8  91626941.41608        49.750    23349090.382 8  94017188.74008        49.500    23349091.634 8  92822061.58508        52.500
G05  24233779.356 6 127349389.30006        38.000    24233779.378 3        23.000    24233776.890 3  99233286.22203        23.000    24233778.057 6  99233275.19206        38.250
G13  20342524.496 8 106900741.16808        50.000    20342524.268 7        44.500    20342521.591 7  83299286.59907        44.500
G15  20649946.042 8 108516223.01808        51.500    20649946.068 7        45.250    20649943.471 7  84558096.07907        45.250    20649943.731 8  84558102.08108        48.500
G17  24205644.816 6 127201534.16706        41.750    24205644.709 4        24.250    24205643.160 4  99118066.01304        24.250    24205642.749 6  99118069.02306        37.000
G20  23363457.051 6 122775801.93206        40.000    23363456.215 3        23.000    23363454.589 3  95669441.88703        23.000
G24  22307957.154 7 117229129.85507        46.000    22307957.207 5        35.000    22307957.591 5  91347372.34305        35.000    22307957.426 7  91347367.35507        44.500    22307959.058 8  87541237.27408        49.750
G28  21776369.368 7 114435629.78207        47.500    21776368.729 6        38.000    21776366.330 6  89170629.18506        38.000
G30  23637826.142 6 124217684.77606        41.750    23637825.606 4        27.000    23637826.222 4  96793040.74104        27.000    23637827.022 6  96793036.74706        39.250    23637827.570 7  92760006.69707        44.500
R03  23041082.928 6 123340731.73006        41.250    23041084.133 6  95931713.70406        41.000    23041084.198 6  95931707.68806        40.500
R04  19514161.897 8 104497460.68008        51.500    19514161.991 8  81275822.59008        50.750    19514161.774 8  81275836.58108        50.000
R05  20327889.159 8 108664223.21308        50.250    20327889.759 8  84516636.07708        49.500    20327889.787 8  84516625.07408        48.500    20327975.477 7  81505497.97317        42.750
R13  21855894.389 6 116709318.98606        39.750    21855895.561 6  90773939.46706        41.750    21855895.718 6  90773942.47006        41.250
R14  19227777.065 8 102494927.78108        51.500    19227778.859 8  79718306.92508        51.250    19227779.022 8  79718292.92808        50.500
R15  20193150.067 8 107906110.78208        48.500    20193153.283 6  83926981.25806        41.750    20193153.997 6  83926985.25906        41.000
R22  23200593.684 6 123846343.99906        41.250    23200595.106 6  96324946.31106        40.000    23200596.246 6  96324881.29706        40.000
R23  23477635.202 6 125589525.51706        39.000    23477639.446 5  97680755.79005        33.750    23477637.864 5  97680680.81605        34.000
> 2018 11 06 19 02 30.0000000  0 30
C05  40276857.600 5 209732177.83305        35.000    40276852.599 6 162178217.02206        39.000
C10  39928096.128 5 207916102.94005        35.500    39928092.870 6 160773921.58606        40.250
C14  23678434.010 7 123299848.53407        43.000    23678431.274 8  95343255.08308        48.250
C18  40714021.121 5 212008628.98905        35.250
C24  21997960.575 8 114549199.30908        51.500
C25  25900269.554 5 134869505.19405        34.500
C26  22245236.990 8 115836838.54308        50.500
C29  25863515.735 6 134678123.23906        39.250
E07  25729382.882 7 135208854.72307        43.750    25729387.488 7 100967687.44907        47.000    25729383.595 7 103601609.35807        46.750    25729384.948 8 102284633.90708        50.000
E19  25252923.518 6 132705018.57506        40.250    25252925.036 7  99097916.18607        43.500    25252921.549 7 101683065.26807        44.000    25252922.697 7 100390495.73407        46.750
E20  22418167.916 7 117808272.46907        42.500
E21  26177123.502 7 137561722.18507        42.500    26177127.622 7 102724686.29007        45.500    26177123.738 7 105404446.70707        45.750    26177125.084 8 104064564.50408        48.500
E27  23136950.969 8 121585545.03408        49.500    23136954.001 8  90794439.84508        53.500    23136950.239 8  93162972.22008        53.750    23136951.570 9  91978703.53809        56.750
E30  23361049.953 7 122763208.82307        45.500    23361052.680 8  91673869.08308        49.250    23361048.820 8  94065340.60608        49.750    23361050.117 8  92869601.34908        52.500
G05  24255012.646 7 127460968.24107        43.750    24255012.686 4        26.000    24255011.061 4  99320230.79304        26.000    24255010.301 6  99320219.81406        38.000
G13  20348627.238 8 106932811.62808        49.750    20348627.010 7        44.750    20348624.381 7  83324276.55607        44.750
G15  20643480.006 8 108482243.29308        51.500    20643480.046 7        45.000    20643477.380 7  84531618.37407        45.000    20643477.464 8  84531624.37208        48.500
G17  24190164.857 6 127120184.26106        41.500    24190164.759 3        23.750    24190162.770 3  99054676.49303        23.750    24190162.920 6  99054679.48906        37.000
G20  23353048.991 6 122721105.74606        39.250    23353048.160 3        22.500    23353046.015 3  95626821.49403        22.500
G24  22291903.986 7 117144771.31307        45.750    22291903.973 5        35.250    22291904.501 5  91281638.42805        35.250    22291904.765 7  91281633.43107        43.750    22291906.174 8  87478242.26608        50.000
G28  21786157.132 7 114487064.46407        47.250    21786156.502 6        37.750    21786154.090 6  89210708.16206        37.750
G30  23655756.836 7 124311911.26407        42.250    23655756.318 4        27.500    23655757.344 4  96866463.95704        27.500    23655757.778 6  96866459.95706        40.000    23655758.555 7  92830370.58107        45.000
R03  23066122.075 6 123474763.14906        41.750    23066122.460 6  96035960.32006        41.000    23066122.182 6  96035954.32806        40.750
R04  19524475.187 8 104552686.40708        51.750    19524475.006 8  81318775.91308        50.750    19524474.798 8  81318789.91008        50.000
R05  20314584.076 8 108593100.18908        50.000    20314584.812 8  84461318.16708        49.500    20314584.941 8  84461307.16108        48.500
R13  21875928.360 6 116816300.69406        40.500    21875929.865 7  90857147.44807        42.000    21875930.119 6  90857150.44706        40.750
R14  19231286.764 8 102513636.17008        51.500    19231288.600 8  79732857.89108        51.250    19231288.471 8  79732843.89508        50.750
R15  20180192.498 8 107836866.66208        49.000    20180194.999 6  83873124.70806        41.500    20180195.552 6  83873128.70906        40.750
R22  23203695.166 6 123862895.20306        41.500    23203696.396 6  96337819.44406        40.750    23203696.347 6  96337754.44506        41.000
R23  23461109.274 6 125501118.32406        40.500    23461113.040 5  97611994.67505        33.250    23461111.698 5  97611919.67705        33.750
> 2018 11 06 19 03  0.0000000  0 30
C05  40276615.499 5 209730920.63105        34.500    40276611.004 6 162177244.86506        39.000
C10  39933888.072 6 207946268.21406        36.000    39933885.347 6 160797247.29106        40.500
C14  23695805.066 7 123390305.40307        43.000    23695802.290 8  95413202.04608        48.250
C18  40720238.285 5 212041003.30305        35.000
C24  21990604.388 8 114510894.39008        51.750
C25  25882865.352 5 134778877.96405        34.750
C26  22254438.983 8 115884756.13008        50.500
C29  25862216.310 6 134671357.63106        38.500
E07  25745033.323 7 135291096.61707        44.000    25745037.610 7 101029101.82107        46.750    25745033.778 7 103664625.84207        47.000    25745035.046 8 102346849.33808        50.000
E19  25241312.387 6 132644002.10306        40.250    25241313.993 7  99052351.95207        43.500    25241310.603 7 101636312.39407        44.000    25241311.656 7 100344337.17907        46.750
E20  22420475.972 7 117820401.34707        42.500
E21  26161919.599 7 137481823.56107        42.750    26161923.368 7 102665021.75507        45.750    26161919.283 7 105343225.70207        45.500    26161920.726 8 104004121.73508        48.500
E27  23134312.424 8 121571679.70808        49.500    23134315.544 8  90784085.87608        53.500    23134311.769 9  93152348.14409        54.000    23134313.071 9  91968214.51509        56.750
E30  23373046.475 7 122826252.17407        45.750    23373049.339 8  91720946.90608        49.250    23373045.517 8  94113646.54808        49.500    23373046.854 8  92917293.23308        52.500
G05  24276256.712 6 127572611.61806        39.750    24276256.738 3        21.500    24276254.979 3  99407225.63603        21.500    24276255.965 6  99407214.62706        36.250
G13  20354819.321 8 106965350.82608        50.000    20354819.093 7        45.000    20354816.362 7  83349631.77007        45.000
G15  20637106.897 8 108448753.12108        52.000    20637106.937 7        45.000    20637104.405 7  84505522.13207        45.000    20637104.697 8  84505528.13108        48.250
G17  24174729.614 6 127039072.45506        41.750    24174729.498 4        24.750    24174727.811 4  98991472.52204        24.750    24174727.820 6  98991475.52306        37.250
G20  23342739.276 6 122666928.08406        39.250    23342738.440 3        22.750    23342736.037 3  95584605.11303        22.750
G24  22275896.607 7 117060650.15807        45.500    22275896.567 5        35.750    22275896.951 5  91216089.49205        35.750    22275896.817 7  91216084.50207        44.000    22275898.490 8  87415424.53408        50.000
G28  21796027.351 7 114538931.88207        47.250    21796026.730 6        37.250    21796024.133 6  89251124.33206        37.250
G30  23673707.440 7 124406241.39307        42.250    23673706.877 4        26.500    23673707.725 4  96939967.94204        26.500    23673707.409 6  96939963.93806        38.750    23673708.661 7  92900811.90407        44.250
R03  23091191.085 6 123608966.68006        41.000    23091193.122 6  96140340.84606        40.750    23091192.782 6  96140334.84906        40.500
R04  19534924.397 8 104608640.87208        51.750    19534923.958 8  81362296.03208        50.750    19534924.024 8  81362310.03008        49.500
R05  20301397.162 8 108522608.71908        50.250    20301397.653 8  84406491.47308        49.250    20301397.809 8  84406480.46708        48.250
R13  21895995.091 6 116923454.58206        39.500    21895996.151 6  90940489.37406        41.000    21895996.877 6  90940492.36906        40.750
R14  19234901.816 8 102532907.10208        51.500    19234903.786 8  79747846.39708        51.250    19234903.766 8  79747832.39908        50.500
R15  20167327.596 8 107768120.90808        49.000    20167330.016 6  83819655.81406        41.500    20167330.733 6  83819659.80706        41.000
R22  23206942.998 6 123880235.97106        41.000    23206945.043 6  96351306.75006        41.250    23206945.265 6  96351241.74406        40.750
R23  23444673.536 6 125413202.61306        39.500    23444678.128 5  97543615.86905        33.000    23444677.558 5  97543540.85905        34.250
> 2018 11 06 19 03 30.0000000  0 30
C05  40276373.330 5 209729661.47305        35.000    40276368.966 6 162176271.21406        39.000
C10  39939684.052 6 207976445.63706        36.500    39939680.495 6 160820582.38806        40.500
C14  23713225.508 7 123481013.58107        43.500    23713221.810 8  95483343.34308        48.250
C18  40726452.710 5 212073362.51105        34.000
C24  21983311.361 8 114472918.32508        51.750
C25  25865479.959 5 134688344.51705        34.000
C26  22263692.894 8 115932944.12908        50.500
C29  25861012.133 6 134665086.67706        38.250
E07  25760719.273 7 135373528.90907        44.500    25760723.995 7 101090658.39707        47.000    25760720.092 7 103727788.24507        46.750    25760721.462 8 102409208.82608        49.750
E19  25229749.678 6 132583239.16906        40.500    25229751.200 7  99006977.02007        43.500    25229747.823 7 101589753.76007        44.250    25229748.867 7 100298370.39307        46.750
E20  22422857.874 7 117832917.36507        42.500
E21  26146748.942 7 137402101.68307        43.000    26146752.485 7 102605489.20907        45.500    26146748.903 7 105282140.12807        45.750    26146750.067 8 103943812.67308        48.500
E27  23131739.518 8 121558158.31308        49.750    23131742.520 8  90773988.73608        53.500    23131738.711 8  93141987.60008        53.750    23131740.028 9  91957985.67409        56.750
E30  23385080.979 7 122889495.27707        46.000    23385084.044 8  91768173.89408        49.500    23385080.293 8  94162105.54608        49.250    23385081.649 8  92965136.22708        52.250
G05  24297513.756 7 127684316.72407        42.750    24297513.739 4        26.000    24297512.183 4  99494268.57004        26.000    24297512.854 6  99494257.57506        38.000
G13  20361100.365 8 106998358.59308        49.750    20361100.129 7        44.750    20361097.583 7  83375352.09907        44.750
G15  20630827.443 8 108415754.17408        52.000    20630827.483 7        45.500    20630824.919 7  84479808.66507        45.500    20630825.031 8  84479814.66108        48.500
G17  24159340.198 7 126958201.73607        42.250    24159340.078 4        24.000    24159338.006 4  98928456.38604        24.000    24159338.404 6  98928459.40506        36.500
G20  23332528.540 6 122613270.91806        39.500    23332527.686 3        22.750    23332525.377 3  95542794.34803        22.750
G24  22259933.820 7 116976767.58207        46.000    22259933.780 5        35.750    22259934.542 5  91150726.46105        35.750    22259934.643 7  91150721.46807        44.250    22259936.012 8  87352784.96708        50.000
G28  21805979.386 7 114591230.49307        47.250    21805978.760 6        37.750    21805976.180 6  89291876.49706        37.750
G30  23691677.103 7 124500674.06007        42.000    23691676.527 4        26.750    23691677.159 4  97013551.84504        26.750    23691677.422 6  97013547.83406        39.000    23691678.754 7  92971329.80707        44.500
R03  23116294.634 6 123743339.34506        41.500    23116294.682 6  96244852.86306        40.500    23116294.978 6  96244846.85906        40.000
R04  19545509.118 8 104665322.12108        51.750    19545508.763 8  81406381.44408        50.750    19545508.898 8  81406395.43508        49.750
R05  20288329.005 8 108452752.53608        50.000    20288329.654 8  84352158.87408        49.500    20288329.813 8  84352147.87708        48.500
R13  21916092.893 6 117030778.08706        39.500    21916094.574 6  91023963.21406        41.250    21916094.793 6  91023966.19606        41.250
R14  19238622.345 8 102552738.94508        51.500    19238624.104 8  79763271.16408        51.250    19238624.312 8  79763257.16208        50.500
R15  20154556.088 8 107699875.00408        49.000    20154558.852 6  83766575.68706        41.250    20154559.428 6  83766579.68606        41.250
R22  23210339.752 6 123898365.66106        41.250    23210340.704 6  96365407.61706        40.750    23210341.751 6  96365342.59806        40.500
R23  23428331.604 7 125325782.70907        42.250    23428335.533 5  97475622.60605        34.000    23428335.169 5  97475547.58005        34.250
> 2018 11 06 19 04  0.0000000  0 31
C05  40276132.247 5 209728400.31505        35.000    40276126.906 6 162175295.97706        38.750
C10  39945480.894 6 208006634.84106        36.500    39945477.616 6 160843926.60106        40.250
C14  23730693.079 7 123571971.11507        43.250    23730689.371 8  95553677.46108        48.000
C18  40732663.824 5 212105706.43605        35.250
C24  21976081.540 8 114435271.29808        51.750
C25  25848111.590 5 134597905.60105        35.500
C26  22272998.811 8 115981401.39008        50.500
C29  25859902.773 6 134659310.78606        38.750
E07  25776441.863 7 135456150.57607        43.250    25776446.333 7 101152356.36107        46.750    25776442.577 7 103791095.72407        46.750    25776443.852 8 102471711.54808        49.750
E19  25218235.310 6 132522731.15806        40.750    25218236.909 7  98961792.46707        43.750    25218233.521 7 101543390.49407        44.000    25218234.559 7 100252596.48507        46.750
E20  22425313.124 7 117845820.86307        42.000
E21  26131611.818 7 137322557.35407        42.500    26131615.908 7 102546089.23407        45.750    26131612.276 7 105221190.59307        46.000    26131613.383 8 103883637.91908        48.750
E27  23129231.804 8 121544980.48508        49.750    23129234.848 8  90764148.15708        53.500    23129231.029 8  93131890.30608        53.750    23129232.373 9  91948016.73609        56.500
E30  23397153.473 7 122952936.74907        46.000    23397156.693 8  91815549.01908        49.250    23397152.935 8  94210716.54508        49.500    23397154.158 8  93013129.28808        52.250
G05  24318781.730 6 127796080.82606        41.000    24318781.713 3        22.500    24318780.615 3  99581357.42903        22.500    24318780.727 5  99581346.43705        35.250
G10                                                                                                                                                                                  25316446.779 6  99347173.23916        36.500
G13  20367470.620 8 107031834.74508        50.500    20367470.388 7        44.750    20367467.893 7  83401437.40207        44.750
G15  20624641.671 8 108383247.53308        52.250    20624641.711 7        45.250    20624639.104 7  84454478.81607        45.250    20624639.311 8  84454484.81408        48.750
G17  24143997.512 7 126877575.14807        43.000    24143997.405 4        25.000    24143995.122 4  98865630.50404        25.000    24143995.807 6  98865633.49606        36.500
G20  23322417.549 6 122560135.95306        39.000    23322416.709 3        22.500    23322414.560 3  95501390.47003        22.500
G24  22244017.295 7 116893124.09807        45.750    22244017.264 5        35.750    22244017.560 5  91085549.73005        35.750    22244017.946 7  91085544.73807        43.750    22244019.311 8  87290323.93708        50.000
G28  21816012.854 7 114643958.05307        47.500    21816012.211 6        37.500    21816009.871 6  89332962.90706        37.500
G30  23709666.365 6 124595208.13206        41.750    23709665.802 4        26.250    23709666.841 4  97087214.74304        26.250    23709667.052 6  97087210.73906        40.250    23709667.900 7  93041923.41507        44.500
R03  23141424.940 6 123877877.85606        40.500    23141427.920 6  96349493.91706        41.000    23141427.699 6  96349487.91906        40.500
R04  19556229.448 8 104722728.96008        51.500    19556229.169 8  81451031.19408        50.750    19556229.189 8  81451045.18908        49.750
R05  20275380.383 8 108383534.88008        50.000    20275381.181 8  84298322.91308        49.500    20275381.590 8  84298311.91408        48.500
R13  21936221.858 6 117138268.94406        39.500    21936223.963 6  91107567.18506        41.000    21936224.012 6  91107570.18206        40.750
R14  19242447.675 8 102573130.15308        51.500    19242449.452 8  79779130.99708        51.250    19242449.476 8  79779116.99808        50.500
R15  20141878.230 8 107632129.36608        48.750    20141881.176 6  83713884.65306        41.750    20141881.877 6  83713888.63906        41.000
R22  23213883.601 6 123917283.32306        41.250    23213885.037 6  96380121.34206        41.000    23213885.622 6  96380056.34406        40.750
R23  23412083.253 6 125238862.95306        40.750    23412086.645 5  97408018.36305        33.500    23412087.444 5  97407943.33305        33.750
> 2018 11 06 19 04 30.0000000  0 32
C05  40275889.315 5 209727137.12405        35.000    40275884.745 6 162174319.19306        38.750
C10  39951280.670 5 208036835.60005        35.750    39951277.561 6 160867279.72906        40.250
C14  23748207.984 7 123663175.96507        43.250    23748204.262 8  95624202.81108        48.000
C18  40738871.887 5 212138034.99805        35.250
C19  26599458.251 5 138510362.98515        35.750
C24  21968915.349 8 114397953.43408        52.250
C25  25830763.239 5 134507561.87205        34.250
C26  22282355.830 8 116030126.73808        50.500
C29  25858888.663 6 134654030.43206        39.000
E07  25792199.816 7 135538960.46507        43.750    25792204.602 7 101214194.90207        47.000    25792200.780 7 103854547.44607        46.500    25792202.011 8 102534356.67908        49.750
E19  25206770.087 6 132462479.60406        41.000    25206771.412 7  98916799.42907        43.250    25206767.953 7 101497223.72707        44.000    25206769.060 7 100207016.58507        46.500
E20  22427842.418 7 117859111.92507        42.000
E21  26116509.201 7 137243191.28207        42.000    26116513.084 7 102486822.37807        46.000    26116509.156 7 105160377.64507        45.500    26116510.577 8 103823598.02008        48.750
E27  23126789.452 8 121532145.86708        50.000    23126792.474 8  90754563.86708        53.000    23126788.715 8  93122055.99508        53.750    23126790.009 9  91938307.43709        56.250
E30  23409263.651 7 123016575.27007        46.250    23409266.662 8  91863071.28408        49.000    23409262.894 8  94259478.51708        49.250    23409264.153 8  93061271.40708        52.250
G05  24340060.686 7 127907901.19907        43.000    24340060.678 4        24.500    24340058.089 4  99668490.22404        24.500    24340059.720 6  99668479.22706        38.000
G10  25298400.119 5 132944005.08415        32.500                                                                                    25298399.444 5 103592716.74715        32.000    25298399.714 6  99276353.03606        37.500
G13  20373930.214 8 107065779.21008        50.000    20373929.982 7        44.750    20373927.317 7  83427887.61307        44.750
G15  20618549.827 8 108351234.56308        52.000    20618549.867 7        45.500    20618547.243 7  84429533.64407        45.500    20618547.566 8  84429539.64108        48.750
G17  24128701.700 7 126797195.67507        42.750    24128701.589 4        25.000    24128699.566 4  98802997.16104        25.000    24128700.264 6  98803000.17806        37.500
G20  23312405.529 6 122507524.75406        39.500    23312404.707 3        22.750    23312402.973 3  95460394.74803        22.750
G24  22228146.205 7 116809721.37507        46.250    22228146.197 6        36.000    22228146.555 6  91020560.61006        36.000    22228146.533 7  91020555.61407        44.500    22228148.146 8  87228042.69408        50.000
G28  21826128.096 7 114697112.98007        47.500    21826127.466 6        37.500    21826124.954 6  89374382.33106        37.500
G30  23727675.049 7 124689842.49407        42.500    23727674.544 4        27.250    23727675.541 4  97160955.76604        27.250    23727675.332 6  97160951.78606        39.500    23727676.468 7  93112591.90707        44.500
R03  23166590.142 6 124012578.88706        40.750    23166591.658 6  96454261.33606        40.500    23166590.769 6  96454255.34506        40.750
R04  19567085.050 8 104780859.24208        51.750    19567084.619 8  81496243.62808        50.750    19567084.713 8  81496257.62408        50.000
R05  20262552.012 8 108314959.15608        50.250    20262552.820 8  84244986.24708        49.500    20262552.951 8  84244975.24208        48.750    20262638.445 7  81243527.60917        44.250
R13  21956383.005 6 117245923.98906        39.000    21956384.479 6  91191298.88906        41.250    21956385.419 6  91191301.87306        41.500
R14  19246377.689 8 102594079.06908        51.500    19246379.414 8  79795424.60608        51.000    19246379.609 8  79795410.60608        50.500
R15  20129294.426 8 107564884.46208        48.750    20129297.265 6  83661583.07606        41.500    20129297.899 6  83661587.07106        41.250
R22  23217574.050 6 123936988.28106        39.250    23217575.834 6  96395447.43806        40.250    23217576.878 6  96395382.42906        40.250
R23  23395927.940 6 125152447.34006        41.250    23395931.169 5  97340806.22805        31.750    23395931.665 5  97340731.25605        31.250
> 2018 11 06 19 05  0.0000000  0 32
C05  40275645.453 5 209725871.98605        34.750    40275641.670 6 162173340.91606        39.000
C10  39957082.307 5 208067047.66905        35.000    39957079.601 6 160890641.62806        40.750
C14  23765769.740 7 123754626.07607        42.750    23765766.218 8  95694917.81308        48.250
C18  40745077.740 5 212170348.10305        34.500
C19  26582084.844 6 138419896.09906        36.000
C24  21961811.963 8 114360964.84108        52.000
C25  25813431.166 6 134417314.13306        36.250
C26  22291764.582 8 116079119.04208        50.000
C29  25857969.536 6 134649245.97306        38.500
E07  25807994.034 7 135621957.55607        42.750    25807998.452 7 101276173.20907        47.000    25807994.361 7 103918142.58507        46.000    25807995.894 8 102597143.40108        49.500
E19  25195353.580 6 132402485.94706        41.000    25195355.065 7  98871998.97107        43.500    25195351.590 7 101451254.55107        44.250    25195352.659 7 100161631.76407        47.000
E20  22430445.341 7 117872790.71507        42.000
E21  26101440.347 7 137164004.21307        42.250    26101444.079 7 102427689.20007        46.250    26101440.189 7 105099701.85107        45.500    26101441.584 8 103763693.53208        48.750
E27  23124412.388 8 121519654.10808        50.000    23124415.356 8  90745235.60908        53.250    23124411.610 9  93112484.38809        54.000    23124412.908 9  91928857.50509        56.500
E30  23421411.068 7 123080409.46707        45.750    23421413.887 8  91910739.67008        49.000    23421410.053 8  94308390.42808        49.250    23421411.387 8  93109561.55408        52.250
G05  24361349.429 6 128019775.07606        40.500    24361349.425 3        23.500    24361348.803 3  99755664.59503        23.500    24361348.177 6  99755653.61506        38.250
G10  25280405.298 5 132849441.49105        32.000    25280405.236 1         9.500    25280404.730 1 103519035.79411         9.500    25280404.641 5 103519030.79705        32.250    25280404.865 6  99205737.34706        37.500
G13  20380478.622 8 107100191.77208        50.000    20380478.390 7        45.000    20380475.838 7  83454702.58807        45.000
G15  20612552.122 8 108319716.71108        52.000    20612552.157 7        45.500    20612549.577 7  84404974.27607        45.500    20612550.047 8  84404980.27008        48.500
G17  24113453.516 7 126717065.90207        42.250    24113453.391 4        25.250    24113451.481 4  98740558.40604        25.250    24113452.096 6  98740561.40006        37.500
G20  23302494.090 6 122455439.34206        40.000    23302493.263 3        23.500    23302490.951 3  95419808.71503        23.500
G24  22212321.100 7 116726560.14707        46.000    22212321.101 6        36.250    22212321.559 6  90955759.65806        36.250    22212321.757 7  90955754.66807        44.250    22212323.026 8  87165941.78908        50.000
G28  21836323.980 7 114750692.97307        47.750    21836323.350 6        37.750    21836320.996 6  89416132.97406        37.750
G30  23745702.071 6 124784576.01906        41.750    23745701.584 4        27.000    23745702.614 4  97234774.09904        27.000    23745702.404 6  97234770.10806        39.250    23745703.630 7  93183334.47407        44.250
R03  23191783.044 6 124147439.86606        40.500    23191784.172 6  96559153.19306        40.250    23191783.866 6  96559147.18706        40.000
R04  19578074.974 8 104839711.40208        51.750    19578074.834 8  81542017.51808        50.750    19578074.648 8  81542031.51008        49.750
R05  20249844.075 8 108247028.70508        50.250    20249844.912 8  84192151.44808        49.500    20249845.179 8  84192140.45008        48.750
R13  21976574.129 6 117353741.58006        39.500    21976575.295 6  91275157.00106        41.500    21976575.091 6  91275160.01106        41.250
R14  19250411.760 8 102615583.89508        51.500    19250413.653 8  79812150.58408        51.250    19250413.753 8  79812136.58208        50.500
R15  20116804.647 8 107498141.46608        48.750    20116807.174 6  83609671.87106        41.500    20116808.315 6  83609675.86506        41.500
R22  23221414.789 6 123957479.67606        40.500    23221415.281 6  96411385.18206        41.000    23221415.331 6  96411320.17506        41.500
R23  23379869.315 6 125066540.23706        40.500    23379872.101 5  97273989.63105        32.000    23379873.476 5  97273914.58705        32.250
> 2018 11 06 19 05 30.0000000  0 32
C05  40275403.450 5 209724604.88605        34.500    40275398.297 6 162172361.11806        39.000
C10  39962887.331 5 208097270.74105        35.250    39962883.796 6 160914012.03306        40.500
C14  23783378.351 7 123846319.45707        42.750    23783375.286 8  95765820.93308        48.000
C18  40751280.029 5 212202645.54705        34.250
C19  26564725.773 5 138329507.22205        35.000
C24  21954772.053 8 114324305.66808        52.000
C25  25796118.894 5 134327163.02105        34.500
C26  22301223.842 8 116128377.11008        50.250
C29  25857146.422 6 134644957.80106        39.250
E07  25823823.219 7 135705140.66907        43.500    25823827.675 7 101338290.44907        46.500    25823823.854 7 103981880.27607        46.250    25823825.210 8 102660070.86908        49.250
E19  25183986.764 6 132342751.64406        40.750    25183987.931 7  98827392.19207        43.750    25183984.507 7 101405484.12107        44.250    25183985.597 7 100116443.16007        47.000
E20  22433121.971 7 117886857.44507        42.000
E21  26086405.915 7 137084996.89807        42.250    26086409.307 7 102368690.24107        45.250    26086406.012 7 105039163.79807        46.250    26086407.077 8 103703925.02208        48.750
E27  23122100.375 8 121507504.83608        50.000    23122103.406 8  90736163.10008        53.500    23122099.679 8  93103175.20808        53.750    23122100.976 9  91919666.66009        56.750
E30  23433595.141 7 123144438.01207        46.000    23433598.095 8  91958553.19508        49.000    23433594.333 8  94357451.26508        49.250    23433595.633 8  93157998.73608        52.250
G05  24382648.477 7 128131700.04307        42.750    24382648.499 3        22.500    24382645.116 3  99842878.89303        22.500    24382646.272 5  99842867.88605        35.500
G10  25262463.166 5 132755154.35005        32.000    25262463.479 1         9.750    25262462.769 1 103445565.25801         9.750    25262463.379 5 103445560.27505        31.500    25262462.626 6  99135328.13506        37.250
G13  20387115.959 8 107135071.81308        50.000    20387115.727 7        44.750    20387113.278 7  83481881.83407        44.750
G15  20606649.059 8 108288695.24008        52.000    20606649.090 7        45.500    20606646.404 7  84380801.69907        45.500    20606646.581 8  84380807.69008        48.500
G17  24098253.620 7 126637188.76307        42.500    24098253.468 4        25.250    24098251.380 4  98678316.50404        25.250    24098252.097 6  98678319.49106        37.250
G20  23292683.407 6 122403881.69206        39.500    23292682.585 3        23.250    23292679.925 3  95379633.91603        23.250
G24  22196542.292 7 116643641.31307        46.000    22196542.275 6        36.250    22196542.545 6  90891147.58906        36.250    22196542.844 7  90891142.59707        44.750    22196544.253 8  87104021.89208        50.000
G28  21846600.401 7 114804696.09007        47.500    21846599.767 6        37.500    21846597.357 6  89458213.32606        37.500
G30  23763748.063 6 124879407.62206        41.250    23763747.598 4        25.750    23763748.316 4  97308668.83304        25.750    23763748.106 6  97308664.85506        38.750    23763749.450 7  93254150.26107        44.250
R03  23217005.343 6 124282456.53006        40.250    23217006.426 6  96664166.12806        39.750    23217006.819 6  96664160.13006        39.250
R04  19589199.851 8 104899283.67408        52.000    19589199.587 8  81588351.49508        50.500    19589199.701 8  81588365.49108        50.000
R05  20237257.604 8 108179746.90208        50.000    20237258.488 8  84139821.15608        49.500    20237258.403 8  84139810.14908        48.750
R13  21996794.337 6 117461718.71006        39.500    21996795.632 6  91359139.19206        40.500    21996796.276 6  91359142.19306        40.750
R14  19254550.255 8 102637642.92508        52.000    19254551.796 8  79829307.61308        51.000    19254552.099 8  79829293.61308        50.250
R15  20104408.545 8 107431901.87108        48.750    20104411.304 6  83558152.19106        41.500    20104411.937 6  83558156.18206        41.250
R22  23225399.463 6 123978756.39006        41.000    23225401.289 6  96427933.73506        41.750    23225401.482 6  96427868.74206        41.750
R23  23363905.349 6 124981145.90506        40.750    23363909.244 5  97207571.82005        33.500    23363907.966 5  97207496.81505        33.250
> 2018 11 06 19 06  0.0000000  0 32
C05  40275159.507 5                        34.500    40275154.563 6 162171379.81706        38.750
C10  39968693.325 5 208127504.56105        35.250    39968689.308 6 160937390.70606        40.000
C14  23801033.394 7 123938254.09807        43.000    23801030.253 8  95836910.60108        48.000
C18  40757479.468 5 212234927.15405        34.500
C19  26547384.140 6 138239199.07506        36.000
C24  21947795.244 8 114287976.02908        52.000
C25  25778824.774 5 134237109.24505        35.500
C26  22310734.245 8 116177899.81808        50.250
C29  25856418.475 6 134641166.31306        39.500
E07  25839687.684 7 135788508.74907        42.750    25839692.086 7 101400545.80907        46.250    25839688.305 7 104045759.68907        46.500    25839689.601 8 102723138.25508        49.500
E19  25172669.005 6 132283278.15606        41.250    25172670.542 7  98782980.17407        43.750    25172667.041 7 101359913.52307        44.000    25172668.162 7 100071451.85507        46.750
E20  22435872.735 7 117901312.34107        42.250
E21  26071405.740 7 137006170.07707        42.000    26071409.555 7 102309826.06907        46.000    26071405.306 7 104978764.02807        45.750    26071406.934 8 103644293.05708        48.750
E27  23119853.621 8 121495697.66908        50.250    23119856.583 8  90727346.06008        53.250    23119852.862 8  93094128.15808        53.750    23119854.142 9  91910734.61509        56.500
E30  23445815.996 7 123208659.56307        46.250    23445819.085 8  92006510.84408        49.000    23445815.284 8  94406659.98708        49.000    23445816.591 8  93206581.92208        52.000
G05  24403955.498 6 128243673.40406        38.750    24403955.463 3        23.750    24403954.794 3  99930130.82403        23.750    24403955.601 6  99930119.80106        39.000
G10  25244574.150 5 132661146.38105        32.250    25244574.342 1         8.750    25244573.605 1 103372312.34601         8.750    25244573.356 5 103372307.34005        32.000    25244572.997 6  99065127.38406        36.750
G13  20393842.610 8 107170419.31508        50.000    20393842.378 7        44.750    20393839.698 7  83509425.33407        44.750
G15  20600840.487 8 108258171.40708        52.250    20600840.522 7        45.500    20600837.923 7  84357016.88907        45.500    20600838.145 8  84357022.88608        48.500
G17  24083101.994 7 126557567.08607        42.250    24083101.865 4        24.750    24083099.815 4  98616273.66204        24.750    24083099.805 6  98616276.67406        37.500
G20  23282973.034 6 122352852.76106        39.250    23282972.216 3        23.000    23282969.711 3  95339871.11803        23.000
G24  22180809.881 7 116560966.11607        46.000    22180809.868 6        36.250    22180809.905 6  90826725.37306        36.250    22180810.099 7  90826720.37407        44.500    22180811.415 8  87042283.92908        50.000
G28  21856956.890 8 114859120.31908        48.000    21856956.260 6        37.250    21856953.845 6  89500621.81206        37.250
G30  23781811.977 6 124974336.22206        41.000    23781811.504 4        25.500    23781812.236 4  97382639.18004        25.500    23781812.604 6  97382635.18006        39.000    23781813.805 7  93325038.48107        44.500
R03  23242255.682 6 124417626.58506        39.750    23242257.187 6  96769298.35806        40.250    23242257.073 6  96769292.36106        39.500
R04  19600458.668 8 104959574.04508        52.000    19600458.408 8  81635243.99108        50.500    19600458.291 8  81635257.98108        49.750
R05  20224793.511 8 108113116.93508        50.250    20224793.871 8  84087997.83408        49.500    20224794.067 8  84087986.83508        48.750    20224855.927 7  81092056.84717        42.250
R13  22017044.948 6 117569853.45806        39.500    22017046.032 6  91443244.01206        41.250    22017046.067 6  91443247.01406        40.500
R14  19258791.876 8 102660254.38308        51.500    19258793.783 8  79846894.31608        51.000    19258793.686 8  79846880.31308        50.500
R15  20092107.010 8 107366166.25108        48.750    20092109.664 6  83507024.49306        41.500    20092110.467 6  83507028.49106        41.500
R22  23229532.944 6 124000817.64906        40.750    23229534.044 6  96445092.49806        41.250    23229534.344 6  96445027.49606        41.250
R23  23348038.894 7 124896268.26607        42.000    23348042.166 5  97141555.88305        32.750    23348040.549 5  97141480.88205        33.750
> 2018 11 06 19 06 30.0000000  0 32
C05  40274914.909 5 209722064.89005        34.750    40274910.676 6 162170396.99706        38.750
C10  39974500.781 5 208157748.69205        34.750    39974497.797 6 160960777.39506        40.750
C14  23818734.567 7 124030427.91107        42.750    23818731.129 7  95908185.22807        47.750
C18  40763675.640 5 212267192.89905        34.250
C19  26530057.056 5 138148974.08005        34.750
C24  21940881.889 8 114251976.04008        52.250
C25  25761549.056 6 134147153.52506        36.000
C26  22320295.063 8 116227685.98908        50.250
C29  25855785.862 6 134637871.85806        39.000
E07  25855587.092 7 135872060.67307        43.250    25855591.582 7 101462938.44907        46.500    25855587.543 7 104109779.97307        46.500    25855589.000 8 102786344.71708        49.500
E19  25161401.655 6 132224066.95406        40.750    25161402.974 7  98738764.01607        43.750    25161399.671 7 101314543.91407        44.250    25161400.644 7 100026658.97007        47.000
E20  22438697.299 7 117916155.44907        42.250
E21  26056439.824 7 136927524.45607        42.500    26056443.409 7 102251097.22307        46.000    26056439.674 7 104918503.12107        46.000    26056440.923 8 103584798.17708        49.000
E27  23117671.766 8 121484232.20408        49.750    23117674.784 8  90718784.19308        53.500    23117671.047 8  93085342.93608        53.750    23117672.335 9  91902061.07109        56.500
E30  23458073.483 7 123273072.78607        45.500    23458076.496 8  92054611.62308        49.000    23458072.829 8  94456015.56208        49.000    23458074.024 8  93255310.09808        52.000
G05  24425272.513 6 128355692.15506        41.500    24425272.544 3        23.000    24425270.907 3 100017418.13303        23.000    24425270.571 5 100017407.14505        34.500
G10  25226738.248 5 132567420.25905        33.500    25226738.377 2        12.000    25226738.086 2 103299278.96802        12.000    25226737.958 5 103299273.98905        32.750    25226737.837 6  98995137.09706        36.750
G13  20400657.729 8 107206233.92308        50.000    20400657.493 7        44.500    20400655.005 7  83537332.81307        44.500
G15  20595126.976 8 108228146.42908        51.750    20595127.011 7        46.000    20595124.343 7  84333620.80307        46.000    20595124.631 8  84333626.79808        48.500
G17  24068000.217 6 126478204.27506        41.750    24068000.083 4        25.250    24067997.840 4  98554432.51404        25.250    24067997.418 6  98554435.51006        37.250
G20  23273363.314 6 122302354.75306        38.750    23273362.505 3        23.000    23273360.257 3  95300522.02603        23.000
G24  22165123.685 7 116478535.53607        46.000    22165123.672 6        36.250    22165124.102 6  90762493.76906        36.250    22165124.073 7  90762488.77307        44.250    22165125.650 8  86980728.64308        50.000
G28  21867393.589 7 114913964.16907        47.500    21867392.972 6        38.000    21867390.393 6  89543357.28106        38.000
G30  23799895.067 6 125069360.66206        41.500    23799894.634 4        27.000    23799895.523 4  97456684.15804        27.000    23799895.011 6  97456680.16706        40.000    23799896.055 7  93395998.26707        44.250
R03  23267535.063 6 124552946.29606        40.000    23267536.150 6  96874547.01206        39.500    23267536.247 6  96874541.00306        39.750
R04  19611851.132 8 105020580.13208        52.000    19611850.851 8  81682693.16508        50.250    19611850.859 8  81682707.16608        49.750
R05  20212451.577 8 108047142.36508        50.750    20212452.162 8  84036684.28108        49.750    20212452.053 8  84036673.28008        49.000
R13  22037323.396 6 117678142.49006        39.250    22037324.890 6  91527468.80306        40.750    22037325.557 6  91527471.80006        40.500
R14  19263137.193 8 102683416.80008        52.000    19263138.943 8  79864909.53008        51.000    19263139.054 8  79864895.53308        50.500
R15  20079899.557 8 107300934.76908        48.750    20079902.443 7  83456288.90807        42.000    20079903.178 6  83456292.91106        41.250
R22  23233811.898 6 124023662.50706        40.250    23233813.547 6  96462860.72606        41.250    23233813.153 6  96462795.72706        41.500
R23  23332268.127 6 124811911.67106        40.500    23332272.725 5  97075945.25605        33.750    23332271.039 5  97075870.23205        34.000
> 2018 11 06 19 07  0.0000000  0 32
C05  40274669.646 5 209720791.91805        34.500    40274665.747 6 162169412.68206        39.000
C10  39980311.035 5 208188003.02805        35.000    39980308.034 6 160984171.99506        41.250
C14  23836481.095 7 124122838.90007        42.250    23836478.204 7  95979643.23407        47.750
C18  40769868.611 6 212299442.57406        36.000
C19  26512747.571 6 138058834.91506        36.000
C24  21934031.698 8 114216305.83508        52.000
C25  25744293.235 5 134057296.48305        35.250
C26  22329906.308 8 116277734.45808        50.500
C29  25855248.896 6 134635074.72406        38.000
E07  25871521.118 7 135955795.33707        42.500    25871525.780 7 101525467.56207        46.500    25871521.919 7 104173940.27907        46.500    25871523.292 8 102849689.42608        49.500
E19  25150184.233 6 132165119.48306        41.000    25150185.608 7  98694744.79907        44.000    25150182.251 7 101269376.36807        44.000    25150183.319 7  99982065.59007        47.000
E20  22441595.863 6 117931386.95206        41.750
E21  26041508.664 7 136849060.76907        42.000    26041512.214 7 102192504.23007        45.750    26041508.746 7 104858381.61407        46.250    26041509.885 8 103525440.92508        49.000
E27  23115554.862 8 121473108.06908        49.750    23115557.929 8  90710477.21808        53.500    23115554.164 8  93076819.25408        53.500    23115555.482 9  91893645.74109        56.500
E30  23470367.461 7 123337676.32707        45.250    23470370.131 8  92102854.53108        49.000    23470366.370 8  94505516.98208        49.000    23470367.645 8  93304182.26208        52.000
G05  24446596.575 6 128467753.93206        40.500    24446596.633 3        22.750    24446594.742 3 100104739.03803        22.750    24446595.919 6 100104728.01106        37.500
G10  25208958.341 5 132473978.68305        33.750    25208958.457 2        12.500    25208956.885 2 103226467.38502        12.500    25208957.471 5 103226462.36805        33.250    25208955.937 5  98925359.30305        35.750
G13  20407561.993 8 107242515.49008        50.000    20407561.761 7        44.750    20407559.222 7  83565604.15507        44.750
G15  20589508.472 8 108198621.33108        52.000    20589508.503 7        46.000    20589505.937 7  84310614.23007        46.000    20589506.061 8  84310620.22308        49.000
G17  24052947.053 7 126399102.67107        42.000    24052946.901 4        25.250    24052945.563 4  98492794.91604        25.250    24052944.880 6  98492797.92206        37.750
G20  23263855.121 6 122252389.43806        39.750    23263854.263 3        23.250    23263851.794 3  95261588.02203        23.250
G24  22149484.449 7 116396350.24707        46.250    22149484.432 6        36.500    22149484.477 6  90698453.29106        36.500    22149484.763 7  90698448.29307        44.000    22149486.056 8  86919356.52808        50.000
G28  21877909.386 7 114969225.37607        47.000    21877908.765 6        37.500    21877906.227 6  89586417.96106        37.500
G30  23817995.811 7 125164479.89707        42.750    23817995.369 4        27.250    23817995.904 4  97530803.03104        27.250    23817995.782 6  97530799.03206        39.750    23817996.913 7  93467028.85607        44.500
R03  23292841.470 6 124688412.51006        40.500    23292842.766 6  96979909.55106        39.500    23292841.881 6  96979903.56006        40.000
R04  19623376.807 8 105082300.74308        51.750    19623376.623 8  81730698.07708        50.250    19623376.551 8  81730712.07208        49.500
R05  20200232.534 8 107981826.35808        50.500    20200233.337 8  83985882.94008        49.750    20200233.620 8  83985871.94208        49.000
R13  22057630.312 6 117786583.95106        39.000    22057632.916 6  91611812.16406        41.000    22057633.229 6  91611815.16406        41.250
R14  19267585.359 8 102707127.94208        51.750    19267587.032 8  79883351.55008        51.250    19267587.137 8  79883337.55108        50.000
R15  20067787.321 8 107236208.68408        48.500    20067789.931 7  83405946.41407        42.000    20067790.263 6  83405950.40306        41.500
R22  23238238.310 6 124047290.16806        40.750    23238239.246 6  96481237.80906        40.500    23238239.861 6  96481172.82306        40.250
R23  23316596.882 6 124728080.05106        41.250    23316601.459 5  97010742.89905        34.250    23316601.253 5  97010667.91505        34.500
> 2018 11 06 19 07 30.0000000  0 32
C05  40274425.194 5 209719517.01505        34.750    40274420.887 6 162168426.86106        39.250
C10  39986122.752 5 208218267.12205        35.250    39986119.149 6 161007574.09406        40.250
C14  23854272.937 7 124215484.96507        43.000    23854269.645 8  96051283.02708        48.250
C18  40776059.498 5 212331676.08505        35.500
C19  26495454.323 6 137968784.11306        36.250
C24  21927244.932 8 114180965.46508        52.500
C25  25727055.857 5 133967538.89205        35.500
C26  22339567.752 8 116328044.10908        50.250
C29  25854807.057 6 134632775.25706        38.750
E07  25887489.838 7 136039711.61707        43.000    25887494.487 7 101588132.30007        46.500    25887490.618 7 104238239.74507        46.500    25887491.962 8 102913171.52608        49.500
E19  25139017.462 6 132106437.19806        41.000    25139018.687 7  98650923.61007        44.000    25139015.394 7 101224412.01207        44.500    25139016.452 7  99937672.81407        47.250
E20  22444568.223 7 117947007.00807        42.000
E21  26026612.074 7 136770779.77807        42.750    26026616.127 7 102134047.65007        46.250    26026611.961 7 104798400.08607        46.000    26026613.551 8 103466221.87508        49.000
E27  23113502.937 8 121462324.88208        49.750    23113505.974 8  90702424.83808        53.500    23113502.198 9  93068556.81209        54.000    23113503.504 9  91885488.33009        56.750
E30  23482696.656 7 123402468.86507        45.750    23482699.807 8  92151238.56108        49.000    23482695.939 8  94555163.21008        49.250    23482697.273 8  93353197.39008        52.250
G05  24467929.355 6 128579855.96906        41.500    24467929.417 4        24.000    24467928.536 4 100192091.20804        24.000    24467928.580 6 100192080.21006        36.500
G10  25191230.619 5 132380824.33705        32.500    25191230.654 2        12.000    25191230.331 2 103153879.58202        12.000    25191230.485 5 103153874.56205        33.250    25191229.401 6  98855795.97306        36.750
G13  20414555.071 8 107279263.79808        50.000    20414554.835 7        44.750    20414552.142 7  83594239.18907        44.750
G15  20583985.530 8 108169597.83008        52.250    20583985.561 7        45.750    20583982.938 7  84287998.51207        45.750    20583983.144 8  84288004.49808        48.750
G17  24037944.953 7 126320265.25307        42.250    24037944.806 4        25.750    24037943.005 4  98431363.18204        25.750    24037943.021 6  98431366.16606        37.750
G20  23254448.426 6 122202958.11306        39.000    23254447.537 3        22.500    23254445.482 3  95223070.09803        22.500
G24  22133891.987 7 116314411.65307        46.000    22133891.979 6        36.750    22133892.336 6  90634605.04906        36.750    22133892.178 7  90634600.05407        44.750    22133894.078 8  86858168.62808        50.500
G28  21888504.254 7 115024901.86507        47.500    21888503.646 6        37.250    21888501.120 6  89629802.23306        37.250
G30  23836113.443 6 125259692.85406        41.000    23836112.911 4        25.000    23836114.051 4  97604994.93204        25.000    23836114.759 6  97604990.94106        38.250    23836115.385 7  93538129.40707        44.250
R03  23318173.839 6 124824022.16806        39.750    23318175.688 6  97085383.71506        39.500    23318175.433 6  97085377.73906        39.750
R04  19635035.664 8 105144733.94608        51.500    19635035.665 8  81779257.22508        50.500    19635035.969 8  81779271.21608        49.500
R05  20188137.726 8 107917172.07708        50.750    20188138.609 8  83935596.27708        49.750    20188138.586 8  83935585.27508        49.250
R13  22077967.094 6 117895175.74306        39.250    22077968.277 6  91696272.42106        40.750    22077969.108 6  91696275.42706        40.750
R14  19272136.098 8 102731386.51108        52.000    19272137.994 8  79902219.32208        51.250    19272138.046 8  79902205.32508        50.250
R15  20055769.574 8 107171988.70708        49.000    20055771.833 6  83355997.55606        41.500    20055772.903 6  83356001.55306        41.250
R22  23242811.412 6 124071699.23706        41.750    23242812.446 6  96500222.67206        41.000    23242812.287 6  96500157.66506        41.000
R23  23301024.901 6 124644777.92406        41.250    23301028.430 5  96945952.42805        32.250    23301027.730 5  96945877.40305        31.750
> 2018 11 06 19 08  0.0000000  0 32
C05  40274180.077 5 209718240.23905        34.500    40274175.899 6 162167439.55806        39.000
C10  39991936.057 5 208248541.01905        35.500    39991933.245 6 161030983.76106        40.000
C14  23872109.434 7 124308364.10207        42.500    23872105.933 8  96123103.04608        48.250
C18  40782246.288 5 212363893.33205        35.500
C19  26478178.344 6 137878824.31906        36.000
C24  21920521.589 8 114145955.07808        52.250
C25  25709839.312 5 133877881.34005        35.750
C26  22349279.125 8 116378613.72908        50.500
C29  25854460.909 6 134630973.75106        38.750
E07  25903493.081 7 136123808.39907        43.000    25903497.600 7 101650931.81607        46.500    25903493.647 7 104302677.51707        46.000    25903495.098 8 102976790.17208        49.250
E19  25127901.318 6 132048021.57006        41.000    25127902.659 7  98607301.54107        44.000    25127899.362 7 101179651.98507        44.500    25127900.330 7  99893481.76807        47.250
E20  22447614.472 7 117963015.72607        42.250
E21  26011750.991 7 136692682.16907        42.750    26011754.339 7 102075728.01507        46.250    26011750.568 7 104738559.06407        46.000    26011751.899 8 103407141.54508        49.000
E27  23111515.811 8 121451882.23208        49.500    23111518.781 8  90694626.75908        53.500    23111515.026 8  93060555.30408        53.750    23111516.328 9  91877588.53709        56.750
E30  23495062.186 7 123467449.06107        45.250    23495065.058 8  92199762.73008        48.750    23495061.296 8  94604953.22108        49.000    23495062.610 8  93402354.48008        52.000
G05  24489269.021 6 128691995.40506        40.750    24489269.132 3        20.750    24489266.918 3 100279472.59603        20.750    24489266.862 5 100279461.59105        34.750
G10  25173558.817 5 132287959.82705        34.500    25173558.818 1        11.250    25173558.676 1 103081517.65201        11.250    25173558.571 5 103081512.67505        33.750    25173557.911 6  98786449.15706        37.500
G13  20421636.572 8 107316478.30808        50.250    20421636.331 7        44.500    20421633.815 7  83623237.49707        44.500
G15  20578558.178 8 108141077.10408        52.250    20578558.218 7        45.750    20578555.613 7  84265774.56607        45.750    20578555.935 8  84265780.55908        48.750
G17  24022993.836 7 126241695.07207        42.000    24022993.702 4        25.500    24022991.648 4  98370139.66604        25.500    24022991.370 6  98370142.66106        38.000
G20  23245144.416 6 122154062.69806        40.000    23245143.504 3        23.000    23245141.037 3  95184969.77503        23.000
G24  22118346.283 7 116232720.10507        46.250    22118346.287 6        36.750    22118346.879 6  90570949.30806        36.750    22118347.027 7  90570944.32207        45.000    22118348.267 8  86797165.21308        50.500
G28  21899177.877 7 115080991.99607        47.500    21899177.274 6        37.000    21899174.655 6  89673508.82606        37.000
G30  23854249.790 6 125354998.39806        40.500    23854249.254 4        25.500    23854250.277 4  97679258.96904        25.500    23854250.552 6  97679254.98406        39.250    23854251.802 7  93609299.12007        45.000
R03  23343534.697 6 124959771.73606        40.000    23343534.680 6  97190966.72906        39.500    23343535.162 6  97190960.71306        39.500
R04  19646827.412 8 105207877.09308        51.750    19646827.216 8  81828368.53808        50.500    19646827.312 8  81828382.53808        49.500
R05  20176167.136 8 107853182.94208        50.500    20176168.155 8  83885826.94508        50.000    20176168.038 8  83885815.94708        49.500
R13  22098330.229 6 118003914.68306        38.750    22098331.742 6  91780847.18006        40.500    22098332.466 6  91780850.16506        40.500
R14  19276789.413 8 102756190.44808        52.000    19276790.955 8  79921511.27708        51.250    19276791.235 8  79921497.28108        50.000
R15  20043846.334 8 107108275.79808        48.750    20043848.909 7  83306443.07907        42.000    20043849.663 6  83306447.09206        41.500
R22  23247529.923 6 124096888.68406        41.500    23247531.470 6  96519814.45506        40.750    23247531.957 6  96519749.45006        40.750
R23  23285552.425 6 124562008.90206        41.500    23285555.399 5  96881576.50905        32.250    23285553.854 5  96881501.51305        33.250
> 2018 11 06 19 08 30.0000000  0 32
C05  40273934.676 5 209716961.46005        34.500    40273930.093 6 162166450.74506        39.000
C10  39997752.552 6 208278824.27406        36.000    39997748.872 6 161054400.69806        39.750
C14  23889990.562 7 124401474.27707        42.750    23889987.046 8  96195101.70908        48.000
C18  40788429.883 5 212396094.13705        35.250
C19  26460919.723 6 137788958.10606        36.250
C24  21913861.630 8 114111274.73608        52.250
C25  25692640.480 5 133788324.66205        34.000
C26  22359040.177 8 116429442.20108        50.500
C29  25854210.729 6 134629670.49706        38.750
E07  25919530.683 7 136208084.54507        42.500    25919534.845 7 101713865.27307        46.250    25919531.088 7 104367252.72507        46.250    25919532.367 8 103040544.50508        49.250
E19  25116836.027 6 131989874.02006        41.000    25116837.554 7  98563879.67507        44.000    25116834.106 7 101135097.37507        44.250    25116835.233 7  99849493.53107        47.000
E20  22450734.910 7 117979413.22607        42.500
E21  25996924.294 7 136614768.64507        43.000    25996927.909 7 102017545.86007        46.000    25996924.332 7 104678859.11607        46.250    25996925.505 8 103348200.49208        49.000
E27  23109593.391 8 121441779.68308        49.500    23109596.315 8  90687082.65208        53.500    23109592.582 8  93052814.39208        53.750    23109593.870 9  91869946.02709        56.500
E30  23507462.950 7 123532615.58007        45.000    23507465.722 8  92248426.04208        48.750    23507461.989 8  94654886.01608        48.750    23507463.354 8  93451652.53508        51.750
G05  24510614.866 6 128804169.86206        40.250    24510614.906 3        23.750    24510613.719 3 100366881.25303        23.750    24510614.314 6 100366870.23506        38.000
G10  25155942.650 5 132195387.91305        34.750    25155942.624 2        12.000    25155942.880 2 103009383.69402        12.000    25155943.506 5 103009378.68905        32.750    25155942.311 6  98717320.79206        38.000
G13  20428806.944 8 107354158.65908        50.000    20428806.708 7        44.500    20428804.209 7  83652598.79507        44.500
G15  20573226.940 8 108113060.43708        52.250    20573226.980 7        45.750    20573224.219 7  84243943.39307        45.750    20573224.663 8  84243949.39008        49.000
G17  24008093.467 7 126163394.53207        42.750    24008093.342 4        25.750    24008091.481 4  98309126.26204        25.750    24008091.414 6  98309129.24906        38.250
G20  23235941.940 6 122105704.92906        39.250    23235941.060 3        23.250    23235938.822 3  95147288.40103        23.250
G24  22102848.583 7 116151277.52707        46.750    22102848.587 6        36.750    22102848.870 6  90507487.57006        36.750    22102849.236 7  90507482.57907        44.750    22102850.534 8  86736347.71508        50.500
G28  21909929.941 7 115137493.82407        47.750    21909929.338 6        37.250    21909926.725 6  89717536.22906        37.250
G30  23872403.408 6 125450395.47606        41.500    23872402.885 4        25.500    23872403.553 4  97753594.34004        25.500    23872404.213 6  97753590.35506        38.500    23872404.868 7  93680537.18007        44.250
R03  23368917.728 6 125095658.67506        40.000    23368920.005 6  97296656.50906        39.750    23368919.989 6  97296650.51506        40.000
R04  19658751.187 8 105271728.64308        51.750    19658750.963 8  81878030.83808        50.250    19658751.008 8  81878044.83408        49.000
R05  20164321.659 8 107789862.25508        50.750    20164322.689 8  83836577.52008        50.000    20164322.520 8  83836566.52208        49.000
R13  22118721.019 6 118112799.21406        39.250    22118722.202 6  91865535.14306        40.500    22118722.175 6  91865538.13006        40.500
R14  19281544.404 8 102781538.05008        52.000    19281546.275 8  79941226.08208        51.000    19281546.098 8  79941212.08108        50.250
R15  20032018.157 8 107045070.36708        48.750    20032020.926 6  83257283.32206        41.750    20032021.305 6  83257287.30806        41.250
R22  23252395.182 7 124122857.40807        42.000    23252396.502 6  96540012.33906        41.000    23252396.677 6  96539947.33806        41.250
R23  23270179.772 6 124479777.42706        40.500    23270183.834 5  96817618.69705        33.750    23270181.732 5  96817543.71405        33.000
> 2018 11 06 19 09  0.0000000  0 32
C05  40273689.642 5 209715680.81205        34.750    40273684.502 6 162165460.45406        38.500
C10  40003570.327 6 208309116.63006        36.000    40003566.220 6 161077824.67306        39.750
C14  23907915.102 7 124494813.42707        42.750    23907911.685 7  96267277.44407        47.250
C18  40794610.802 5 212428278.36705        35.750
C19  26443680.658 6 137699188.06106        37.000
C24  21907265.095 8 114076924.50108        52.250
C25  25675460.900 5 133698869.42705        35.250
C26  22368850.760 8 116480528.37008        50.250
C29  25854056.436 6 134628865.69606        39.000
E07  25935601.483 7 136292538.95707        43.000    25935605.949 7 101776931.85707        46.250    25935602.228 7 104431964.53007        46.500    25935603.481 8 103104433.69908        49.250
E19  25105822.298 6 131931996.04506        41.000    25105823.752 7  98520659.12307        44.000    25105820.299 7 101090749.31707        44.250    25105821.416 7  99805709.22507        47.000
E20  22453929.322 7 117996199.65007        42.250
E21  25982132.923 7 136537039.95807        43.000    25982136.853 7 101959501.72107        46.250    25982132.907 7 104619300.77607        46.500    25982134.272 8 103289399.25408        49.250
E27  23107735.539 8 121432016.84608        49.500    23107738.504 8  90679792.22408        53.500    23107734.791 8  93045333.78208        53.500    23107736.063 9  91862560.50909        56.500
E30  23519898.895 7 123597967.09507        45.000    23519901.716 8  92297227.50008        48.750    23519897.996 8  94704960.54408        48.750    23519899.334 8  93501090.52908        51.750
G05  24531966.887 6 128916376.57506        40.250    24531966.971 3        21.000    24531965.619 3 100454315.00703        21.000    24531965.225 5 100454304.00805        35.000
G10  25138383.041 5 132103111.25905        34.500    25138383.015 2        12.000    25138383.220 2 102937479.85102        12.000    25138382.571 5 102937474.82205        32.750    25138382.743 6  98648412.90506        38.000
G13  20436065.955 8 107392304.75908        50.250    20436065.719 7        44.250    20436063.186 7  83682323.01107        44.250
G15  20567991.409 8 108085548.80508        52.250    20567991.444 7        45.750    20567988.937 7  84222505.75607        45.750    20567989.184 8  84222511.74808        48.750
G17  23993245.432 7 126085366.86507        42.750    23993245.330 4        25.500    23993243.378 4  98248325.50204        25.500    23993242.844 6  98248328.49906        37.500
G20  23226842.147 6 122057886.12006        39.250    23226841.284 3        22.500    23226839.486 3  95110026.97903        22.500
G24  22087398.075 7 116070083.84207        46.750    22087398.058 6        36.750    22087398.296 6  90444219.77406        36.750    22087398.045 7  90444214.77707        44.750    22087399.751 8  86675716.07408        50.250
G28  21920759.712 7 115194405.04507        47.500    21920759.118 6        37.000    21920756.494 6  89761882.63306        37.000
G30  23890573.810 7 125545883.01007        42.000    23890573.287 4        26.000    23890574.179 4  97828000.20104        26.000    23890574.447 6  97827996.21006        38.500    23890575.173 7  93751842.78707        43.750
R03  23394327.494 6 125231679.34406        39.750    23394329.397 6  97402450.35006        39.500    23394330.019 6  97402444.34006        39.250
R04  19670807.078 8 105336286.94008        51.500    19670806.891 8  81928242.83408        50.500    19670807.052 8  81928256.83208        49.500
R05  20152601.921 8 107727213.04808        50.750    20152602.790 8  83787850.35908        50.000    20152603.004 8  83787839.36208        49.000    20152686.514 7  80802672.03917        44.250
R13  22139138.258 6 118221826.10606        39.250    22139139.371 6  91950333.82406        40.500    22139139.632 6  91950336.80506        40.250
R14  19286401.261 8 102807427.49608        52.000    19286403.016 8  79961362.31708        51.000    19286403.002 8  79961348.31708        50.250
R15  20020285.867 8 106982373.95508        49.250    20020288.368 7  83208519.44707        42.000    20020288.796 6  83208523.44706        41.750
R22  23257406.011 6 124149604.22006        40.750    23257406.825 6  96560815.40106        40.500    23257406.556 6  96560750.40106        41.000
R23  23254908.491 6 124398087.68606        40.500    23254911.692 5  96754082.27805        32.000    23254910.238 5  96754007.27205        33.000
> 2018 11 06 19 09 30.0000000  0 32
C05  40273442.365 5                        34.000    40273438.107 6 162164468.67606        39.250
C10  40009388.603 5 208339417.75105        35.500    40009385.235 6 161101255.43606        39.500
C14  23925883.434 7 124588379.47407        42.250    23925880.286 7  96339628.62107        47.750
C18  40800788.284 6 212460445.94606        36.000
C19  26426460.617 6 137609516.87106        36.750
C24  21900731.811 8 114042904.48808        52.000
C25  25658301.869 5 133609516.37705        35.750
C26  22378710.711 8 116531871.04708        50.500
C29  25853997.448 6 134628559.62706        39.500
E07  25951706.469 7 136377170.48107        42.500    25951710.767 7 101840130.70407        46.000    25951707.013 7 104496812.03007        46.000    25951708.347 8 103168456.87208        49.000
E19  25094860.047 6 131874389.04806        41.250    25094861.586 7  98477640.90907        44.000    25094858.073 7 101046608.89207        44.500    25094859.171 7  99762129.90607        47.250
E20  22457197.614 7 118013375.04607        42.250
E21  25967377.207 7 136459496.75707        42.750    25967380.785 7 101901596.11407        46.250    25967376.785 7 104559884.57607        46.000    25967378.222 8 103230738.35108        49.000
E27  23105942.363 8 121422593.27208        49.500    23105945.262 8  90672755.14308        53.250    23105941.501 8  93038113.12608        53.750    23105942.817 9  91855431.64009        56.500
E30  23532369.807 7 123663502.27007        45.500    23532372.891 8  92346166.09808        48.750    23532369.049 8  94755175.81008        49.000    23532370.305 8  93550667.46108        52.000
G05  24553325.054 6 129028613.14906        40.750    24553325.125 3        21.750    24553322.589 3 100541772.13003        21.750    24553323.427 6 100541761.11206        36.250
G10  25120880.786 5 132011132.48805        35.000    25120880.835 2        12.750    25120880.212 2 102865808.07602        12.750    25120880.277 5 102865803.03605        33.000    25120879.732 6  98579727.44606        38.750
G13  20443413.610 8 107430916.09508        50.250    20443413.374 7        44.250    20443410.697 7  83712409.75307        44.250
G15  20562852.538 8 108058543.31308        52.000    20562852.569 7        45.750    20562849.983 7  84201462.51407        45.750    20562850.374 8  84201468.51308        48.750
G17  23978449.470 7 126007614.84907        42.750    23978449.372 4        26.000    23978447.275 4  98187739.51004        26.000    23978447.490 6  98187742.51206        38.250
G20  23217845.798 6 122010608.01706        40.000    23217844.962 3        23.500    23217842.778 3  95073186.91703        23.500
G24  22071994.822 7 115989140.45507        47.250    22071994.791 6        36.750    22071995.229 6  90381147.02306        36.750    22071995.083 7  90381142.02907        45.000    22071996.658 8  86615271.36608        50.750
G28  21931666.968 7 115251723.77207        47.750    21931666.378 6        37.000    21931663.890 6  89806546.57706        37.000
G30  23908761.429 6 125641459.93806        40.750    23908760.888 4        25.250    23908762.196 4  97902475.71304        25.250    23908762.320 6  97902471.71906        38.750    23908763.475 7  93823215.14607        44.500
R03  23419762.297 6 125367830.69006        39.750    23419763.051 6  97508345.81106        38.500    23419763.964 6  97508339.80606        37.500
R04  19682994.431 8 105401549.32708        51.750    19682994.267 8  81979002.45708        50.250    19682994.201 8  81979016.45408        49.500
R05  20141008.315 8 107665238.50608        50.750    20141008.990 8  83739647.93808        50.000    20141009.440 8  83739636.93808        49.000
R13  22159581.701 6 118330993.34206        38.250    22159583.115 6  92035241.68606        41.000    22159583.645 6  92035244.68306        40.250
R14  19291359.353 8 102833857.16208        51.500    19291361.155 8  79981918.72908        51.000    19291361.212 8  79981904.73308        50.250
R15  20008647.973 8 106920186.63508        49.000    20008650.778 6  83160151.55306        41.750    20008650.963 7  83160155.54707        42.000
R22  23262562.066 7 124177127.87607        42.250    23262562.409 6  96582222.68906        40.250    23262563.204 6  96582157.69006        40.500
R23  23239739.566 6 124316943.26206        41.000    23239743.841 5  96690970.01605        33.500    23239741.640 5  96690895.03305        33.000
> 2018 11 06 19 10  0.0000000  0 32
C05  40273195.219 5 209713113.72805        34.000    40273191.319 6 162163475.44006        39.000
C10  40015209.799 5 208369727.53905        35.750    40015205.324 6 161124692.88206        39.250
C14  23943895.120 7 124682170.33807        42.250    23943891.809 7  96412153.64207        47.000
C18  40806962.313 5 212492596.78705        34.750
C19  26409259.366 6 137519947.01306        36.750
C24  21894262.003 8 114009214.79708        52.000
C25  25641162.337 5 133520266.14805        35.000
C26  22388619.377 8 116583469.12708        50.500
C29  25854034.999 6 134628752.55506        39.000
E07  25967844.752 7 136461977.98107        43.000    25967849.245 7 101903460.95307        46.250    25967845.292 7 104561794.38707        46.000    25967846.710 8 103232613.17608        49.000
E19  25083949.632 6 131817054.53106        41.500    25083951.023 7  98434826.16707        44.000    25083947.578 7 101002677.23107        44.500    25083948.783 7  99718756.70607        47.250
E20  22460540.048 7 118030939.44307        42.250
E21  25952656.570 7 136382139.77407        42.750    25952660.056 7 101843829.54807        46.250    25952656.445 7 104500611.06707        46.500    25952657.586 8 103172218.31208        49.250
E27  23104213.513 8 121413508.54708        50.000    23104216.468 8  90665971.10408        53.250    23104212.736 8  93031152.11008        53.750    23104214.043 9  91848559.11409        56.500
E30  23544875.427 7 123729219.78507        45.500    23544878.525 8  92395240.86608        48.500    23544874.692 8  94805530.79008        49.000    23544875.936 8  93600382.33108        52.000
G05  24574687.971 6 129140876.79806        40.500    24574688.055 3        22.500    24574687.277 3 100629250.21603        22.500    24574687.181 6 100629239.23706        37.250
G10  25103434.677 5 131919454.20705        34.500    25103434.748 2        13.500    25103434.490 2 102794370.43102        13.500    25103434.273 5 102794365.43905        32.500    25103433.426 6  98511266.43406        38.000
G13  20450849.511 8 107469992.41608        50.000    20450849.275 7        44.500    20450846.684 7  83742858.82407        44.500
G15  20557810.228 8 108032045.42208        52.000    20557810.259 7        45.750    20557807.607 7  84180814.80207        45.750    20557807.802 8  84180820.80208        48.500
G17  23963706.676 7 125930141.41207        42.750    23963706.592 4        25.500    23963704.287 4  98127370.60804        25.500    23963705.283 6  98127373.61006        37.000
G20  23208952.170 6 121963872.28506        40.000    23208951.316 3        23.750    23208948.989 3  95036769.45903        23.750
G24  22056639.737 7 115908448.64407        47.000    22056639.661 6        37.500    22056640.186 6  90318270.30506        37.500    22056639.698 7  90318265.31407        45.250    22056641.655 8  86555014.51408        50.500
G28  21942651.457 7 115309447.95207        47.750    21942650.854 6        36.750    21942648.355 6  89851526.46106        36.750
G30  23926965.659 6 125737125.20106        40.250    23926965.136 4        25.250    23926967.065 4  97977020.04704        25.250    23926966.951 6  97977016.05906        39.500    23926967.993 7  93894653.46607        44.750
R03  23445220.015 6 125504109.44206        39.250    23445221.917 6  97614340.43006        39.500    23445221.485 6  97614334.41706        38.750
R04  19695312.981 8 105467514.10508        51.500    19695312.720 8  82030308.38108        50.250    19695312.640 8  82030322.37508        49.250
R05  20129541.614 8 107603942.05008        50.500    20129542.337 8  83691972.92408        50.000    20129542.469 8  83691961.92008        49.000    20129603.275 7  80710119.74417        43.750
R13  22180051.826 6 118440298.86206        38.750    22180052.460 6  92120257.07506        40.250    22180052.935 6  92120260.06906        40.250
R14  19296418.505 8 102860825.01708        51.750    19296420.313 8  80002893.73508        51.250    19296420.280 8  80002879.73508        50.500
R15  19997105.569 8 106858508.96708        49.000    19997108.568 7  83112180.05107        42.250    19997108.326 6  83112184.05506        41.500
R22  23267861.929 6 124205427.15406        40.500    23267863.093 6  96604233.29506        39.500    23267863.248 6  96604168.26906        39.000
R23  23224673.569 7 124236348.77007        42.750    23224677.504 5  96628285.43005        34.000    23224676.112 5  96628210.42805        34.500
> 2018 11 06 19 10 30.0000000  0 32
C05  40272948.201 5                        34.000    40272944.562 6 162162480.75606        39.000
C10  40021032.020 5 208400045.62705        35.250    40021028.083 6 161148136.74706        39.000
C14  23961948.516 7 124776184.03507        42.000    23961946.055 7  96484850.96107        47.750
C18  40813133.593 5 212524730.69705        35.250
C19  26392078.743 6 137430481.18206        36.500
C24  21887855.671 8 113975855.47208        52.000
C25  25624042.313 6 133431119.42606        36.250
C26  22398577.186 8 116635321.45608        50.250
C29  25854167.864 6 134629444.63106        39.000
E07  25984016.485 7 136546960.33007        42.000    25984020.847 7 101966921.76207        46.000    25984017.179 7 104626910.69207        46.250    25984018.302 8 103296901.73108        49.000
E19  25073091.308 6 131759993.89506        41.500    25073092.812 7  98392215.94807        44.000    25073089.397 7 100958955.45507        44.500    25073090.489 7  99675590.70507        47.250
E20  22463956.352 7 118048892.98007        42.250
E21  25937971.418 7 136304969.71007        43.000    25937975.155 7 101786202.56607        46.250    25937971.472 7 104441480.77207        46.500    25937972.729 8 103113839.67308        49.500
E27  23102549.162 8 121404762.24608        50.000    23102552.125 8  90659439.77508        53.250    23102548.335 8  93024450.39808        53.750    23102549.674 9  91841942.59209        56.500
E30  23557415.750 7 123795118.33307        45.250    23557418.394 8  92444450.81808        48.250    23557414.654 8  94856024.47908        48.750    23557415.957 8  93650234.15208        51.500
G05  24596055.611 6 129253164.72906        41.000    24596055.646 3        19.250    24596053.517 3 100716747.34003        19.250    24596054.389 5 100716736.33805        34.500
G10  25086046.948 5 131828079.23205        35.250    25086047.095 2        13.500    25086046.536 2 102723169.14702        13.500    25086045.759 5 102723164.16305        34.250    25086045.453 6  98443031.86106        38.500
G13  20458373.889 8 107509533.32808        50.000    20458373.653 7        44.500    20458371.007 7  83773669.91207        44.500
G15  20552864.436 8 108006056.29808        52.250    20552864.471 7        45.750    20552862.041 7  84160563.53307        45.750    20552862.290 8  84160569.52608        49.000
G17  23949017.209 7 125852949.27807        42.250    23949017.120 4        25.500    23949015.150 4  98067220.92204        25.500    23949015.199 6  98067223.91606        37.750
G20  23200162.288 6 121917680.26706        38.750    23200161.430 3        23.500    23200159.063 3  95000775.67203        23.500
G24  22041332.473 7 115828008.98107        46.500    22041332.402 6        37.500    22041332.852 6  90255590.06006        37.500    22041332.704 7  90255585.06307        45.750    22041334.243 8  86494945.94208        50.500
G28  21953712.919 7 115367575.60607        47.500    21953712.302 6        36.750    21953709.861 6  89896820.73506        36.750
G30  23945187.716 6 125832877.75406        40.500    23945187.260 4        24.750    23945187.814 4  98051632.40904        24.750    23945187.795 6  98051628.39906        38.500    23945189.274 7  93966156.95807        44.750
R03  23470701.418 6 125640512.24106        39.500    23470703.167 6  97720431.45606        39.250    23470702.809 6  97720425.44706        39.000
R04  19707762.232 8 105534178.81108        51.750    19707761.726 8  82082158.68408        50.250    19707761.990 8  82082172.67708        49.500
R05  20118202.049 8 107543326.62408        51.000    20118202.964 8  83644827.58708        50.000    20118202.849 8  83644816.59408        49.250
R13  22200545.752 6 118549739.71906        39.500    22200547.685 6  92205377.72606        40.750    22200547.491 6  92205380.72306        40.750
R14  19301578.131 8 102888329.34108        51.750    19301580.025 8  80024285.99008        51.250    19301580.116 8  80024271.98808        50.500
R15  19985659.525 8 106797341.70208        49.500    19985661.822 7  83064605.52707        42.250    19985662.308 7  83064609.51907        42.000
R22  23273309.763 7 124234500.75607        42.000    23273310.357 6  96626846.07606        40.250    23273310.377 6  96626781.07306        40.000
R23  23209711.093 6 124156307.95806        41.000    23209713.998 5  96566031.49605        32.750    23209713.200 5  96565956.48405        33.250
> 2018 11 06 19 11  0.0000000  0 32
C05  40272700.870 5 209710539.12505        34.250    40272697.363 6 162161484.57106        39.000
C10  40026854.365 5 208430371.74805        34.750    40026851.768 6 161171586.82806        39.250
C14  23980046.235 7 124870418.38507        42.000    23980042.953 7  96557718.91607        47.250
C18  40819301.058 5 212556847.55005        34.000
C19  26374917.851 5 137341121.90405        35.500
C24  21881512.964 8 113942826.57208        52.250
C25  25606942.520 5 133342076.97905        35.500
C26  22408583.602 8 116687426.88308        50.250
C29  25854395.969 6 134630636.07806        39.250
E07  26000220.915 7 136632116.36207        43.000    26000225.566 7 102030512.28307        46.000    26000221.644 7 104692160.10507        45.750    26000222.966 8 103361321.69908        49.000
E19  25062285.613 6 131703208.61006        41.750    25062286.946 7  98349811.35207        44.000    25062283.498 7 100915444.64907        44.500    25062284.617 7  99632633.00607        47.250
E20  22467446.991 7 118067235.72507        42.250
E21  25923322.414 7 136227987.24007        42.500    25923326.023 7 101728715.67107        46.500    25923322.048 7 104382494.21607        46.250    25923323.443 8 103055602.95108        49.500
E27  23100949.070 8 121396353.90508        50.000    23100952.089 8  90653160.82908        53.250    23100948.281 8  93018007.65308        53.750    23100949.620 9  91835581.74609        56.500
E30  23569989.816 7 123861196.60207        46.000    23569992.670 8  92493794.97708        48.250    23569988.745 8  94906655.87708        48.250    23569990.231 8  93700221.93708        51.250
G05  24617427.518 6 129365474.16806        40.500    24617427.544 3        23.750    24617426.268 3 100804261.17503        23.750    24617426.817 6 100804250.16006        38.750
G10  25068716.791 5 131737010.14605        33.250    25068716.974 2        14.000    25068716.718 2 102652206.22302        14.000    25068715.824 5 102652201.24405        34.250    25068715.901 6  98375025.69906        39.250
G13  20465986.355 8 107549538.48808        50.250    20465986.110 7        44.000    20465983.766 7  83804842.75807        44.000
G15  20548016.044 8 107980577.12508        52.250    20548016.075 7        46.000    20548013.497 7  84140709.63007        46.000    20548013.838 8  84140715.63008        48.750
G17  23934382.726 7 125776041.57407        42.250    23934382.668 4        25.250    23934379.994 4  98007292.84804        25.250    23934380.509 6  98007295.86006        36.750
G20  23191475.615 6 121872033.34406        39.500    23191474.784 3        23.000    23191472.842 3  94965206.66003        23.000
G24  22026073.470 7 115747822.70007        47.000    22026073.403 6        37.000    22026073.856 6  90193107.25906        37.000    22026073.776 7  90193102.27207        44.750    22026075.544 8  86435066.60508        50.750
G28  21964850.816 7 115426104.91907        47.500    21964850.204 6        37.000    21964847.564 6  89942427.99106        37.000
G30  23963425.041 6 125928716.50106        41.500    23963424.581 4        24.750    23963425.161 4  98126311.93604        24.750    23963425.214 6  98126307.94506        38.500    23963426.339 7  94037724.84807        43.750
R03  23496204.687 6 125777036.02906        40.000    23496206.937 6  97826616.60906        39.250    23496206.876 6  97826610.62106        39.500
R04  19720341.720 8 105601541.36608        51.500    19720341.451 8  82134551.76608        50.250    19720341.349 8  82134565.76708        49.500
R05  20106990.570 8 107483395.26308        50.750    20106991.502 8  83598214.31908        50.000    20106991.837 8  83598203.31708        49.250
R13  22221065.646 6 118659314.27306        37.750    22221066.195 6  92290602.39206        39.500    22221066.938 6  92290605.40806        38.500
R14  19306838.168 8 102916368.26808        51.750    19306840.106 8  80046094.04808        51.250    19306839.974 8  80046080.05008        50.750
R15  19974308.072 8 106736685.71008        49.000    19974310.876 7  83017428.66807        42.000    19974311.623 6  83017432.66406        41.500
R22  23278900.697 6 124264347.30206        40.750    23278901.325 6  96650060.05406        40.000    23278901.241 6  96649995.05706        40.000
R23  23194852.741 6 124076824.76906        41.500    23194855.587 5  96504211.27805        33.250    23194855.690 5  96504136.26505        34.250
> 2018 11 06 19 11 30.0000000  0 32
C05  40272453.470 5 209709248.94405        34.500    40272449.218 6 162160486.94706        39.000
C10  40032681.050 5 208460705.64905        35.500    40032677.470 6 161195042.91306        39.500
C14  23998184.230 6 124964871.40706        41.750    23998181.425 7  96630755.95507        47.250
C18  40825465.655 5 212588947.28605        34.250
C19  26357777.970 5 137251871.85305        35.000
C24  21875233.495 8 113910128.16808        52.000
C25  25589863.774 6 133253139.39106        36.500
C26  22418638.078 8 116739784.23808        50.750
C29  25854721.041 6 134632327.05406        39.000
E07  26016458.441 7 136717444.95507        42.250    26016463.009 7 102094231.65307        46.250    26016459.238 7 104757541.72207        46.000    26016460.532 8 103425872.19408        49.000
E19  25051532.377 7 131646700.11207        42.000    25051533.779 7  98307613.44107        44.000    25051530.348 7 100872145.92907        44.500    25051531.393 7  99589884.68907        47.250
E20  22471011.662 7 118085967.71607        42.000
E21  25908708.720 7 136151193.05307        42.750    25908712.255 7 101671369.38607        46.750    25908708.690 7 104323651.93207        46.750    25908709.836 8 102997508.66408        49.750
E27  23099413.301 8 121388283.09908        50.000    23099416.242 8  90647133.92808        53.250    23099412.445 8  93011823.52508        53.750    23099413.792 9  91829476.23209        56.500
E30  23582597.936 7 123927453.23807        45.750    23582600.921 8  92543272.34008        48.500    23582597.297 8  94957423.95208        48.500    23582598.503 8  93750344.65408        51.500
G05  24638802.672 6 129477802.70506        40.500    24638802.694 3        21.750    24638802.229 3 100891789.85603        21.750    24638802.228 5 100891778.84905        35.000
G10  25051445.732 5 131646249.58505        33.750    25051445.928 2        12.750    25051445.537 2 102581483.73902        12.750    25051445.246 5 102581478.76105        33.750    25051444.961 6  98307250.01406        40.250
G13  20473687.519 8 107590007.17908        50.000    20473687.278 7        44.500    20473684.749 7  83836376.79707        44.500
G15  20543264.801 8 107955608.89708        52.000    20543264.832 7        46.000    20543262.183 7  84121253.86507        46.000    20543262.530 8  84121259.86108        49.000
G17  23919802.041 7 125699420.76807        42.750    23919801.974 4        26.000    23919799.750 4  97947588.33204        26.000    23919800.597 6  97947591.33406        38.000
G20  23182893.420 6 121826933.53106        40.250    23182892.557 4        24.250    23182890.604 4  94930063.94304        24.250
G24  22010863.070 7 115667890.73707        47.000    22010862.990 6        38.000    22010863.551 6  90130822.62006        38.000    22010863.110 7  90130817.62907        45.500    22010864.911 8  86375377.15408        51.000
G28  21976064.507 7 115485033.60907        47.250    21976063.899 6        36.500    21976061.191 6  89988346.45406        36.500
G30  23981678.822 6 126024640.41406        41.250    23981678.308 4        25.750    23981679.228 4  98201057.83904        25.750    23981679.419 6  98201053.84006        39.250    23981680.065 7  94109356.33807        43.750
R03  23521731.432 6 125913677.69506        39.750    23521732.537 6  97932893.46506        40.000    23521732.280 6  97932887.46506        38.750
R04  19733051.202 8 105669599.73308        51.750    19733050.612 8  82187486.02408        50.000    19733050.681 8  82187500.02208        48.750
R05  20095908.008 8 107424151.24408        51.000    20095908.719 8  83552135.63008        50.000    20095908.709 8  83552124.62608        49.250
R13  22241609.247 6 118769019.55506        38.500    22241611.347 6  92375928.71306        40.250    22241612.550 6  92375931.71606        39.500
R14  19312198.249 8 102944940.00008        51.750    19312200.057 8  80068316.50008        51.250    19312199.938 8  80068302.49908        50.500
R15  19963052.934 8 106676541.66408        48.750    19963055.865 7  82970649.96707        42.000    19963056.112 7  82970653.96007        42.000
R22  23284636.208 6 124294965.39006        40.000    23284637.303 6  96673874.09806        39.750    23284638.085 6  96673809.11206        39.750
R23  23180099.133 6 123997903.23506        40.500    23180101.518 5  96442827.90605        32.250    23180100.986 5  96442752.87105        33.000
> 2018 11 06 19 12  0.0000000  0 32
C05  40272204.989 5 209707956.91405        34.250    40272200.926 6 162159487.86006        39.250
C10  40038507.702 5 208491047.15705        35.750    40038504.361 6 161218504.89706        39.750
C14  24016363.981 6 125059540.99006        41.750    24016362.072 7  96703960.44907        47.500
C18  40831625.998 5 212621029.75305        33.750
C19  26340660.893 6 137162733.63806        36.000
C24  21869017.520 8 113877760.31408        52.250
C25  25572803.681 6 133164307.35706        36.000
C26  22428741.104 8 116792392.40108        50.500
C29  25855141.025 6 134634517.67306        38.750
E07  26032728.608 7 136802944.92807        43.000    26032733.157 7 102158079.01607        45.750    26032729.212 7 104823054.67607        45.750    26032730.607 8 103490552.34908        48.750
E19  25040832.155 7 131590469.84007        42.000    25040833.468 7  98265623.30207        44.000    25040830.026 7 100829060.39307        44.500    25040831.162 7  99547346.85407        47.250
E20  22474650.134 7 118105089.02707        42.500
E21  25894131.412 7 136074587.84207        43.000    25894134.870 7 101614164.21007        46.250    25894131.207 7 104264954.45007        46.750    25894132.481 8 102939557.33308        49.500
E27  23097941.570 8 121380549.34108        50.250    23097944.540 8  90641358.72608        53.250    23097940.793 8  93005897.67008        53.750    23097942.096 9  91823625.70409        56.500
E30  23595239.927 7 123993886.94507        45.750    23595242.933 8  92592881.92508        48.500    23595239.218 8  95008327.70708        48.750    23595240.415 8  93800601.32208        51.500
G05  24660181.581 6 129590147.89806        40.250    24660181.679 3        21.000    24660179.630 3 100979331.58003        21.000    24660180.777 5 100979320.56705        35.500
G10  25034233.441 5 131555800.30905        33.750    25034233.691 2        13.000    25034233.617 2 102511003.81002        13.000    25034232.735 5 102510998.84005        34.250    25034233.146 6  98239706.73006        40.500
G13  20481476.538 8 107630939.14508        50.000    20481476.297 7        44.500    20481473.864 7  83868271.82707        44.500
G15  20538610.939 8 107931152.64108        52.250    20538610.970 7        46.250    20538608.315 7  84102197.03707        46.250    20538608.619 8  84102203.03108        49.000
G17  23905277.033 7 125623089.70007        42.250    23905276.940 4        26.500    23905274.815 4  97888109.60204        26.500    23905274.248 6  97888112.59706        38.000
G20  23174415.769 6 121782382.05606        39.750    23174414.898 4        24.250    23174412.833 4  94895348.50104        24.250
G24  21995701.186 7 115588214.18407        46.750    21995701.110 6        37.750    21995701.411 6  90068737.01206        37.750    21995701.328 7  90068732.02107        44.750    21995702.871 8  86315878.45008        51.250
G28  21987353.808 7 115544359.73407        47.250    21987353.200 6        36.750    21987350.602 6  90034574.60606        36.750
G30  23999948.222 6 126120648.43806        41.000    23999947.672 4        25.000    23999948.931 4  98275869.26404        25.000    23999948.735 6  98275865.28006        38.250    23999950.031 7  94181050.63407        44.500
R03  23547278.940 6 126050433.94506        40.250    23547279.449 6  98039259.41706        39.000    23547279.207 6  98039253.41206        38.000
R04  19745889.893 8 105738351.70908        51.750    19745889.740 8  82240959.77208        50.000    19745890.036 8  82240973.76508        49.000
R05  20084954.257 8 107365597.60708        51.000    20084955.337 8  83506593.91408        50.250    20084955.017 8  83506582.91208        49.500
R13  22262179.008 6 118878853.72706        38.500    22262180.260 6  92461355.26206        40.750    22262180.148 6  92461358.27106        40.500
R14  19317657.600 8 102974042.58708        51.750    19317659.582 8  80090951.85608        51.250    19317659.767 8  80090937.85408        50.500
R15  19951893.802 8 106616909.67608        49.000    19951896.251 7  82924269.53707        42.000    19951897.092 6  82924273.53806        41.500
R22  23290515.602 6 124326353.68606        39.500    23290517.272 6  96698287.21406        39.500    23290518.339 6  96698222.24006        40.500
R23  23165451.019 7 123919547.46107        42.500    23165454.209 5  96381884.48905        32.750    23165452.740 5  96381809.49805        33.750
> 2018 11 06 19 12 30.0000000  0 32
C05  40271957.424 5                        34.500    40271952.723 6 162158487.35306        39.000
C10  40044336.317 5 208521396.01205        35.750    40044332.350 6 161241972.55606        39.500
C14  24034586.213 7 125154425.06607        42.250    24034583.627 7  96777330.82407        47.500
C18  40837783.918 5 212653094.87605        34.500
C19  26323564.023 6 137073709.84606        36.500
C24  21862865.159 8 113845723.03808        52.500
C25  25555764.420 6 133075581.52206        37.250
C26  22438891.818 8 116845250.19208        50.500
C29  25855658.100 6 134637208.10006        38.500
E07  26049030.884 7 136888615.15907        43.000    26049035.692 7 102222053.52507        46.000    26049031.892 7 104888698.08307        45.500    26049033.177 8 103555361.31208        48.750
E19  25030184.971 7 131534519.25007        42.000    25030186.367 7  98223842.02007        44.250    25030182.912 7 100786189.16507        44.750    25030184.077 7  99505020.59907        47.500
E20  22478363.025 7 118124599.59007        42.500
E21  25879589.798 7 135998172.28607        43.250    25879593.510 7 101557100.65407        46.750    25879589.813 7 104206402.27707        46.500    25879591.059 8 102881749.46808        49.500
E27  23096533.952 8 121373152.17808        50.250    23096536.895 8  90635834.87108        53.250    23096533.130 9  93000229.71309        54.000    23096534.461 9  91818029.79709        56.500
E30  23607915.279 7 124060496.41607        45.750    23607918.299 8  92642622.76108        48.500    23607914.472 8  95059366.12808        48.750    23607915.757 8  93850990.94808        51.750
G05  24681562.610 6 129702506.91306        39.500    24681562.744 3        22.000    24681561.771 3 101066884.02503        22.000    24681562.046 6 101066873.04606        36.500
G10  25017080.815 5 131465664.88105        35.250    25017081.034 2        14.500    25017081.444 2 102440768.42402        14.500    25017081.556 5 102440763.43005        33.750    25017080.803 6  98172397.81406        40.000
G13  20489353.791 8 107672334.08708        50.000    20489353.550 7        44.500    20489351.106 7  83900527.61907        44.500
G15  20534054.738 8 107907209.57608        52.000    20534054.769 7        46.000    20534052.103 7  84083540.10307        46.000    20534052.284 8  84083546.10508        48.750
G17  23890806.948 7 125547051.53107        42.750    23890806.828 4        27.000    23890805.503 4  97828859.10104        27.000    23890805.298 6  97828862.09606        39.250
G20  23166041.794 6 121738380.30206        39.250    23166040.940 3        23.750    23166039.416 3  94861061.43103        23.750
G24  21980587.882 7 115508793.53807        47.250    21980587.820 6        38.000    21980588.073 6  90006850.80506        38.000    21980587.753 7  90006845.82307        45.000    21980589.724 8  86256570.84108        51.000
G28  21998718.310 7 115604081.21907        47.000    21998717.702 6        36.500    21998715.280 6  90081110.83006        36.500
G30  24018233.616 6 126216739.54806        40.000    24018233.031 4        25.000    24018234.299 4  98350745.43704        25.000    24018234.584 6  98350741.45606        38.750    24018235.721 7  94252806.95807        44.250
R03  23572846.707 6 126187301.77806        39.250    23572848.423 6  98145712.16706        39.750    23572847.805 6  98145706.16206        39.000
R04  19758857.954 8 105807794.88708        51.250    19758857.889 8  82294971.11708        50.000    19758857.835 8  82294985.11408        49.250
R05  20074130.406 8 107307737.44208        51.250    20074131.265 8  83461591.56608        50.250    20074131.138 8  83461580.56408        49.500
R13  22282770.838 6 118988813.72306        38.250    22282771.237 6  92546879.70806        39.500    22282772.823 6  92546882.70006        39.750
R14  19323216.581 8 103003674.09708        51.500    19323218.376 8  80113998.58908        51.250    19323218.553 8  80113984.58708        50.250
R15  19940830.364 8 106557791.59608        49.000    19940833.341 7  82878288.82407        42.500    19940833.323 7  82878292.81507        42.000
R22  23296539.960 6 124358510.63806        38.750    23296541.456 6  96723298.16606        39.500    23296541.864 6  96723233.17206        39.500
R23  23150910.248 6 123841761.50706        41.000    23150913.091 5  96321384.36305        33.750    23150912.259 5  96321309.35805        34.250
> 2018 11 06 19 13  0.0000000  0 33
C05  40271707.581 5 209705367.24005        34.500    40271703.677 6 162157485.36506        39.250
C10  40050166.162 6 208551751.81906        36.000    40050161.947 6 161265445.58106        40.000
C14  24052848.585 6 125249521.55206        41.500    24052845.770 7  96850865.42807        47.000
C18  40843938.551 5 212685142.54005        34.000
C19  26306490.655 6 136984803.15406        36.250
C24  21856776.251 8 113814016.42608        52.250
C25  25538746.452 6 132986962.60606        37.250
C26  22449090.428 8 116898356.49108        50.500
C29  25856270.850 6 134640398.42306        38.500
E07  26065365.784 7 136974454.47707        42.500    26065370.482 7 102286154.29007        45.750    26065366.504 7 104954471.03907        45.750    26065367.862 8 103620298.17008        48.750
E19  25019591.591 6 131478849.76506        41.750    25019592.922 7  98182270.65307        44.250    25019589.569 7 100743533.32307        44.750    25019590.548 7  99462906.99307        47.500
E20  22482149.800 7 118144499.56607        42.500
E21  25865084.538 7 135921947.03307        43.750    25865088.337 7 101500179.22007        46.500    25865084.415 7 104147995.92907        46.750    25865085.853 8 102824085.57908        49.500
E27  23095190.183 8 121366091.14308        50.250    23095193.247 8  90630562.02808        53.250    23095189.471 8  92994819.31608        53.750    23095190.788 9  91812688.17809        56.500
E30  23620623.951 7 124127280.32407        45.250    23620626.801 8  92692493.86808        48.250    23620622.942 8  95110538.21708        48.500    23620624.314 8  93901512.54708        51.250
G05  24702946.016 6 129814877.01806        38.500    24702946.159 3        19.500    24702944.475 3 101154445.13703        19.500    24702944.022 5 101154434.14005        34.250
G10  24999989.459 5 131375845.97105        34.250    24999989.682 2        14.750    24999989.333 2 102370779.70302        14.750    24999989.624 5 102370774.71405        33.500    24999988.496 6  98105325.28006        39.250
G13  20497318.897 8 107714191.55208        50.250    20497318.656 7        44.250    20497316.268 7  83933143.81807        44.250
G15  20529596.492 8 107883781.08608        52.000    20529596.523 7        46.250    20529593.824 7  84065284.13307        46.250    20529594.151 8  84065290.13608        49.000
G17  23876393.831 7 125471308.89007        43.750    23876393.711 4        27.000    23876392.185 4  97769838.87404        27.000    23876391.392 6  97769841.87806        38.500
G19  25243264.723 5 132654255.11315        33.250
G20  23157773.676 6 121694929.85506        40.000    23157772.813 3        23.000    23157770.621 3  94827203.93803        23.000
G24  21965523.640 7 115429630.32507        46.500    21965523.582 6        37.750    21965523.968 6  89945165.19906        37.750    21965523.848 7  89945160.20907        45.000    21965525.501 8  86197455.47208        51.000
G28  22010158.001 7 115664196.28807        47.250    22010157.402 6        36.500    22010154.858 6  90127953.74006        36.500
G30  24036535.600 6 126312912.70306        40.000    24036535.091 4        24.500    24036535.577 4  98425685.53404        24.500    24036535.369 6  98425681.54706        38.250    24036536.873 7  94324624.53707        44.500
R03  23598435.033 6 126324278.02806        39.500    23598435.973 6  98252249.22806        37.750    23598435.906 6  98252243.23106        38.250
R04  19771954.343 8 105877927.05108        51.250    19771954.551 8  82349518.34708        50.000    19771954.620 8  82349532.34708        49.250
R05  20063436.724 8 107250573.71308        51.000    20063437.522 8  83417130.89508        50.000    20063437.356 8  83417119.88808        49.500
R13  22303385.269 6 119098898.33206        38.500    22303387.698 6  92632501.06906        41.000    22303387.535 6  92632504.06306        40.750
R14  19328874.221 8 103033832.74008        52.000    19328876.066 8  80137455.30708        51.250    19328876.220 8  80137441.31008        50.500
R15  19929863.382 8 106499186.67708        48.750    19929866.123 7  82832707.23507        42.500    19929866.620 6  82832711.23506        41.750
R22  23302707.785 6 124391434.96406        39.000    23302709.741 6  96748905.98306        39.750    23302709.297 6  96748840.97106        40.000
R23  23136475.233 6 123764549.14506        40.750    23136478.761 5  96261330.36805        34.500    23136479.130 5  96261255.34705        34.750
> 2018 11 06 19 13 30.0000000  0 34
C05  40271458.720 5 209704069.63005        34.500    40271454.813 6 162156481.94906        39.250
C10  40055996.753 5 208582114.36305        35.750    40055992.419 6 161288923.83106        39.750
C14  24071151.287 6 125344828.34206        41.750    24071148.163 7  96924562.65807        47.750
C18  40850089.389 5 212717172.64805        34.500
C19  26289439.778 6 136896016.13506        36.750
C24  21850750.783 8 113782640.49508        52.500
C25  25521748.803 5 132898451.28105        35.750
C26  22459336.486 8 116951710.19108        50.250
C29  25856979.678 6 134644088.75106        38.750
E07  26081732.355 7 137060461.71207        42.750    26081736.969 7 102350380.44807        46.000    26081733.238 7 105020372.67007        45.500    26081734.568 8 103685362.06708        48.750
E19  25009051.684 6 131423462.82006        41.750    25009053.089 7  98140910.27407        44.000    25009049.755 7 100701093.97307        44.750    25009050.764 7  99421007.12907        47.500
E20  22486010.828 7 118164788.87307        42.500
E21  25850615.863 7 135845912.79507        43.500    25850619.440 7 101443400.41107        47.000    25850615.737 7 104089735.94007        46.750    25850616.935 8 102766566.18008        49.750
E27  23093910.390 8 121359365.75408        50.000    23093913.405 8  90625539.82908        53.250    23093909.656 9  92989666.10509        54.000    23093910.982 9  91807600.47209        56.500
E30  23633365.411 7 124194237.38307        45.250    23633368.246 8  92742494.26008        48.000    23633364.540 8  95161842.97108        48.500    23633365.831 8  93952165.12208        51.250
G05  24724331.294 6 129927255.72806        39.750    24724331.374 3        22.250    24724329.844 3 101242012.96903        22.250    24724330.782 6 101242001.97206        37.250
G10  24982958.147 6 131286346.24406        36.000    24982958.316 2        15.500    24982957.884 2 102301039.64802        15.500    24982956.846 5 102301034.68105        33.750    24982957.333 6  98038491.08406        39.750
G11  25505773.727 5 134033747.11015        33.750
G13  20505372.109 8 107756511.29808        50.250    20505371.868 7        44.250    20505369.424 7  83966120.24107        44.250
G15  20525236.218 8 107860868.12308        52.250    20525236.244 7        46.000    20525233.621 7  84047429.87507        46.000    20525233.763 8  84047435.87408        49.250
G17  23862037.130 7 125395864.62807        43.000    23862037.028 4        27.000    23862035.303 4  97711051.15104        27.000    23862035.633 6  97711054.16506        39.000
G19  25222499.714 5 132545134.77905        33.500    25222498.941 1        10.500    25222497.449 1 103281908.09111        10.500
G20  23149610.516 6 121652032.05406        40.250    23149609.662 3        23.500    23149607.544 3  94793777.07203        23.500
G24  21950508.482 7 115350725.48507        46.750    21950508.442 6        38.000    21950508.671 6  89883680.91906        38.000    21950508.763 7  89883675.93007        45.000    21950510.354 8  86138533.03708        51.000
G28  22021671.716 7 115724702.48607        47.500    22021671.099 6        36.500    22021668.673 6  90175101.43106        36.500
G30  24054851.462 6 126409166.86806        40.500    24054850.966 4        24.750    24054852.014 4  98500688.77304        24.750    24054852.482 6  98500684.77306        39.250    24054853.334 7  94396502.65307        44.000
R03  23624042.448 6 126461359.10506        40.750    23624044.093 6  98358867.85106        38.250    23624044.747 6  98358861.83606        38.500
R04  19785179.566 8 105948745.90408        51.750    19785179.420 8  82404599.66008        50.000    19785179.586 8  82404613.65308        49.500
R05  20052873.824 8 107194109.54008        50.750    20052874.777 8  83373214.30508        50.000    20052874.835 8  83373203.30808        49.500
R13  22324023.096 6 119209104.48106        38.000    22324024.755 6  92718216.95306        40.000    22324025.721 6  92718219.94706        39.000
R14  19334630.242 8 103064516.59608        51.500    19334632.332 8  80161320.53608        51.250    19334632.214 8  80161306.53508        50.500
R15  19918992.776 8 106441096.56308        49.000    19918995.439 7  82787526.03607        42.500    19918995.820 7  82787530.03807        42.000
R22  23309019.682 6 124425124.90406        40.250    23309020.516 6  96775109.22706        39.250    23309020.479 6  96775044.23306        40.000
R23  23122148.813 6 123687914.30406        41.250    23122152.174 5  96201725.49705        33.500    23122151.365 5  96201650.46905        33.500
> 2018 11 06 19 14  0.0000000  0 34
C05  40271208.919 5 209702770.09905        34.500    40271204.746 6 162155477.09906        39.000
C10  40061829.083 5 208612483.48305        35.500    40061824.515 6 161312407.17306        39.750
C14  24089493.785 6 125440343.33906        41.250    24089491.271 7  96998420.88907        47.000
C18  40856237.284 5 212749184.97105        33.750
C19  26272412.485 6 136807351.37606        36.250
C24  21844788.946 8 113751595.26208        52.500
C25  25504771.739 6 132810048.21006        36.750
C26  22469629.594 8 117005310.10708        50.500
C29  25857784.267 6 134648279.14706        38.250
E07  26098130.623 7 137146635.69307        42.500    26098135.351 7 102414731.12507        45.750    26098131.440 7 105086402.06307        45.750    26098132.858 8 103750552.09908        48.500
E19  24998566.130 6 131368359.84606        41.750    24998567.397 7  98099761.95107        44.000    24998563.912 7 100658872.22207        44.750    24998565.001 7  99379322.09107        47.500
E20  22489945.725 7 118185467.51907        42.750
E21  25836183.699 7 135770070.20107        43.500    25836187.025 7 101386764.71707        46.500    25836183.387 7 104031622.79107        47.000    25836184.666 8 102709191.75908        49.750
E27  23092694.410 8 121352975.52908        49.750    23092697.400 8  90620767.91808        53.250    23092693.657 9  92984769.70409        54.000    23092694.951 9  91802766.31609        56.500
E30  23646139.358 7 124261366.25807        45.500    23646142.499 8  92792622.96708        48.000    23646138.805 8  95213279.38208        48.500    23646140.001 8  94002947.68108        51.250
G05  24745717.048 6 130039640.42406        40.250    24745717.097 3        20.500    24745716.488 3 101329585.40703        20.500    24745715.720 6 101329574.39806        36.000
G10  24965988.354 5 131197168.41705        35.250    24965988.483 2        15.750    24965987.978 2 102231550.41302        15.750    24965987.132 5 102231545.42605        35.000    24965987.165 6  97971897.23806        39.250
G11  25498250.127 5 133994213.20105        33.000    25498250.332 1        10.000    25498247.167 1 104411062.58611        10.000
G13  20513513.293 8 107799292.49508        50.000    20513513.048 7        44.000    20513510.478 7  83999456.22607        44.000
G15  20520974.248 8 107838471.53308        52.250    20520974.265 7        46.000    20520971.726 7  84029977.98407        46.000    20520971.887 8  84029983.97908        49.000
G17  23847738.052 7 125320721.51507        43.500    23847737.945 4        27.000    23847736.078 4  97652498.10704        27.000    23847735.514 6  97652501.10806        38.000
G19  25201735.257 5 132436014.12805        33.750    25201734.631 1        10.500    25201731.418 1 103196879.01301        10.500
G20  23141553.100 6 121609688.25306        40.250    23141552.229 3        23.500    23141549.926 3  94760781.90103        23.500
G24  21935542.698 7 115272079.77507        47.250    21935542.685 6        38.000    21935543.000 6  89822398.55806        38.000    21935542.726 7  89822393.57007        46.000    21935544.562 8  86079804.11008        50.750
G28  22033259.860 7 115785597.81807        47.250    22033259.230 6        36.250    22033256.624 6  90222552.34306        36.250
G30  24073183.595 6 126505501.00606        41.000    24073183.139 4        25.000    24073184.003 4  98575754.31304        25.000    24073183.438 6  98575750.33406        39.250    24073185.103 7  94468440.45707        44.250
R03  23649668.648 6 126598542.26406        38.750    23649670.948 6  98465565.87206        38.500    23649670.765 6  98465559.88306        38.250
R04  19798532.208 8 106020248.88508        51.250    19798532.190 8  82460213.07408        50.000    19798532.410 8  82460227.07608        49.500
R05  20042442.298 8 107138347.95208        50.750    20042443.483 8  83329844.18108        50.000    20042443.396 8  83329833.17808        49.750    20042505.811 7  80360875.62617        43.750
R13  22344684.678 6 119319430.34306        38.750    22344685.515 6  92804025.97306        39.750    22344686.033 6  92804028.97106        40.250
R14  19340484.719 8 103095723.77908        51.750    19340486.678 8  80185592.79008        51.250    19340486.548 8  80185578.79308        50.500
R15  19908218.608 8 106383522.18708        49.250    19908221.015 7  82742745.97707        42.250    19908221.683 6  82742749.96806        41.750
R22  23315473.814 6 124459578.88306        39.750    23315474.864 6  96801906.80806        39.500    23315474.468 6  96801841.78406        39.500
R23  23107931.973 6 123611860.91706        41.750    23107934.292 5  96142572.87405        32.500    23107934.104 5  96142497.86105        34.250
> 2018 11 06 19 14 30.0000000  0 34
C05  40270960.344 5 209701468.75805        34.250    40270955.166 6 162154470.81006        39.000
C10  40067661.120 5 208642858.86505        35.750    40067658.194 6 161335895.30406        40.000
C14  24107876.446 7 125536064.47907        42.000    24107873.520 7  97072438.54407        46.750
C18  40862382.037 5 212781179.53805        34.000
C19  26255409.344 6 136718811.54006        36.500
C24  21838890.604 8 113720880.77708        52.250
C25  25487815.596 6 132721754.02506        36.750
C26  22479970.076 8 117059155.12808        50.000
C29  25858684.373 6 134652969.65406        38.250
E07  26114560.624 7 137232975.24507        43.250    26114565.249 7 102479205.45307        45.750    26114561.427 7 105152558.32607        45.500    26114562.739 8 103815867.39308        48.500
E19  24988134.806 6 131313542.30306        41.750    24988135.955 7  98058826.76307        44.250    24988132.565 7 100616869.15907        44.750    24988133.578 7  99337852.96807        47.500
E20  22493954.879 7 118206535.54707        42.750
E21  25821787.730 7 135694419.94307        43.750    25821791.350 7 101330272.65107        46.750    25821787.354 7 103973657.01407        46.500    25821788.930 8 102651962.84208        49.750
E27  23091542.105 8 121346919.98508        50.000    23091545.068 8  90616245.92608        53.250    23091541.324 8  92980129.74808        53.750    23091542.619 9  91798185.34109        56.500
E30  23658946.222 7 124328665.66107        45.250    23658949.143 8  92842879.01808        48.000    23658945.336 8  95264846.45508        48.250    23658946.656 8  94053859.24108        51.250
G05  24767103.834 6 130152028.33606        39.000    24767103.887 3        20.250    24767101.876 3 101417160.43203        20.250    24767102.554 5 101417149.43505        35.500
G10  24949079.855 6 131108315.06606        36.000    24949079.989 2        16.250    24949079.691 2 102162314.02102        16.250    24949080.253 5 102162309.03305        34.750    24949079.026 6  97905545.69606        39.500
G11  25490820.800 5 133955168.61205        32.500    25490820.541 1         6.000    25490816.600 1 104380638.21401         6.000
G13  20521741.964 8 107842534.82508        50.000    20521741.719 7        44.000    20521739.224 7  84033151.53907        44.000
G15  20516810.883 8 107816592.77908        52.000    20516810.896 7        46.000    20516808.306 7  84012929.60407        46.000    20516808.709 8  84012935.60108        49.000
G17  23833496.422 7 125245882.30407        44.250    23833496.302 4        27.250    23833494.412 4  97594181.85704        27.250    23833494.366 6  97594184.87106        38.500
G19  25180971.472 5 132326896.12805        33.750    25180970.842 2        13.000    25180966.866 2 103111852.01602        13.000
G20  23133601.262 6 121567899.70506        40.750    23133600.395 4        24.000    23133597.874 4  94728219.38804        24.000
G24  21920626.465 7 115193694.62307        47.000    21920626.457 6        38.250    21920626.888 6  89761319.23106        38.250    21920626.581 7  89761314.24507        45.750    21920628.417 8  86021269.76308        51.250
G28  22044921.472 7 115846880.28207        46.750    22044920.846 6        36.000    22044918.262 6  90270304.91806        36.000
G30  24091530.487 6 126601914.07506        40.250    24091530.067 4        24.250    24091530.708 4  98650881.35804        24.250    24091531.157 6  98650877.36706        38.250    24091532.051 7  94540437.19107        44.250
R03  23675315.818 6 126735824.15606        39.500    23675316.339 6  98572340.66206        38.000    23675315.711 6  98572334.66106        37.000
R04  19812012.361 8 106092433.92208        51.500    19812012.133 8  82516356.97808        50.000    19812012.122 8  82516370.97308        49.250
R05  20032142.954 8 107083291.77908        51.000    20032143.918 8  83287022.71808        50.000    20032143.863 8  83287011.71208        49.750
R13  22365367.105 6 119429873.51406        38.250    22365367.745 6  92889926.19906        39.500    22365368.540 6  92889929.19106        39.500
R14  19346437.248 8 103127452.37108        51.500    19346438.931 8  80210270.58908        51.250    19346438.962 8  80210256.59108        50.500
R15  19897540.289 8 106326462.57208        49.000    19897543.062 7  82698366.28907        42.250    19897543.347 6  82698370.27306        41.750
R22  23322071.190 6 124494795.54206        40.000    23322071.679 6  96829297.50806        39.250    23322072.141 6  96829232.49906        39.000
R23  23093824.513 7 123536392.49407        42.000    23093826.435 5  96083875.28205        33.000    23093827.077 5  96083800.22905        33.250
> 2018 11 06 19 15  0.0000000  0 34
C05  40270709.369 5 209700165.54705        34.250    40270705.316 6 162153463.13006        39.000
C10  40073495.599 5 208673240.33305        35.500    40073492.649 6 161359388.20506        40.250
C14  24126297.955 7 125631989.60007        42.000    24126294.832 7  97146613.90107        47.000
C18  40868522.281 5 212813156.16205        33.500
C19  26238431.097 6 136630399.24306        37.250
C24  21833055.652 8 113690497.07908        52.250
C25  25470881.188 6 132633569.44306        36.000
C26  22490357.125 8 117113244.08808        50.500
C29  25859681.862 6 134658160.36106        39.000
E07  26131021.678 7 137319479.21207        42.500    26131026.491 7 102543802.53507        45.250    26131022.652 7 105218840.56307        45.500    26131024.003 8 103881307.05408        48.250
E19  24977757.727 6 131259011.57006        41.750    24977759.123 7  98018105.76207        44.250    24977755.546 7 100575085.86907        44.500    24977756.722 7  99296600.82107        47.500
E20  22498038.073 7 118227992.89707        42.750
E21  25807428.666 7 135618962.64907        43.750    25807432.339 7 101273924.68507        46.750    25807428.504 7 103915839.10407        47.000    25807429.714 8 102594879.89808        50.000
E27  23090453.376 8 121341198.61808        50.000    23090456.315 8  90611973.48408        53.250    23090452.588 8  92975745.85108        53.750    23090453.873 9  91793857.17209        56.500
E30  23671785.212 7 124396134.32007        44.750    23671788.042 8  92893261.46008        48.250    23671784.180 8  95316543.21608        48.250    23671785.525 8  94104898.84308        51.250
G05  24788491.121 6 130264417.17406        39.500    24788491.174 3        21.250    24788489.409 3 101504736.10603        21.250    24788489.855 6 101504725.10606        36.500
G10  24932233.986 5 131019788.79805        35.250    24932234.097 2        15.500    24932233.832 2 102093332.52302        15.500    24932233.411 5 102093327.53405        34.500    24932233.216 6  97839438.40306        39.500
G11  25483484.684 5 133916615.85205        33.000    25483484.591 1         7.500    25483480.425 1 104350597.10201         7.500
G13  20530058.476 8 107886237.87608        50.000    20530058.231 7        44.000    20530055.602 7  84067205.85707        44.000
G15  20512746.199 8 107795232.59308        52.250    20512746.207 7        46.250    20512743.579 7  83996285.30207        46.250    20512743.896 8  83996291.29908        49.000
G17  23819313.374 7 125171349.30007        43.500    23819313.245 4        27.750    23819311.404 4  97536104.21304        27.750    23819311.157 6  97536107.22406        38.750
G19  25160207.422 5 132217784.25505        35.000    25160206.707 2        15.750    25160203.879 2 103026829.80702        15.750
G20  23125754.892 6 121526668.17806        39.750    23125754.056 4        24.000    23125751.903 4  94696090.92104        24.000
G24  21905759.847 7 115115570.47807        47.000    21905759.860 6        38.000    21905760.160 6  89700443.28906        38.000    21905760.384 7  89700438.29807        45.750    21905761.682 8  85962930.31608        51.000
G28  22056656.531 7 115908548.07807        47.000    22056655.910 6        36.250    22056653.472 6  90318357.74206        36.250
G30  24109891.572 6 126698405.07606        40.500    24109891.152 4        24.750    24109892.295 4  98726069.13404        24.750    24109892.925 6  98726065.14006        38.500    24109893.446 7  94612492.16107        43.750
R03  23700977.870 6 126873201.58206        38.250    23700980.027 6  98679189.79506        39.250    23700979.417 6  98679183.80506        38.500
R04  19825619.548 8 106165298.61608        51.250    19825619.137 8  82573029.49808        50.000    19825619.206 8  82573043.49308        49.250
R05  20021976.367 8 107028943.94208        51.000    20021977.045 8  83244752.17208        50.000    20021977.312 8  83244741.17708        49.500
R13  22386070.248 6 119540431.96906        37.500    22386072.386 6  92975916.11906        40.000    22386072.693 6  92975919.10106        39.750
R14  19352486.593 8 103159700.50508        51.750    19352488.549 8  80235352.46908        51.250    19352488.636 8  80235338.47308        50.500
R15  19886958.990 8 106269919.25808        49.000    19886961.866 7  82654388.16107        42.500    19886962.686 7  82654392.16407        42.000
R22  23328810.845 6 124530773.01306        41.000    23328811.667 6  96857280.01406        39.500    23328811.722 6  96857214.98106        39.500
R23  23079825.993 6 123461513.34906        41.250    23079828.991 5  96025635.90805        34.000    23079827.697 5  96025560.93405        34.250
> 2018 11 06 19 15 30.0000000  0 34
C05  40270458.164 5 209698860.49305        34.750    40270454.654 6 162152453.96206        39.000
C10  40079331.820 5 208703627.52705        35.000    40079328.245 6 161382885.48906        39.500
C14  24144758.214 7 125728116.72207        42.250    24144755.206 7  97220945.46007        47.000
C18  40874659.829 5 212845114.76405        33.250
C19  26221477.109 6 136542117.07406        37.250
C24  21827284.345 8 113660444.14808        52.500
C25  25453967.531 6 132545495.05306        36.750
C26  22500791.155 8 117167575.86508        50.250
C29  25860774.895 6 134663851.25106        37.500
E07  26147514.163 7 137406146.41407        43.000    26147518.677 7 102608521.53307        45.250    26147514.904 7 105285247.88307        45.750    26147516.134 8 103946870.21208        48.500
E19  24967435.391 7 131204769.10507        42.500    24967437.098 7  97977600.03107        44.500    24967433.671 7 100533523.46207        44.750    24967434.692 7  99255566.75107        47.500
E20  22502195.286 7 118249839.58007        42.750
E21  25793106.240 7 135543699.01307        44.250    25793109.923 7 101217721.32807        46.750    25793106.507 7 103858169.57707        47.500    25793107.540 8 102537943.45808        50.000
E27  23089428.117 8 121335810.97308        50.250    23089431.085 8  90607950.24308        53.750    23089427.343 8  92971617.65508        53.750    23089428.632 9  91789781.45409        56.750
E30  23684655.932 7 124463770.90907        45.250    23684658.856 8  92943769.29008        48.250    23684654.904 8  95368368.65408        48.000    23684656.330 8  94156065.47708        51.000
G05  24809877.464 6 130376804.14106        40.250    24809877.553 3        19.500    24809875.843 3 101592310.33703        19.500    24809875.824 5 101592299.36605        35.000
G10  24915450.192 6 130931592.37306        36.500    24915450.200 2        14.500    24915450.509 2 102024608.03402        14.500    24915449.715 5 102024603.04705        34.500    24915449.797 6  97773577.44506        39.750
G11  25476241.666 5 133878556.57905        31.250    25476241.590 1         9.000    25476238.020 1 104320940.52601         9.000
G13  20538462.366 8 107930401.06608        50.000    20538462.121 7        43.750    20538459.605 7  84101618.72707        43.750
G15  20508780.319 8 107774392.04508        52.500    20508780.332 7        46.250    20508777.768 7  83980045.91107        46.250    20508778.042 8  83980051.91408        49.250
G17  23805189.222 7 125097126.23807        43.000    23805189.138 4        27.500    23805187.302 4  97478268.09104        27.500    23805187.397 6  97478271.07906        39.000
G19  25139445.474 5 132108681.07905        34.750    25139444.804 2        14.000    25139442.314 2 102941814.39502        14.000
G20  23118014.854 6 121485994.92406        40.250    23118014.023 4        24.250    23118012.302 4  94664397.48004        24.250
G24  21890943.068 7 115037708.51607        47.500    21890943.064 6        38.250    21890943.502 6  89639771.65006        38.250    21890943.406 7  89639766.66507        46.000    21890945.058 8  85904786.66708        51.250
G28  22068464.241 7 115970599.03507        47.000    22068463.611 5        35.750    22068461.310 5  90366709.14305        35.750
G30  24128268.169 6 126794973.02406        40.750    24128267.767 4        24.250    24128268.459 4  98801316.87504        24.250    24128268.603 6  98801312.88806        38.250    24128270.098 7  94684604.55907        44.250
R03  23726659.892 6 127010671.48206        38.750    23726660.519 6  98786110.81106        38.750    23726659.681 6  98786104.80306        39.500
R04  19839352.708 8 106238840.92108        51.250    19839352.734 8  82630229.04908        49.750    19839352.748 8  82630243.05008        49.250
R05  20011942.361 8 106975307.50408        50.750    20011943.252 8  83203034.93708        50.000    20011943.401 8  83203023.94108        49.500
R13  22406796.152 6 119651102.56906        37.250    22406797.068 6  93061993.20406        39.500    22406797.145 6  93061996.21106        39.250
R14  19358633.298 8 103192466.35308        51.750    19358635.318 8  80260837.02208        51.250    19358635.340 8  80260823.02408        50.500
R15  19876474.618 8 106213892.91008        49.000    19876477.199 7  82610812.12607        42.250    19876478.767 7  82610816.12607        42.000
R22  23335692.925 6 124567509.73406        40.000    23335694.272 6  96885853.01206        40.000    23335694.298 6  96885788.00706        40.000
R23  23065939.252 6 123387227.54206        41.500    23065943.002 5  95967858.10805        34.250    23065942.878 5  95967783.11605        34.750
> 2018 11 06 19 16  0.0000000  0 34
C05  40270207.971 5 209697553.60205        34.750    40270202.941 6 162151443.39006        39.250
C10  40085168.142 5 208734020.18305        34.250    40085164.750 6 161406387.03306        39.750
C14  24163257.152 7 125824443.63407        42.000    24163253.653 7  97295431.52907        46.750
C18  40880793.521 5 212877055.25005        33.500
C19  26204548.946 6 136453967.65606        37.500
C24  21821576.505 8 113630722.03108        52.250
C25  25437074.685 6 132457531.60606        36.750
C26  22511271.478 8 117222149.32308        50.500
C29  25861963.433 6 134670042.33906        38.000
E07  26164037.129 7 137492975.65907        42.250    26164041.846 7 102673361.53807        45.750    26164037.748 7 105351779.35307        45.000    26164039.200 8 104012555.95208        48.250
E19  24957168.862 7 131150816.32707        42.250    24957170.246 7  97937310.61407        44.750    24957166.706 7 100492183.03107        44.750    24957167.851 7  99214751.82907        47.750
E20  22506426.674 7 118272075.49107        42.750
E21  25778821.101 7 135468629.63607        44.000    25778824.841 7 101161663.04707        46.750    25778821.043 7 103800648.89707        47.000    25778822.446 8 102481153.97708        50.000
E27  23088466.327 8 121330756.49608        50.000    23088469.247 8  90604175.79608        53.750    23088465.484 8  92967744.74408        53.750    23088466.804 9  91785957.77609        56.750
E30  23697558.534 7 124531574.13507        45.250    23697561.300 8  92994401.57108        48.250    23697557.662 8  95420321.77208        48.250    23697558.875 8  94207358.17808        51.250
G05  24831263.237 6 130489186.49906        38.500    24831263.326 3        20.000    24831261.624 3 101679881.01403        20.000    24831261.520 5 101679870.02005        35.750
G10  24898730.516 5 130843728.31605        35.250    24898730.432 2        16.000    24898730.661 2 101956142.53202        16.000    24898730.303 6 101956137.53506        36.000    24898729.934 6  97707964.68106        39.750
G11  25469093.644 5 133840992.60905        32.000    25469093.336 1         8.250    25469089.881 1 104291669.93201         8.250
G13  20546953.862 8 107975023.93408        49.500    20546953.621 7        43.750    20546951.037 7  84136389.78707        43.750
G15  20504913.604 8 107754072.36808        52.250    20504913.605 7        46.250    20504911.067 7  83964212.39607        46.250    20504911.211 8  83964218.39108        48.750
G17  23791124.380 7 125023215.18407        43.750    23791124.300 4        26.750    23791121.969 4  97420675.08004        26.750    23791122.332 6  97420678.07206        38.250
G19  25118686.102 5 131999590.16705        35.000    25118685.409 2        16.250    25118683.026 2 102856808.44902        16.250
G20  23110381.940 6 121445881.14606        40.250    23110381.086 4        24.000    23110378.769 4  94633139.99604        24.000
G24  21876176.754 7 114960109.94407        47.250    21876176.737 6        38.500    21876177.023 6  89579305.24806        38.500    21876176.811 7  89579300.25807        45.750    21876178.797 8  85846839.69708        51.250
G28  22080345.022 7 116033031.09007        47.000    22080344.396 5        35.750    22080341.678 5  90415357.49805        35.750
G30  24146658.823 6 126891616.85806        41.000    24146658.385 4        24.500    24146659.344 4  98876623.74804        24.500    24146659.815 6  98876619.75106        38.250    24146660.698 7  94756773.63707        44.250
R03  23752355.280 6 127148230.38106        38.500    23752357.302 6  98893101.06406        37.750    23752356.864 6  98893095.07106        38.250
R04  19853212.425 8 106313057.59708        51.250    19853212.152 8  82687953.10508        50.000    19853212.202 8  82687967.10808        49.000
R05  20002041.984 8 106922385.25408        50.750    20002042.977 8  83161873.18908        50.250    20002043.143 8  83161862.19008        49.500
R13  22427540.945 6 119761884.11806        37.500    22427542.996 6  93148156.65306        39.500    22427543.188 6  93148159.64306        39.000
R14  19364876.882 8 103225747.67508        51.500    19364878.749 8  80286722.49608        51.250    19364878.932 8  80286708.50008        50.500
R15  19866086.874 8 106158383.95208        49.000    19866089.544 7  82567638.50407        42.250    19866090.124 7  82567642.50507        42.000
R22  23342717.548 6 124605003.92306        41.500    23342718.064 6  96915015.16806        40.250    23342717.550 6  96914950.15006        40.250
R23  23052163.659 7 123313538.44107        42.000    23052167.408 5  95910544.37105        34.000    23052166.768 5  95910469.38505        34.500
> 2018 11 06 19 16 30.0000000  0 34
C05  40269956.249 5 209696244.95005        34.000    40269951.947 6 162150431.45206        39.250
C10  40091005.551 5 208764418.14505        34.750    40091002.353 6 161429892.66006        39.500
C14  24181793.442 6 125920968.32306        41.250    24181790.233 7  97370070.51007        46.750
C18  40886924.010 5 212908977.48005        34.250
C19  26187646.515 5 136365953.69005        35.750
C24  21815932.074 8 113601330.70908        52.000
C25  25420203.620 6 132369679.66906        36.250
C26  22521797.815 8 117276963.34108        50.250
C29  25863248.602 6 134676733.55006        37.250
E07  26180591.184 7 137579965.77007        42.000    26180595.579 7 102738321.65407        45.250    26180591.565 7 105418434.09907        45.000    26180593.030 8 104078363.38508        48.000
E19  24946957.198 7 131097154.65307        42.250    24946958.730 7  97897238.59107        44.500    24946955.194 7 100451065.64207        44.500    24946956.360 7  99174157.12207        47.500
E20  22510732.134 7 118294700.63907        42.750
E21  25764572.976 7 135393755.18607        44.250    25764576.714 7 101105750.32407        46.750    25764572.787 7 103743277.57607        46.750    25764574.229 8 102424511.95508        49.750
E27  23087567.700 8 121326034.69208        50.250    23087570.717 8  90600649.77608        53.250    23087566.941 9  92964126.74009        54.000    23087568.259 9  91782385.76309        56.500
E30  23710492.367 7 124599542.69907        45.250    23710495.391 8  93045157.31608        48.000    23710491.579 8  95472401.58208        48.250    23710492.878 8  94258775.95608        51.000
G05  24852647.470 6 130601562.12506        40.000    24852647.546 3        21.250    24852646.318 3 101767446.41803        21.250    24852646.357 6 101767435.40206        36.000
G10  24882074.288 5 130756199.31805        35.000    24882074.150 2        16.500    24882074.904 2 101887938.13002        16.500    24882074.493 6 101887933.15506        36.750    24882073.970 6  97642602.14406        40.500
G11  25462040.233 5 133803925.71305        35.000    25462039.867 2        12.000    25462036.406 2 104262786.64602        12.000
G13  20555532.653 8 108020105.88008        50.250    20555532.417 7        44.000    20555529.841 7  84171518.57207        44.000
G15  20501146.319 8 107734274.24108        52.250    20501146.323 7        46.250    20501143.635 7  83948785.27907        46.250    20501143.859 8  83948791.27508        48.750
G17  23777119.676 7 124949619.28607        43.000    23777119.587 4        28.000    23777117.567 4  97363327.64504        28.000    23777117.295 6  97363330.65406        39.000
G19  25097928.913 5 131890514.43105        34.750    25097928.270 2        16.500    25097926.264 2 102771814.43302        16.500
G20  23102855.131 6 121406328.37306        40.500    23102854.268 4        24.750    23102852.245 4  94602319.63904        24.750
G24  21861460.585 7 114882774.93507        47.500    21861460.559 6        38.500    21861460.614 6  89519044.21006        38.500    21861460.719 7  89519039.22107        45.500    21861462.105 8  85789089.53908        51.000
G28  22092297.481 7 116095842.07407        47.000    22092296.864 5        35.750    22092294.155 5  90464301.12705        35.750
G30  24165063.415 6 126988335.59406        40.250    24165062.950 4        24.250    24165064.489 4  98951988.96904        24.250    24165064.788 6  98951984.96106        38.500    24165065.842 7  94828998.63607        44.250
R03  23778068.284 6 127285875.56506        39.000    23778070.934 6  99000158.42606        38.000    23778070.271 6  99000152.43206        37.750
R04  19867197.572 8 106387946.76308        51.250    19867197.210 8  82746200.20908        49.750    19867197.202 8  82746214.21408        49.250
R05  19992276.059 8 106870180.12508        51.000    19992277.199 8  83121269.19508        50.250    19992276.897 8  83121258.19308        50.000
R13  22448308.367 6 119872773.76806        37.000    22448309.636 6  93234404.10206        40.250    22448309.387 6  93234407.12906        40.250
R14  19371216.867 8 103259542.60408        51.750    19371218.691 8  80313007.44508        51.250    19371218.705 8  80312993.44508        50.750
R15  19855795.664 8 106103392.12708        49.250    19855798.516 7  82524867.08907        42.250    19855799.520 7  82524871.08107        42.000
R22  23349882.049 6 124643253.76406        40.000    23349883.835 6  96944765.04006        40.500    23349884.035 6  96944700.05606        40.250
R23  23038500.621 7 123240449.89007        42.750    23038504.406 5  95853697.75805        34.000    23038502.115 5  95853622.75205        34.250
> 2018 11 06 19 17  0.0000000  0 35
C05  40269704.517 5 209694934.42805        34.750    40269700.374 6 162149418.08506        39.000
C10  40096844.904 5 208794821.21005        35.000    40096840.514 6 161453402.24506        39.250
C14  24200366.924 6 126017688.60406        41.000    24200364.094 7  97444860.75607        46.500
C18  40893051.086 5 212940881.39405        34.750
C19  26170770.993 6 136278077.74706        36.000
C24  21810351.386 8 113572270.21808        52.500
C25  25403354.186 6 132281939.96106        37.000
C26  22532370.516 8 117332016.77808        50.000
C29  25864629.687 6 134683924.91806        38.000
E07  26197174.950 7 137667115.55107        42.750    26197179.354 7 102803401.02807        45.250    26197175.563 7 105485211.18607        45.000    26197177.017 8 104144291.61008        48.250
E19  24936801.405 7 131043785.52007        42.000    24936802.922 7  97857385.01107        44.000    24936799.474 7 100410172.40807        44.750    24936800.563 7  99133783.71507        47.500
E20  22515111.667 7 118317714.89507        42.750
E21  25750361.970 7 135319076.28607        44.250    25750365.659 7 101049983.63707        47.250    25750362.075 7 103686056.10607        47.250    25750363.171 8 102368017.87708        50.250
E27  23086732.347 8 121321645.03808        50.000    23086735.382 8  90597371.79508        53.000    23086731.646 8  92960763.24408        53.750    23086732.937 9  91779065.02409        56.250
E30  23723457.587 7 124667675.33107        44.750    23723460.487 7  93096035.57607        47.250    23723456.793 8  95524607.10008        48.250    23723458.044 8  94310317.84008        50.750
G05  24874030.248 6 130713928.12006        38.500    24874030.306 3        18.750    24874028.566 3 101855004.32903        18.750    24874027.958 5 101854993.34905        35.000
G10  24865482.534 5 130669008.00405        35.250    24865482.450 2        16.000    24865482.761 2 101819996.87402        16.000    24865482.367 5 101819991.86705        35.500    24865481.799 6  97577491.73806        40.500
G11  25455081.222 5 133767357.64005        33.500    25455080.775 1         9.500    25455077.788 1 104234292.05101         9.500
G12  25337430.983 5 133149098.35915        33.750
G13  20564198.661 8 108065646.58008        49.750    20564198.429 7        43.500    20564196.006 7  84207004.82107        43.500
G15  20497478.326 8 107714999.11608        52.250    20497478.334 7        46.250    20497475.693 7  83933765.69507        46.250    20497475.928 8  83933771.69408        48.750
G17  23763175.314 7 124876340.97507        43.000    23763175.234 4        27.500    23763173.072 4  97306227.70004        27.500    23763172.999 6  97306230.69806        38.000
G19  25077177.332 6 131781457.13606        36.000    25077176.639 3        18.750    25077173.356 3 102686834.73403        18.750
G20  23095435.997 6 121367337.70006        39.000    23095435.175 4        24.000    23095432.630 4  94571937.30804        24.000
G24  21846794.446 7 114805704.98207        47.500    21846794.393 6        38.250    21846794.582 6  89458989.71206        38.250    21846794.596 7  89458984.71907        45.500    21846796.246 8  85731537.31608        51.000
G28  22104321.535 7 116159029.78107        46.750    22104320.914 5        35.750    22104318.393 5  90513538.30105        35.750
G30  24183482.803 6 127085128.20606        40.500    24183482.356 4        24.250    24183483.281 4  99027411.76304        24.250    24183483.098 6  99027407.77106        37.250    24183484.626 7  94901278.82707        43.750
R03  23803799.156 6 127423603.25806        39.500    23803798.870 6  99107279.97206        37.250    23803799.329 5  99107273.97805        35.750
R04  19881307.437 8 106463505.74408        51.250    19881307.383 8  82804968.29708        49.750    19881307.429 8  82804982.29308        49.000
R05  19982644.855 8 106818694.99808        51.000    19982645.780 8  83081225.20708        49.750    19982645.605 8  83081214.20908        49.750
R13  22469093.792 6 119983769.78106        37.250    22469094.122 6  93320734.35606        38.000    22469095.233 6  93320737.34906        37.750
R14  19377652.539 8 103293849.13308        51.500    19377654.497 8  80339690.30108        51.250    19377654.501 8  80339676.30008        50.500
R15  19845601.778 8 106048918.71708        49.000    19845604.281 7  82482498.89007        42.000    19845605.488 6  82482502.88806        41.750
R22  23357189.116 6 124682257.60006        40.750    23357190.573 6  96975101.34306        40.000    23357190.978 6  96975036.36506        40.250
R23  23024949.966 7 123167965.85007        42.000    23024954.084 5  95797321.33705        34.500    23024953.229 5  95797246.33505        34.500
> 2018 11 06 19 17 30.0000000  0 35
C05  40269453.035 5 209693622.12605        34.250    40269448.388 6 162148403.34006        39.250
C10  40102684.085 5 208825229.10005        35.250    40102680.533 6 161476915.53006        39.750
C14  24218979.126 6 126114602.35606        41.750    24218975.635 7  97519800.61107        47.000
C18  40899175.109 5 212972766.87505        34.750
C19  26153922.216 6 136190342.44506        37.250
C24  21804834.163 8 113543540.55108        52.250
C25  25386526.257 6 132194313.09306        36.500
C26  22542988.387 8 117387308.50908        50.000
C29  25866107.027 6 134691616.38006        38.250
E07  26213789.669 6 137754423.82606        41.250    26213793.712 7 102868598.73507        45.250    26213789.583 7 105552109.70107        44.750    26213791.183 8 104210339.72408        48.000
E19  24926701.533 6 130990710.31106        41.750    24926703.057 7  97817750.93407        44.250    24926699.591 7 100369504.38807        44.750    24926700.670 7  99093632.66507        47.500
E20  22519565.188 7 118341118.29407        42.750
E21  25736188.451 7 135244593.60007        44.000    25736191.940 7 100994363.46607        46.500    25736188.574 7 103628984.97707        47.500    25736189.683 8 102311672.22708        50.000
E27  23085960.199 8 121317587.01608        49.750    23085963.167 8  90594341.45808        53.500    23085959.414 8  92957653.85308        53.750    23085960.715 9  91775995.16109        56.500
E30  23736453.721 7 124735970.75907        45.000    23736456.697 7  93147035.40807        47.750    23736452.885 8  95576937.36108        48.000    23736454.220 8  94361982.89208        50.750
G05  24895410.725 6 130826281.99006        40.250    24895410.726 3        20.500    24895408.597 3 101942552.77803        20.500    24895409.198 5 101942541.76705        35.500
G10  24848955.297 6 130582156.97006        36.500    24848955.230 2        17.250    24848955.322 2 101752320.75802        17.250    24848955.257 5 101752315.75605        34.000    24848954.649 6  97512635.45106        41.250
G11  25448218.543 5 133731290.17005        30.750    25448218.163 1         6.000    25448214.187 1 104206187.50101         6.000
G12  25314168.958 6 133026857.35606        36.000
G13  20572951.976 8 108111645.21408        50.000    20572951.740 7        43.750    20572949.284 7  84242847.90207        43.750
G15  20493909.944 8 107696247.67308        52.500    20493909.952 7        46.250    20493907.401 7  83919154.17907        46.250    20493907.615 8  83919160.17608        49.000
G17  23749291.780 7 124803383.16107        42.250    23749291.700 4        26.500    23749289.091 4  97249377.46804        26.500    23749289.738 6  97249380.48006        38.000
G19  25056428.069 6 131672421.18406        37.250    25056427.341 3        18.500    25056424.535 3 102601871.68903        18.500
G20  23088122.812 6 121328910.57806        40.250    23088122.025 3        23.750    23088119.837 3  94541994.10103        23.750
G24  21832179.152 7 114728901.51607        47.500    21832179.090 6        38.500    21832179.553 6  89399142.86606        38.500    21832179.380 7  89399137.86707        45.500    21832181.159 8  85674184.08608        51.250
G28  22116417.166 7 116222592.48807        46.750    22116416.549 5        35.500    22116414.061 5  90563067.68805        35.500
G30  24201915.871 6 127181993.74706        39.250    24201915.438 3        23.750    24201916.306 3  99102891.38603        23.750    24201916.558 6  99102887.37706        38.000    24201917.630 7  94973613.45707        44.000
R03  23829542.392 6 127561410.69506        37.500    23829542.994 6  99214463.59106        38.500    23829542.909 6  99214457.60406        37.000
R04  19895542.100 8 106539731.94808        51.250    19895541.989 8  82864255.32208        49.750    19895541.957 8  82864269.31708        48.750
R05  19973148.712 8 106767932.63508        50.750    19973149.485 8  83041743.36808        50.000    19973149.729 8  83041732.36108        49.250    19973210.744 7  80083058.96417        44.000
R13  22489899.513 6 120094870.06006        37.250    22489901.422 6  93407145.69006        40.250    22489901.170 6  93407148.69006        40.250
R14  19384183.970 8 103328665.58108        51.500    19384185.905 8  80366769.76008        51.000    19384186.109 8  80366755.76108        50.500
R15  19835505.087 8 105994963.82008        49.000    19835507.643 7  82440533.97307        42.250    19835507.840 7  82440537.97207        42.000
R22  23364636.869 6 124722013.51806        38.250    23364637.658 6  97006022.60206        39.250    23364636.920 6  97005957.63406        39.500
R23  23011514.199 6 123096090.08806        41.250    23011517.390 5  95741417.99205        34.000    23011517.195 5  95741342.96505        34.500
> 2018 11 06 19 18  0.0000000  0 35
C05  40269200.001 5 209692307.96705        34.250    40269195.672 6 162147387.14006        39.000
C10  40108523.885 5 208855641.44005        35.500    40108520.688 6 161500432.29806        40.250
C14  24237625.978 6 126211707.53606        40.750    24237623.517 7  97594888.48307        46.250
C18  40905293.113 5 213004633.80705        35.250
C19  26137101.133 6 136102750.45406        37.250
C24  21799380.418 8 113515141.68308        52.500
C25  25369720.590 6 132106799.75106        36.500
C26  22553652.315 8 117442837.40208        50.250
C29  25867679.904 6 134699807.82606        38.000
E07  26230433.278 7 137841889.39407        42.500    26230437.952 7 102933913.90207        45.250    26230434.066 7 105619128.75907        44.500    26230435.506 8 104276506.83908        48.000
E19  24916657.938 7 130937930.44107        42.000    24916659.434 7  97778337.39507        44.500    24916655.847 7 100329062.67407        44.500    24916656.990 7  99053705.04107        47.750
E20  22524092.700 7 118364910.69107        42.500
E21  25722052.218 7 135170307.71307        44.250    25722056.042 7 100938890.25007        47.000    25722052.103 7 103572064.63207        47.000    25722053.592 8 102255475.44708        50.000
E27  23085250.976 8 121313860.08508        49.750    23085253.940 8  90591558.36708        53.500    23085250.183 8  92954798.16208        53.750    23085251.511 9  91773175.77009        56.750
E30  23749480.686 7 124804427.68107        44.750    23749483.643 8  93198155.83708        48.000    23749479.883 8  95629391.37308        48.000    23749481.161 8  94413770.11008        51.000
G05  24916787.096 6 130938621.26806        38.750    24916787.070 3        19.500    24916786.020 3 102030089.86903        19.500    24916786.241 5 102030078.87105        34.500
G10  24832493.713 6 130495648.85906        37.000    24832493.602 3        18.250    24832492.958 3 101684911.81103        18.250    24832493.407 5 101684906.82805        35.750    24832492.943 7  97448035.26307        42.000
G11  25441450.431 5 133695725.07705        33.000    25441450.123 1         9.250    25441446.453 1 104178474.51901         9.250
G12  25290909.086 6 132904624.66506        36.000    25290909.087 2        12.750    25290907.112 2 103562035.17812        12.750    25290907.862 4 103562035.19914        29.500
G13  20581792.196 8 108158101.34908        50.250    20581791.968 7        43.750    20581789.587 7  84279047.47407        43.750
G15  20490441.584 8 107678020.91208        52.250    20490441.588 7        46.500    20490438.951 7  83904951.50507        46.500    20490439.385 8  83904957.50308        48.750
G17  23735469.824 7 124730748.88207        43.750    23735469.731 4        27.250    23735467.229 4  97192779.36004        27.250    23735467.418 6  97192782.36906        38.250
G19  25035683.656 6 131563410.11106        36.250    25035682.892 3        18.000    25035680.589 3 102516928.01903        18.000
G20  23080917.583 6 121291048.08106        40.750    23080916.796 4        24.500    23080914.859 4  94512490.84704        24.500
G24  21817614.861 7 114652364.31707        47.000    21817614.799 6        38.750    21817614.915 6  89339503.49506        38.750    21817615.053 7  89339498.50607        45.000    21817616.346 8  85617029.69608        51.500
G28  22128583.726 7 116286527.83707        46.500    22128583.100 5        35.500    22128580.393 5  90612887.43905        35.500
G30  24220362.414 6 127278931.17406        40.250    24220361.999 3        23.750    24220362.782 3  99178427.02503        23.750    24220363.373 6  99178423.04206        37.250    24220363.998 7  95046001.77207        43.250
R03  23855299.136 6 127699294.67806        37.000    23855300.671 6  99321706.69206        38.250    23855300.838 6  99321700.69606        37.750
R04  19909901.424 8 106616622.74608        51.500    19909900.892 8  82924059.26208        49.750    19909901.032 8  82924073.25708        48.750
R05  19963788.061 8 106717895.79108        51.000    19963789.024 8  83002825.81108        50.000    19963789.369 8  83002814.81408        49.250
R13  22510723.459 6 120206072.04506        37.000    22510724.901 6  93493636.08806        39.000    22510726.000 6  93493639.11206        38.750
R14  19390810.874 8 103363989.86208        51.500    19390812.747 8  80394244.19608        51.250    19390812.585 8  80394230.20308        50.500
R15  19825505.219 8 105941527.81008        49.000    19825507.991 7  82398972.64007        42.250    19825508.319 7  82398976.63807        42.000
R22  23372225.011 6 124762519.71006        38.750    23372226.324 6  97037527.42006        39.500    23372226.221 6  97037462.41906        40.000
R23  22998191.576 6 123024825.96806        41.500    22998195.184 5  95685990.38605        34.500    22998194.314 5  95685915.38105        35.250
> 2018 11 06 19 18 30.0000000  0 35
C05  40268947.044 5 209690992.07305        33.750    40268943.121 6 162146369.60106        39.000
C10  40114365.494 5 208886058.13205        35.250    40114361.787 6 161523952.37906        40.000
C14  24256311.719 6 126309001.96706        41.250    24256308.322 7  97670122.68407        46.500
C18  40911409.410 5 213036482.10305        35.000
C19  26120308.465 6 136015304.37806        36.500
C24  21793990.326 8 113487073.63608        52.250
C25  25352936.316 6 132019400.56206        37.000
C26  22564361.293 8 117498602.33308        50.500
C29  25869348.626 6 134708499.19206        37.500
E07  26247107.342 7 137929511.05707        42.000    26247111.695 7 102999345.64807        45.000    26247108.145 7 105686267.41607        45.000    26247109.328 8 104342792.03808        48.000
E19  24906670.753 7 130885447.34407        42.250    24906672.145 7  97739145.47007        44.250    24906668.754 7 100288848.35807        45.000    24906669.800 7  99014001.92007        47.750
E20  22528694.299 7 118389091.98307        42.750
E21  25707953.716 7 135096219.28607        44.500    25707957.488 7 100883564.49507        47.250    25707953.594 7 103515295.59207        47.000    25707954.919 8 102199428.04808        50.250
E27  23084604.625 8 121310463.71908        50.250    23084607.650 8  90589022.12608        53.250    23084603.899 9  92952195.75909        54.000    23084605.192 9  91770606.44809        56.750
E30  23762538.131 7 124873044.80607        45.000    23762541.067 7  93249395.89607        47.750    23762537.310 8  95681968.12608        48.000    23762538.603 8  94465678.51808        50.750
G05  24938161.599 6 131050943.31506        40.250    24938161.506 3        19.500    24938160.041 3 102117613.52103        19.500    24938160.031 5 102117602.53205        35.500
G10  24816097.105 6 130409486.32206        37.000    24816097.029 3        18.250    24816097.182 3 101617772.17303        18.250    24816096.508 6 101617767.19406        37.000    24816096.723 6  97383693.09006        41.750
G11  25434778.155 5 133660664.23305        31.750    25434777.798 1        11.750    25434774.537 1 104151154.34301        11.750
G12  25267650.738 6 132782403.24506        37.750    25267650.730 2        14.500    25267648.911 2 103466797.68502        14.500    25267649.481 5 103466797.68005        30.750
G13  20590719.701 8 108205014.51708        50.000    20590719.478 7        43.500    20590716.869 7  84315603.17607        43.500
G15  20487073.231 8 107660319.89008        52.250    20487073.239 7        46.250    20487070.572 7  83891158.49707        46.250    20487070.876 8  83891164.49608        48.750
G17  23721710.309 7 124658440.48207        42.500    23721710.207 4        27.250    23721707.443 4  97136435.16704        27.250    23721707.990 6  97136438.16706        38.500
G19  25014944.541 5 131454426.77105        35.750    25014943.625 3        18.000    25014941.628 3 102432005.92803        18.000
G20  23073820.714 6 121253751.59106        40.000    23073819.910 4        24.000    23073817.638 4  94483428.64004        24.000
G24  21803100.983 8 114576095.51708        48.000    21803100.934 6        39.000    21803101.419 6  89280073.26606        39.000    21803101.342 7  89280068.27407        45.750    21803102.952 8  85560075.72508        51.500
G28  22140820.603 7 116350833.71107        46.750    22140819.969 5        35.250    22140817.480 5  90662995.91505        35.250
G30  24238822.474 6 127375939.51306        40.000    24238822.045 3        23.000    24238822.530 3  99254017.93003        23.000    24238823.197 6  99254013.95006        36.750    24238824.289 7  95118443.05707        44.000
R03  23881070.132 6 127837251.86006        37.250    23881072.273 6  99429006.73506        38.250    23881072.724 6  99429000.73606        37.000
R04  19924383.324 8 106694175.58708        51.000    19924383.472 8  82984378.12008        49.750    19924383.444 8  82984392.11808        48.750
R05  19954564.228 8 106668587.34208        51.250    19954564.943 8  82964474.79308        50.000    19954565.133 8  82964463.78808        49.250
R13  22531567.305 6 120317373.71606        38.250    22531568.681 6  93580204.06106        39.750    22531568.723 6  93580207.05706        39.250
R14  19397532.416 8 103399819.81008        52.000    19397534.302 8  80422111.93808        51.250    19397534.458 8  80422097.93608        50.500
R15  19815602.560 8 105888611.46808        49.000    19815605.301 7  82357815.49207        42.250    19815605.769 7  82357819.48507        42.000
R22  23379952.296 6 124803774.17306        38.500    23379954.289 6  97069614.23906        39.500    23379955.510 6  97069549.23506        40.250
R23  22984984.177 7 122954177.55407        42.250    22984988.094 5  95631041.66505        33.250    22984986.302 5  95630966.69505        33.500
> 2018 11 06 19 19  0.0000000  0 35
C05  40268694.481 5 209689674.34205        34.250    40268690.133 6 162145350.64006        39.000
C10  40120207.522 5 208916478.78505        35.000    40120203.401 6 161547475.52206        38.500
C14  24275031.933 6 126406483.57406        41.250    24275028.164 7  97745501.62007        46.500
C18  40917523.039 5 213068311.67105        35.250
C19  26103543.716 6 135928006.83206        37.250
C24  21788663.645 8 113459336.36908        52.500
C25  25336174.331 6 131932116.22706        36.750
C26  22575115.546 8 117554602.17408        50.000
C29  25871112.796 6 134717690.33706        38.750
E07  26263810.486 7 138017287.59507        42.000    26263815.131 7 103064893.03307        45.000    26263811.291 7 105753524.73707        44.500    26263812.555 7 104409194.39107        47.750
E19  24896740.304 7 130833262.40707        42.250    24896741.752 7  97700176.20807        44.750    24896738.180 7 100248862.49807        45.000    24896739.341 7  98974524.35907        47.750
E20  22533369.778 7 118413662.10207        42.500
E21  25693892.881 7 135022328.92807        44.250    25693896.427 7 100828386.64907        47.000    25693892.898 7 103458678.32107        47.250    25693894.014 8 102143530.49208        50.250
E27  23084021.146 8 121307397.37308        50.000    23084024.152 8  90586732.33508        53.500    23084020.387 9  92949846.22809        54.000    23084021.681 9  91768286.78609        56.750
E30  23775625.773 7 124941820.88207        45.000    23775628.653 7  93300754.64907        47.750    23775624.911 8  95734666.66908        48.000    23775626.201 8  94517707.16308        50.750
G05  24959532.765 6 131163245.25706        38.750    24959532.707 3        20.000    24959530.734 3 102205121.53503        20.000    24959531.546 5 102205110.53605        35.750
G10  24799766.724 6 130323671.90406        36.500    24799766.693 3        18.500    24799767.254 3 101550903.81803        18.500    24799766.460 6 101550898.81606        36.250    24799766.354 6  97319610.90306        41.000
G11  25428203.532 5 133626109.44305        32.250    25428203.233 1        10.500    25428199.124 1 104124228.50301        10.500
G12  25244395.329 6 132660194.28706        37.750    25244395.316 2        16.250    25244393.379 2 103371569.90802        16.250    25244394.231 5 103371569.91205        33.000
G13  20599733.619 8 108252384.00208        50.000    20599733.396 7        43.750    20599731.012 7  84352514.45507        43.750
G15  20483805.119 8 107643145.69808        52.250    20483805.127 7        46.500    20483802.450 7  83877776.00507        46.500    20483802.728 8  83877782.00308        49.000
G17  23708012.772 7 124586460.72807        43.500    23708012.701 4        28.250    23708010.425 4  97080347.06404        28.250    23708010.539 6  97080350.07806        39.250
G19  24994212.590 5 131345474.19005        35.000    24994211.705 2        17.500    24994208.468 2 102347107.80802        17.500
G20  23066831.200 6 121217022.09206        40.500    23066830.418 4        24.500    23066828.537 4  94454808.25104        24.500
G24  21788639.009 8 114500095.76008        48.000    21788638.951 6        39.250    21788639.266 6  89220852.68706        39.250    21788638.803 7  89220847.69407        46.250    21788640.905 8  85503322.67308        51.500
G28  22153127.748 7 116415508.09407        46.500    22153127.105 5        35.250    22153124.638 5  90713391.54005        35.250
G30  24257295.796 6 127473017.78506        39.250    24257295.354 3        23.250    24257296.650 3  99329663.33203        23.250    24257296.688 6  99329659.31106        39.000    24257297.479 7  95190936.53807        43.500
R03  23906855.143 6 127975279.46306        38.500    23906857.044 6  99536361.52706        37.250    23906856.904 6  99536355.52606        36.500
R04  19938989.448 8 106772388.34208        51.000    19938989.101 8  83045210.24308        49.500    19938989.134 8  83045224.24108        48.750
R05  19945476.743 8 106620009.97408        51.250    19945477.510 8  82926692.40108        50.000    19945477.571 8  82926681.40008        49.250    19945539.141 7  79972109.78017        43.750
R13  22552428.290 6 120428772.63806        37.000    22552429.650 6  93666847.67406        39.000    22552429.783 6  93666850.69206        38.000
R14  19404348.591 8 103436153.62108        52.000    19404350.307 8  80450371.56908        51.000    19404350.523 8  80450357.57008        50.250
R15  19805797.458 8 105836215.66308        49.000    19805799.967 7  82317063.20707        42.250    19805800.700 7  82317067.20007        42.250
R22  23387822.209 6 124845775.00806        39.500    23387822.896 6  97102281.54006        39.750    23387823.028 6  97102216.54306        40.500
R23  22971894.344 7 122884148.49707        42.250    22971896.230 5  95576574.64405        33.000    22971896.183 5  95576499.64505        33.750
> 2018 11 06 19 19 30.0000000  0 35
C05  40268441.206 5 209688354.84205        34.750    40268436.595 6 162144330.34706        38.750
C10  40126050.984 6 208946903.31306        36.250    40126046.542 6 161571001.72906        38.500
C14  24293787.860 6 126504150.21806        41.500    24293784.357 7  97821023.65607        45.750
C18  40923631.849 5 213100122.41905        35.250
C19  26086808.216 6 135840860.47706        37.250
C24  21783400.601 8 113431929.86608        52.500
C25  25319434.855 6 131844947.31306        37.500
C26  22585914.415 8 117610835.82408        50.250
C29  25872974.780 6 134727381.13606        39.000
E07  26280543.322 7 138105217.83107        42.000    26280547.916 7 103130555.18207        45.250    26280543.879 7 105820899.82007        44.750    26280545.246 8 104475713.00908        48.000
E19  24886866.798 7 130781377.05607        42.250    24886868.232 7  97661430.65307        44.500    24886864.642 7 100209106.18907        44.750    24886865.860 7  98935273.42607        47.500
E20  22538119.162 7 118438620.94707        42.500
E21  25679869.761 7 134948637.25307        44.250    25679873.350 7 100773357.16507        47.250    25679869.769 7 103402213.28507        47.500    25679871.032 8 102087783.22908        50.500
E27  23083500.338 8 121304660.51508        50.000    23083503.317 8  90584688.57508        53.250    23083499.580 8  92947749.15808        53.750    23083500.866 9  91766216.37309        56.500
E30  23788743.264 7 125010754.60107        45.250    23788746.389 7  93352231.11907        47.500    23788742.595 7  95787486.00707        47.750    23788743.903 8  94569855.07208        50.500
G05  24980898.042 6 131275524.88606        39.000    24980897.926 3        20.000    24980897.112 3 102292612.10403        20.000    24980896.839 5 102292601.11305        35.250
G10  24783503.557 6 130238208.24006        36.250    24783503.517 3        18.500    24783504.115 3 101484308.76703        18.500    24783502.766 6 101484303.79206        36.250    24783503.324 6  97255790.65406        41.750
G11  25421723.847 5 133592062.48005        32.750    25421723.396 1         9.750    25421720.431 1 104097698.39501         9.750
G12  25221142.531 6 132538000.04406        39.000    25221142.571 2        17.750    25221140.812 2 103276353.62802        17.750    25221140.587 5 103276353.62705        33.500
G13  20608834.569 8 108300209.24908        50.000    20608834.346 7        43.750    20608831.890 7  84389780.87007        43.750
G15  20480637.274 8 107626499.03508        52.500    20480637.282 7        46.500    20480634.708 7  83864804.57307        46.500    20480634.980 8  83864810.56808        49.250
G17  23694378.293 7 124514812.63907        43.750    23694378.226 4        28.000    23694376.309 4  97024517.41404        28.000    23694376.765 6  97024520.39806        38.750
G19  24973485.051 5 131236555.93205        34.750    24973484.166 2        17.750    24973482.054 2 102262236.46802        17.750
G20  23059950.012 6 121180860.99706        40.750    23059949.203 4        24.500    23059947.031 4  94426630.77204        24.500
G24  21774227.905 8 114424365.75808        48.000    21774227.829 6        39.250    21774228.264 6  89161842.31206        39.250    21774228.202 7  89161837.31707        46.000    21774229.730 8  85446771.06608        51.750
G28  22165504.604 7 116480548.61907        45.750    22165503.961 5        35.000    22165501.512 5  90764072.47405        35.000
G30  24275782.238 6 127570165.02006        39.250    24275781.787 3        22.750    24275782.919 3  99405362.45403        22.750    24275783.215 6  99405358.46106        38.250    24275784.066 7  95263481.53807        43.000
R03  23932652.997 6 128113373.82906        37.000    23932654.483 6  99643768.29206        37.500    23932654.932 6  99643762.28706        37.500
R04  19953717.063 8 106851257.77108        51.250    19953717.347 8  83106553.10908        49.500    19953717.420 8  83106567.10508        48.500
R05  19936526.644 8 106572166.39008        51.000    19936527.370 8  82889480.71708        50.000    19936527.379 8  82889469.72108        49.250    19936588.299 7  79936181.28617        44.000
R13  22573307.988 6 120540267.45506        37.500    22573308.845 6  93753565.86006        38.500    22573310.807 6  93753568.86306        38.000
R14  19411258.818 8 103472989.14508        51.500    19411260.735 8  80479021.42208        51.250    19411260.743 8  80479007.42608        50.500
R15  19796089.536 8 105784339.81108        49.000    19796092.227 7  82276715.33607        42.250    19796092.384 7  82276719.33507        42.250
R22  23395829.212 6 124888520.33606        39.500    23395830.401 6  97135527.88306        40.000    23395831.031 6  97135462.91106        40.250
R23  22958917.869 6 122814742.70806        41.750    22958922.027 5  95522592.39805        33.750    22958920.554 5  95522517.37405        33.500
> 2018 11 06 19 20  0.0000000  0 35
C05  40268186.534 5 209687033.55405        34.500    40268183.153 6 162143308.64506        39.250
C10  40131893.903 5 208977331.39705        35.500    40131890.053 6 161594530.67006        39.500
C14  24312578.424 6 126601999.82206        41.250    24312575.489 7  97896687.15007        46.750
C18  40929736.715 5 213131914.27405        34.750
C19  26070102.302 6 135753867.93506        37.250
C24  21778200.952 8 113404854.07908        52.250
C25  25302716.566 6 131757894.53006        37.250
C26  22596758.544 8 117667302.15908        50.500
C29  25874931.611 6 134737571.45206        38.500
E07  26297304.487 6 138193300.50606        41.750    26297309.409 7 103196331.20007        44.500    26297305.650 7 105888391.73807        45.250    26297306.841 8 104542346.97508        48.000
E19  24877050.616 7 130729792.65107        42.500    24877052.100 7  97622909.83907        44.500    24877048.620 7 100169580.48607        45.000    24877049.691 7  98896250.16807        47.750
E20  22542942.803 7 118463968.35207        42.500
E21  25665884.656 7 134875144.87307        44.250    25665888.361 7 100718476.50907        47.000    25665884.406 7 103345900.95607        47.250    25665885.885 8 102032186.73908        50.250
E27  23083042.025 8 121302252.55308        50.000    23083045.082 8  90582890.43308        53.500    23083041.348 8  92945904.10508        53.750    23083042.641 9  91764394.77509        56.500
E30  23801890.929 7 125079844.72807        44.500    23801893.734 7  93403824.40007        47.750    23801890.049 8  95840425.19908        48.000    23801891.287 8  94622121.30408        50.750
G05  25002259.894 6 131387779.29106        39.250    25002259.765 3        19.000    25002257.606 3 102380083.06403        19.000    25002258.653 5 102380072.10205        34.250
G10  24767307.783 6 130153097.94306        36.000    24767307.761 3        18.500    24767307.867 3 101417989.03403        18.500    24767308.080 6 101417984.04206        37.250    24767307.267 7  97192234.25607        42.000
G11  25415342.502 5 133558524.96705        33.000    25415342.006 1         8.750    25415338.393 1 104071565.32001         8.750
G12  25197893.122 6 132415822.49206        38.000    25197893.118 2        16.750    25197891.340 2 103181150.33602        16.750    25197889.614 5 103181150.34305        33.500
G13  20618021.968 8 108348489.68208        50.250    20618021.745 7        43.250    20618019.295 7  84427401.98207        43.250
G15  20477570.035 8 107610380.72208        52.250    20477570.043 7        46.500    20477567.466 7  83852244.84607        46.500    20477567.879 8  83852250.84108        49.000
G17  23680807.997 7 124443498.67107        44.250    23680807.944 4        28.250    23680805.749 4  96968948.11604        28.250    23680805.751 6  96968951.12306        38.750
G19  24952766.505 5 131127674.84105        35.750    24952765.553 2        17.500    24952762.831 2 102177394.11302        17.500
G20  23053177.265 6 121145269.48706        41.000    23053176.474 4        24.500    23053173.896 4  94398897.12804        24.500
G24  21759868.528 8 114348906.35708        48.000    21759868.439 6        39.250    21759868.815 6  89103042.78206        39.250    21759868.715 7  89103037.79207        45.750    21759870.264 8  85390421.51908        51.500
G28  22177950.545 7 116545953.50707        46.000    22177949.906 5        34.750    22177947.679 5  90815037.32005        34.750
G30  24294281.978 6 127667380.20506        39.750    24294281.558 3        23.500    24294282.705 3  99481114.51603        23.500    24294282.704 6  99481110.52106        38.250    24294283.434 7  95336077.28907        42.750
R03  23958462.562 6 128251532.58506        38.250    23958463.472 6  99751225.11406        37.250    23958463.477 6  99751219.10106        37.250
R04  19968568.069 8 106930781.68108        51.250    19968568.053 8  83168405.02208        49.750    19968567.824 8  83168419.02108        48.500
R05  19927714.136 8 106525059.22008        51.250    19927715.005 8  82852841.81108        50.250    19927715.081 8  82852830.81208        49.250
R13  22594204.336 6 120651855.58906        36.250    22594206.660 6  93840356.63206        40.000    22594206.571 6  93840359.63606        40.000
R14  19418262.756 8 103510324.33608        52.000    19418264.624 8  80508059.91108        51.250    19418264.692 8  80508045.91008        50.250
R15  19786479.098 8 105732984.62508        49.250    19786481.887 7  82236772.42707        42.250    19786482.320 7  82236776.42007        42.250
R22  23403975.952 6 124932008.07106        40.000    23403976.745 6  97169351.67006        39.000    23403977.451 6  97169286.68206        39.500
R23  22946061.102 6 122745963.29106        41.750    22946064.020 5  95469097.31205        34.250    22946063.389 5  95469022.31705        34.500
> 2018 11 06 19 20 30.0000000  0 36
C05  40267933.127 5 209685710.51705        34.750    40267928.757 6 162142285.55206        39.000
C10  40137737.699 5 209007762.86705        35.250    40137734.310 6 161618062.20306        39.000
C14  24331404.295 6 126700030.22806        41.250    24331401.188 7  97972490.45107        46.250
C18  40935837.702 5 213163687.11205        35.000
C19  26053425.887 6 135667031.82006        37.000
C24  21773064.818 8 113378109.01608        52.750
C25  25286021.301 6 131670958.50206        36.750
C26  22607646.631 8 117724000.05008        50.000
C29  25876984.629 6 134748261.16506        38.750
E07  26314094.888 7 138281534.49607        42.250    26314099.696 7 103262220.17207        45.000    26314095.931 7 105955999.54707        44.750    26314097.127 8 104609095.36708        48.000
E19  24867291.738 7 130678510.62507        42.250    24867293.449 7  97584614.81407        44.500    24867289.828 7 100130286.46307        45.000    24867291.033 7  98857455.64507        47.750
E20  22547840.247 7 118489704.25707        42.750
E21  25651937.548 7 134801852.39607        44.500    25651941.164 7 100663745.12707        47.500    25651937.433 7 103289741.80007        47.500    25651938.693 8 101976741.46808        50.500
E27  23082646.351 8 121300172.96708        50.000    23082649.334 8  90581337.50208        53.500    23082645.580 9  92944310.66209        54.000    23082646.898 9  91762821.58709        56.750
E30  23815067.837 7 125149089.97007        44.750    23815070.822 7  93455533.50207        47.750    23815066.916 7  95893483.23007        47.750    23815068.256 8  94674504.87308        50.750
G05  25023615.208 6 131500006.48006        38.750    25023615.101 3        18.750    25023614.241 3 102467532.81603        18.750    25023614.440 5 102467521.81105        35.000
G10  24751179.674 6 130068343.54906        36.750    24751179.678 3        19.500    24751179.753 3 101351946.68703        19.500    24751179.854 6 101351941.71106        36.500    24751179.005 7  97128943.66907        42.500
G11  25409056.680 5 133525498.57705        33.250    25409056.247 1        10.500    25409053.630 1 104045830.43401        10.500
G12  25174647.087 6 132293664.04806        37.250    25174647.034 2        15.750    25174645.154 2 103085961.92802        15.750    25174644.489 5 103085961.92905        32.750
G13  20627296.009 8 108397224.77408        50.250    20627295.781 7        43.500    20627293.266 7  84465377.37607        43.500
G15  20474603.611 8 107594791.72608        52.500    20474603.624 7        46.500    20474601.005 7  83840097.57207        46.500    20474601.292 8  83840103.56708        49.250
G17  23667301.188 7 124372521.75007        44.000    23667301.148 4        28.500    23667299.123 4  96913641.44804        28.500    23667299.662 6  96913644.44606        39.000
G19  24932054.426 6 131018834.37106        36.250    24932053.496 2        16.500    24932051.322 2 102092583.39302        16.500
G20  23046512.865 6 121110248.63706        40.000    23046512.043 4        24.250    23046509.658 4  94371608.15404        24.250
G24  21745560.958 8 114273719.29008        48.000    21745560.869 6        39.250    21745561.152 6  89044455.46306        39.250    21745561.124 7  89044450.47207        46.000    21745562.763 8  85334275.33708        51.750
G28  22190465.730 7 116611720.41307        46.250    22190465.087 5        34.750    22190462.503 5  90866284.25805        34.750
G30  24312793.963 6 127764662.39706        40.250    24312793.548 3        23.000    24312794.208 3  99556918.82103        23.000    24312795.050 6  99556914.80306        36.500    24312795.934 7  95408723.06207        43.500
R03  23984282.193 6 128389752.11006        37.500    23984283.685 6  99858729.20606        37.500    23984283.750 6  99858723.19206        36.500
R04  19983540.466 8 107010957.22808        51.500    19983540.185 8  83230763.75008        49.500    19983540.100 8  83230777.74508        48.750
R05  19919040.022 8 106478691.18408        51.250    19919041.005 8  82816777.78108        50.000    19919041.090 8  82816766.79008        49.500
R06  23989649.135 5 128013356.46115        34.250
R13  22615118.796 6 120763534.42006        37.500    22615119.594 6  93927217.92906        38.750    22615120.612 6  93927220.92306        38.000
R14  19425360.127 8 103548157.43108        51.750    19425362.001 8  80537485.65008        51.000    19425362.010 8  80537471.65108        50.500
R15  19776966.284 8 105682150.25708        49.250    19776968.752 7  82197234.59307        42.250    19776969.360 7  82197238.57907        42.500
R22  23412261.884 6 124976236.04106        41.000    23412261.525 6  97203751.20006        38.000    23412263.069 6  97203686.19806        38.250
R23  22933321.807 7 122677814.08207        43.000    22933324.434 5  95416092.40205        34.250    22933324.520 5  95416017.43505        35.000
> 2018 11 06 19 21  0.0000000  0 36
C05  40267678.686 5                        34.500    40267674.582 6 162141261.12006        39.000
C10  40143582.406 5 209038197.53605        34.750    40143578.394 6 161641596.18506        39.250
C14  24350264.099 6 126798239.27006        41.500    24350261.112 7  98048431.89907        45.500
C18  40941936.340 5 213195440.76305        34.500
C19  26036780.216 6 135580354.82306        38.000
C24  21767992.275 8 113351694.63808        52.500
C25  25269349.163 6 131584139.83306        37.500
C26  22618579.079 8 117780928.38308        50.250
C29  25879133.467 6 134759450.02806        38.750
E07  26330913.752 7 138369918.46807        42.250    26330918.965 7 103328221.17507        45.000    26330914.784 7 106023722.32607        44.500    26330916.196 7 104675957.25807        47.750
E19  24857591.039 7 130627532.36207        42.250    24857592.562 7  97546546.64007        44.500    24857589.034 7 100091225.20007        45.000    24857590.156 7  98818890.92707        47.750
E20  22552811.409 7 118515828.44007        42.750
E21  25638028.701 7 134728760.43207        44.500    25638032.136 7 100609163.48207        47.250    25638028.614 7 103233736.28007        47.500    25638029.756 8 101921447.88708        50.250
E27  23082312.950 8 121298421.17108        50.000    23082315.966 8  90580029.35108        53.500    23082312.248 8  92942968.38608        53.750    23082313.548 9  91761496.37409        56.500
E30  23828274.023 7 125218489.06307        44.750    23828276.924 7  93507357.49607        47.500    23828273.059 7  95946659.16307        47.750    23828274.428 8  94727004.83408        50.500
G05  25044966.210 6 131612203.40306        40.250    25044966.112 3        19.750    25044964.987 3 102554958.97703        19.750    25044964.985 6 102554948.00206        36.000
G10  24735120.052 6 129983947.75506        38.000    24735120.101 3        20.000    24735119.827 3 101286183.74203        20.000    24735119.550 6 101286178.74206        37.250    24735119.095 7  97065920.83307        42.750
G11  25402869.810 5 133492984.91805        34.500    25402869.319 1        11.250    25402866.555 1 104020495.14101        11.250
G12  25151405.194 6 132171526.80506        36.250    25151405.186 2        14.750    25151403.310 2 102990790.04702        14.750    25151403.803 5 102990790.04105        32.500
G13  20636656.250 8 108446413.76108        50.250    20636656.022 7        43.500    20636653.664 7  84503706.45707        43.500
G15  20471738.075 8 107579732.88208        52.500    20471738.083 7        46.500    20471735.397 7  83828363.40107        46.500    20471735.642 8  83828369.40308        49.500
G17  23653859.445 7 124301884.49107        44.000    23653859.392 4        28.500    23653857.296 4  96858599.44604        28.500    23653857.283 6  96858602.43406        38.750
G19  24911351.333 6 130910037.57506        36.000    24911350.403 2        17.000    24911347.602 2 102007806.65102        17.000
G20  23039957.631 6 121075799.47106        40.500    23039956.903 4        24.750    23039954.577 4  94344764.64404        24.750
G24  21731305.102 8 114198804.57008        48.250    21731305.018 6        39.750    21731305.324 6  88986080.36506        39.750    21731305.147 7  88986075.37207        45.750    21731306.816 8  85278332.53808        51.500
G28  22203049.297 7 116677847.45207        46.500    22203048.631 5        34.750    22203045.993 5  90917811.82405        34.750
G30  24331318.658 6 127862010.60106        39.750    24331318.167 3        22.500    24331319.004 3  99632774.53903        22.500    24331320.278 6  99632770.55106        36.750    24331320.704 7  95481418.12907        43.750
R03  24010114.319 6 128528028.92706        37.750    24010114.889 6  99966277.85106        37.250    24010115.058 6  99966271.83406        36.000
R04  19998633.834 8 107091781.56208        50.750    19998633.459 8  83293627.10208        49.250    19998633.383 8  83293641.09608        48.500
R05  19910504.637 8 106433064.94308        51.000    19910505.630 8  82781290.70408        50.250    19910505.684 8  82781279.71008        49.750    19910588.120 7  79831972.71917        45.000
R06  23965505.042 5 127884527.58205        32.000
R13  22636049.127 6 120875302.75406        36.750    22636051.053 6  94014148.85506        39.750    22636050.630 6  94014151.83206        39.250
R14  19432550.310 8 103586486.21408        51.500    19432552.473 8  80567296.93208        51.250    19432552.449 8  80567282.93008        50.250
R15  19767550.688 8 105631837.51608        49.000    19767553.393 7  82158102.46207        42.500    19767554.184 7  82158106.45507        42.250
R22  23420685.799 6 125021202.28806        39.250    23420685.266 6  97238724.95306        38.750    23420686.424 6  97238659.95806        38.500
R23  22920700.716 7 122610298.63107        43.750    22920702.729 5  95363580.40905        34.000    22920702.273 5  95363505.39005        34.000
> 2018 11 06 19 21 30.0000000  0 36
C05  40267424.060 5 209683059.12705        34.250    40267420.261 6 162140235.32306        39.000
C10  40149426.977 5 209068634.91605        35.250    40149424.317 6 161665132.30806        39.250
C14  24369157.218 6 126896624.86206        40.500    24369155.243 7  98124509.86807        46.250
C18  40948031.246 5 213227175.23505        35.500
C19  26020166.694 6 135493839.49106        37.250
C24  21762983.016 8 113325610.85708        52.500
C25  25252698.989 6 131497439.24206        36.750
C26  22629555.621 8 117838086.04908        50.000
C29  25881377.743 6 134771137.83706        39.250
E07  26347761.163 6 138458451.30006        41.500    26347765.970 7 103394333.32807        44.750    26347762.001 7 106091559.15207        44.500    26347763.481 7 104742931.74607        47.750
E19  24847948.370 7 130576859.25907        42.250    24847949.694 7  97508706.33507        44.750    24847946.375 7 100052397.75007        44.750    24847947.419 7  98780557.04807        47.750
E20  22557856.529 7 118542340.78507        42.500
E21  25624158.022 7 134655869.55707        44.500    25624161.423 7 100554731.99007        47.250    25624157.751 7 103177884.83507        47.500    25624159.150 8 101866306.41908        50.250
E27  23082041.873 8 121296996.60208        50.000    23082044.871 8  90578965.55708        53.500    23082041.148 8  92941876.83908        53.500    23082042.451 9  91760418.70409        56.500
E30  23841509.132 7 125288040.76707        44.750    23841512.209 7  93559295.45607        47.750    23841508.420 7  95999952.02507        47.250    23841509.729 8  94779620.24708        50.500
G05  25066310.465 6 131724367.78706        38.750    25066310.466 3        19.250    25066309.146 3 102642359.76603        19.250    25066309.304 5 102642348.78005        34.500
G10  24719128.365 6 129899913.06306        37.250    24719128.334 3        20.000    24719128.531 3 101220702.17903        20.000    24719127.758 6 101220697.19006        36.750    24719128.064 7  97003167.68407        43.000
G11  25396781.017 5 133460985.77005        35.250    25396780.624 2        13.500    25396777.511 2 103995560.77502        13.500
G12  25128167.869 6 132049413.27906        36.750    25128167.820 2        14.750    25128165.812 2 102895636.63202        14.750    25128165.882 5 102895636.63205        31.500
G13  20646103.000 8 108496056.12708        50.000    20646102.772 7        43.250    20646100.271 7  84542388.80707        43.250
G15  20468973.694 8 107565205.62408        52.250    20468973.711 7        46.500    20468970.995 7  83817043.45607        46.500    20468971.412 8  83817049.45308        49.000
G17  23640482.546 7 124231589.23107        44.250    23640482.511 4        29.000    23640480.469 4  96803823.93304        29.000    23640480.829 6  96803826.93706        39.500
G19  24890656.333 6 130801287.76706        36.250    24890655.466 3        18.000    24890653.394 3 101923066.58403        18.000
G20  23033510.949 6 121041923.23106        41.000    23033510.158 4        24.500    23033508.523 4  94318367.56804        24.500
G24  21717101.575 8 114124163.83608        48.000    21717101.508 6        39.500    21717101.618 6  88927918.76306        39.500    21717101.610 7  88927913.77107        46.000    21717103.256 8  85222594.33908        51.500
G28  22215700.964 7 116744332.63207        46.500    22215700.312 5        34.500    22215697.854 5  90969618.45905        34.500
G30  24349855.488 6 127959423.87006        40.000    24349854.943 3        22.250    24349856.044 3  99708680.97103        22.250    24349857.108 6  99708676.97406        37.500    24349857.671 7  95554161.76807        43.250
R03  24035955.437 6 128666360.75306        37.750    24035956.902 6 100073869.29506        38.000    24035956.516 6 100073863.28906        37.500
R04  20013847.743 8 107173252.23508        51.000    20013847.824 8  83356993.15708        49.500    20013847.751 8  83357007.15408        48.750
R05  19902108.517 8 106388183.11608        51.000    19902109.385 8  82746382.62008        50.000    19902109.401 8  82746371.61808        49.250
R06  23941391.541 5 127755851.45605        31.250
R13  22656995.767 6 120987157.74606        37.000    22656997.300 6  94101147.15406        38.750    22656997.985 6  94101150.17306        38.750
R14  19439833.625 8 103625308.75008        52.000    19439835.471 8  80597492.23308        51.000    19439835.493 8  80597478.23708        50.500
R15  19758233.316 8 105582046.82108        49.000    19758235.747 7  82119376.39107        42.250    19758236.159 7  82119380.38707        42.250
R22  23429247.241 6 125066904.57906        40.500    23429247.663 6  97274271.14906        39.000    23429247.499 6  97274206.15806        39.750
R23  22908198.699 7 122543420.75107        43.250    22908201.794 5  95311564.32105        34.750    22908200.958 6  95311489.30706        36.000
> 2018 11 06 19 22  0.0000000  0 36
C05  40267169.212 5 209681730.78305        34.500    40267164.771 6 162139208.15706        39.000
C10  40155273.219 5 209099074.98505        35.000    40155269.862 6 161688670.51806        39.750
C14  24388084.969 6 126995184.88706        41.250    24388082.452 7  98200722.70207        46.250
C18  40954122.016 5 213258890.44305        35.500
C19  26003583.680 6 135407488.51706        37.250
C24  21758037.474 8 113299857.68308        52.500
C25  25236071.930 6 131410857.28706        36.250
C26  22640575.695 8 117895471.94108        50.000
C29  25883718.393 6 134783324.38006        39.750
E07  26364636.668 6 138547131.74306        41.750    26364641.246 7 103460555.72107        45.000    26364637.307 7 106159509.07507        44.500    26364638.732 7 104810017.90507        47.750
E19  24838364.060 7 130526492.69007        42.250    24838365.401 7  97471094.94207        44.750    24838361.853 7 100013805.19307        44.750    24838362.979 7  98742455.07107        47.750
E20  22562975.707 7 118569241.14607        42.500
E21  25610325.629 7 134583180.38807        44.250    25610329.298 7 100500451.12707        47.750    25610325.394 7 103122187.94507        47.500    25610326.825 8 101811317.54008        50.500
E27  23081832.955 8 121295898.69408        50.000    23081835.963 8  90578145.69808        53.500    23081832.187 8  92941035.59008        53.500    23081833.515 9  91759588.14909        56.500
E30  23854773.319 7 125357743.83407        44.750    23854776.152 7  93611346.45107        47.500    23854772.501 7  96053360.87007        47.250    23854773.751 8  94832350.16308        50.250
G05  25087647.737 6 131836497.01906        38.000    25087647.826 2        17.250    25087646.316 2 102729733.19902        17.250    25087646.658 5 102729722.21905        34.250
G10  24703206.324 6 129816242.17306        37.250    24703206.341 3        20.500    24703206.483 3 101155504.08103        20.500    24703205.978 6 101155499.07806        37.250    24703205.999 7  96940686.16107        43.000
G11  25390789.439 5 133429502.50505        34.750    25390789.104 2        12.500    25390786.216 2 103971028.32402        12.500
G12  25104935.265 6 131927324.79606        37.750    25104935.278 2        15.000    25104933.001 2 102800502.76502        15.000    25104933.070 5 102800502.76305        31.250
G13  20655635.798 8 108546151.10908        50.000    20655635.579 7        43.500    20655633.037 7  84581423.85007        43.500
G15  20466310.442 8 107551210.37508        52.500    20466310.464 7        46.750    20466307.800 7  83806138.06107        46.750    20466308.230 8  83806144.05708        49.250
G17  23627171.613 7 124161638.98507        44.750    23627171.573 4        29.750    23627169.660 4  96749317.27404        29.750    23627169.322 6  96749320.27606        39.250
G19  24869972.311 6 130692588.09006        36.500    24869971.399 3        18.250    24869968.213 3 101838365.54303        18.250
G20  23027173.560 6 121008620.79006        40.250    23027172.724 4        24.750    23027171.058 4  94292417.61004        24.750
G24  21702950.057 8 114049797.59908        48.000    21702949.990 6        40.000    21702950.198 6  88869971.05306        40.000    21702950.182 7  88869966.06007        45.750    21702951.759 8  85167061.11508        51.750
G28  22228420.458 7 116811173.34607        46.250    22228419.797 5        34.750    22228417.174 5  91021702.12905        34.750
G30  24368405.192 6 128056901.24506        40.000    24368404.647 3        23.000    24368405.658 3  99784637.34703        23.000    24368406.228 6  99784633.35406        37.250    24368407.271 7  95626953.30507        43.750
R03  24061806.801 6 128804743.75906        37.750    24061807.678 6 100181500.52106        38.000    24061807.062 6 100181494.53606        37.000
R04  20029181.908 8 107255366.21708        50.750    20029181.849 8  83420859.56308        49.250    20029181.783 8  83420873.55708        48.500
R05  19893852.082 8 106344048.16008        50.750    19893853.098 8  82712055.42908        50.000    19893853.240 8  82712044.42908        49.750
R06  23917306.245 5 127627331.97705        33.000
R13  22677958.923 6 121099097.97806        36.250    22677959.762 6  94188211.80006        38.250    22677960.818 6  94188214.80406        37.250
R14  19447208.929 8 103664623.08708        52.000    19447210.715 8  80628070.05508        50.750    19447210.974 8  80628056.05308        50.500
R15  19749013.242 8 105532778.66808        49.000    19749015.924 7  82081056.71107        42.750    19749016.585 7  82081060.70807        42.000
R22  23437945.155 6 125113341.00206        39.500    23437946.212 6  97310388.36206        39.250    23437946.770 6  97310323.36406        39.000
R23  22895815.912 7 122477183.89507        42.750    22895818.937 5  95260046.79505        35.250    22895817.425 5  95259971.77905        34.750
> 2018 11 06 19 22 30.0000000  0 36
C05  40266913.328 5 209680400.71305        34.500    40266909.357 6 162138179.67806        39.000
C10  40161119.578 5 209129517.52605        35.500    40161115.872 6 161712210.59306        39.500
C14  24407045.375 6 127093917.20306        40.500    24407042.689 7  98277068.77607        44.750
C18  40960208.025 5 213290586.24805        34.000
C19  25987033.137 6 135321304.49406        37.500
C24  21753155.383 8 113274435.03908        52.250
C25  25219467.417 6 131324394.65506        37.250
C26  22651639.871 8 117953084.91208        50.000
C29  25886154.009 6 134796009.47306        39.000
E07  26381539.544 6 138635958.58006        41.500    26381544.721 7 103526887.42107        44.750    26381540.591 7 106227571.17607        44.250    26381541.908 7 104877214.80407        47.500
E19  24828838.196 7 130476434.05007        42.250    24828839.471 7  97433713.49307        44.750    24828836.008 7  99975448.58007        45.250    24828837.113 8  98704586.04208        48.000
E20  22568168.126 7 118596529.27407        42.750
E21  25596531.997 7 134510693.51207        44.250    25596535.467 7 100446321.33207        47.500    25596531.656 7 103066646.07507        47.250    25596532.951 8 101756481.71008        50.500
E27  23081686.179 8 121295126.86108        50.000    23081689.103 8  90577569.33508        53.500    23081685.322 9  92940444.19209        54.000    23081686.635 9  91759004.26809        56.750
E30  23868065.932 7 125427596.97607        44.500    23868068.801 7  93663509.49707        47.500    23868065.061 7  96106884.68907        47.750    23868066.360 8  94885193.60008        50.500
G05  25108977.891 6 131948588.63206        39.250    25108977.980 3        19.000    25108976.680 3 102817077.30703        19.000    25108976.305 5 102817066.29805        34.000
G10  24687354.247 6 129732937.52106        37.000    24687354.273 3        19.250    24687354.116 3 101090591.37303        19.250    24687353.523 6 101090586.38606        36.250    24687353.549 7  96878478.16307        42.500
G11  25384896.324 5 133398536.76905        32.750    25384895.976 1        11.500    25384893.624 1 103946899.17101        11.500
G12  25081707.786 6 131805263.85806        38.750    25081707.778 2        17.000    25081705.511 2 102705390.34302        17.000    25081705.803 5 102705390.35405        32.750
G13  20665254.505 8 108596698.40908        49.750    20665254.277 7        43.500    20665251.949 7  84620811.34407        43.500
G15  20463748.520 8 107537747.65708        52.250    20463748.537 7        46.750    20463745.936 7  83795647.62507        46.750    20463746.078 8  83795653.62308        49.250
G17  23613926.747 7 124092036.51807        44.250    23613926.716 4        29.250    23613924.584 4  96695081.59904        29.250    23613924.713 6  96695084.60206        39.250
G19  24849296.670 6 130583941.56106        37.500    24849295.696 3        19.750    24849293.899 3 101753705.92403        19.750
G20  23020945.944 6 120975893.26406        40.500    23020945.144 4        25.250    23020943.246 4  94266915.64904        25.250
G24  21688850.895 8 113975707.02008        48.250    21688850.833 6        40.250    21688851.270 6  88812238.14606        40.250    21688851.223 7  88812233.15207        46.000    21688852.785 8  85111733.74908        51.750
G28  22241207.136 7 116878367.66907        45.750    22241206.484 5        34.500    22241203.766 5  91074061.34005        34.500
G30  24386966.965 6 128154441.78806        38.250    24386966.500 3        22.250    24386966.880 3  99860642.95103        22.250    24386967.483 6  99860638.94906        37.000    24386968.353 7  95699792.00007        43.000
R03  24087667.064 6 128943174.72906        37.750    24087668.153 6 100289169.05406        37.750    24087667.552 6 100289163.08206        38.000
R04  20044635.748 8 107338120.83808        51.000    20044635.768 8  83485224.25808        49.250    20044635.884 8  83485238.25208        48.250
R05  19885735.952 8 106300662.56908        50.750    19885736.924 8  82678311.08608        50.000    19885736.906 8  82678300.07808        49.250
R06  23893253.618 5 127498972.56005        33.000
R13  22698937.427 6 121211120.94406        37.500    22698939.090 6  94275340.77106        39.750    22698939.436 6  94275343.77406        39.750
R14  19454675.729 8 103704426.89908        51.500    19454677.789 8  80659028.57208        51.000    19454677.850 8  80659014.57508        50.500
R15  19739890.953 8 105484032.80008        49.000    19739893.840 7  82043143.26307        42.750    19739894.351 7  82043147.25907        42.000
R22  23446782.020 6 125160509.14506        39.750    23446783.055 6  97347074.67506        40.000    23446782.979 6  97347009.68606        40.000
R23  22883553.433 7 122411591.14507        42.250    22883557.350 5  95209030.24805        34.750    22883554.779 5  95208955.20805        35.000
> 2018 11 06 19 23  0.0000000  0 36
C05  40266657.987 5 209679068.95705        34.500    40266653.202 6 162137149.83806        39.000
C10  40166965.708 5 209159962.17405        35.000    40166961.469 6 161735752.32706        39.500
C14  24426039.554 6 127192819.65506        41.000    24426036.210 7  98353546.40807        46.250
C18  40966291.256 5 213322262.57305        34.500
C19  25970514.490 6 135235290.09306        37.000
C24  21748336.596 8 113249342.90208        52.250
C25  25202886.261 6 131238051.96906        37.000
C26  22662747.228 8 118010923.88708        50.250
C29  25888686.071 6 134809192.81506        38.750
E07  26398470.270 6 138724930.53606        41.750    26398475.361 7 103593327.50207        45.000    26398471.471 7 106295744.48407        44.250    26398472.848 7 104944521.49807        47.750
E19  24819371.129 7 130426684.72507        42.250    24819372.485 7  97396563.00707        44.750    24819368.984 7  99937328.95107        44.750    24819370.152 7  98666950.98407        47.750
E20  22573434.870 7 118624205.06707        42.500
E21  25582776.722 7 134438409.51207        44.500    25582780.211 7 100392343.03507        47.750    25582776.735 8 103011259.64808        48.000    25582777.775 8 101701799.34808        50.750
E27  23081601.200 8 121294680.51308        49.750    23081604.136 8  90577236.02508        53.500    23081600.409 8  92940102.18708        53.750    23081601.688 9  91758666.61209        56.500
E30  23881386.862 7 125497598.95007        44.250    23881389.766 7  93715783.69607        47.500    23881386.035 7  96160522.55907        47.250    23881387.257 8  94938149.63108        50.500
G05  25130300.368 6 132060640.15206        37.500    25130300.448 2        17.500    25130299.106 2 102904390.17202        17.500    25130299.396 5 102904379.17405        34.250
G10  24671571.757 6 129650001.69306        38.000    24671571.717 3        19.250    24671571.841 3 101025966.07203        19.250    24671571.171 6 101025961.07306        36.750    24671571.137 7  96816545.59007        42.250
G11  25379103.225 5 133368090.32405        32.750    25379102.921 1         9.000    25379100.020 1 103923174.76801         9.000
G12  25058485.859 6 131683232.66706        37.750    25058485.833 2        16.750    25058483.695 2 102610301.12102        16.750    25058484.138 5 102610301.12405        33.750
G13  20674959.240 8 108647696.84108        50.250    20674959.021 7        43.500    20674956.635 7  84660550.37707        43.500
G15  20461288.264 8 107524818.40508        52.500    20461288.281 7        47.000    20461285.577 7  83785572.87607        47.000    20461286.044 8  83785578.87408        49.250
G17  23600748.338 7 124022784.23107        43.750    23600748.303 4        28.750    23600746.449 4  96641118.79804        28.750    23600746.214 6  96641121.79406        39.250
G19  24828632.847 6 130475351.76206        36.500    24828631.801 3        19.250    24828629.757 3 101669090.51303        19.250
G20  23014827.910 6 120943742.04806        40.250    23014827.092 4        25.500    23014824.792 4  94241862.75904        25.500
G24  21674804.655 8 113901893.03008        48.250    21674804.593 6        40.000    21674804.862 6  88754720.76106        40.000    21674804.925 7  88754715.76507        46.000    21674806.530 8  85056612.92308        52.000
G28  22254060.561 7 116945913.54807        45.750    22254059.913 5        34.500    22254057.445 5  91126694.49205        34.500
G30  24405540.012 6 128252044.49206        40.000    24405539.579 3        22.750    24405539.988 3  99936696.98303        22.750    24405540.506 6  99936693.00406        37.000    24405541.361 7  95772677.14407        42.250
R03  24113536.980 6 129081651.07506        36.250    24113536.691 6 100396872.91606        37.250    24113536.502 6 100396866.90306        37.500
R04  20060208.967 8 107421513.26908        51.250    20060208.833 8  83550085.01308        49.500    20060208.691 8  83550099.00708        48.500
R05  19877760.642 8 106258028.89208        50.750    19877761.539 8  82645151.54908        50.250    19877761.419 8  82645140.55008        49.500    19877846.345 7  79700694.26417        45.500
R06  23869228.715 5 127370776.64105        32.500
R13  22719931.368 6 121323224.78506        37.000    22719931.703 6  94362532.65606        38.250    22719932.153 6  94362535.63706        38.250
R14  19462234.586 8 103744718.38908        52.000    19462236.329 8  80690366.40008        50.750    19462236.497 8  80690352.40208        50.250
R15  19730866.887 8 105435809.39808        49.000    19730869.529 7  82005636.18207        42.500    19730869.389 7  82005640.16407        42.250
R22  23455754.476 6 125208406.91206        38.750    23455755.768 6  97384328.50106        39.500    23455756.611 6  97384263.50606        39.000
R23  22871412.624 7 122346646.79007        42.250    22871415.388 5  95158517.94205        34.500    22871415.296 5  95158442.97505        34.000
> 2018 11 06 19 23 30.0000000  0 36
C05  40266401.883 5 209677735.42905        34.000    40266397.434 6 162136118.68006        38.750
C10  40172813.188 5 209190408.74405        35.000    40172809.073 6 161759295.57206        39.250
C14  24445064.670 6 127291890.12506        39.750    24445061.725 7  98430153.96707        45.000
C18  40972370.585 5 213353919.32805        34.500
C19  25954029.388 6 135149447.93006        37.500
C24  21743581.359 8 113224581.18108        52.250
C25  25186328.077 6 131151829.86206        37.000
C26  22673897.792 8 118068987.78008        49.750
C29  25891313.220 6 134822874.10706        39.500
E07  26415428.818 7 138814046.44007        42.000    26415433.499 7 103659875.07107        44.250    26415429.841 7 106364028.08107        44.500    26415431.007 7 105011937.08407        47.250
E19  24809963.240 7 130377246.07007        42.250    24809964.723 7  97359644.54207        44.750    24809961.182 7  99899447.39607        45.250    24809962.282 8  98629550.97308        48.000
E20  22578775.065 7 118652268.31907        43.000
E21  25569060.272 7 134366328.95007        44.750    25569063.770 7 100338516.65207        47.250    25569059.902 7 102956029.09507        47.750    25569061.359 8 101647270.88008        50.500
E27  23081578.046 8 121294559.05608        50.000    23081581.030 8  90577145.33608        53.500    23081577.275 9  92940009.13009        54.000    23081578.569 9  91758574.73809        56.750
E30  23894735.951 7 125567748.52007        44.250    23894738.915 7  93768168.10807        47.500    23894734.920 7  96214273.52307        47.500    23894736.320 8  94991217.32308        50.500
G05  25151615.723 6 132172649.24906        38.250    25151615.861 3        18.250    25151613.806 3 102991669.95403        18.250    25151613.762 5 102991658.97805        34.250
G10  24655860.590 6 129567437.31806        37.000    24655860.532 3        19.000    24655860.768 3 100961630.19503        19.000    24655859.835 5 100961625.20605        35.250    24655859.693 7  96754890.38907        42.250
G11  25373408.034 5 133338164.74805        33.000    25373407.605 1        10.750    25373405.337 1 103899856.07601        10.750
G12  25035270.338 6 131561233.29606        36.250    25035270.364 2        14.750    25035268.184 2 102515236.68102        14.750    25035268.986 5 102515236.67805        32.500
G13  20684749.691 8 108699145.83108        49.500    20684749.468 7        43.250    20684746.975 7  84700640.49107        43.250
G15  20458929.550 8 107512423.88208        52.500    20458929.572 7        46.750    20458927.007 7  83775914.80307        46.750    20458927.220 8  83775920.80108        49.500
G17  23587637.447 7 123953884.94507        43.750    23587637.394 4        28.750    23587635.012 4  96587431.06004        28.750    23587635.285 6  96587434.06806        39.000
G19  24807980.819 6 130366821.65106        37.000    24807979.795 3        19.000    24807977.345 3 101584521.63403        19.000
G20  23008819.097 6 120912167.68506        40.500    23008818.212 4        25.000    23008816.639 4  94217259.35304        25.000
G24  21660811.172 8 113828356.17408        48.000    21660811.105 6        40.000    21660811.259 6  88697419.31806        40.000    21660811.228 7  88697414.32907        46.000    21660812.787 8  85001699.04608        52.000
G28  22266980.594 7 117013808.98007        45.750    22266979.946 5        34.250    22266977.612 5  91179600.02205        34.250
G30  24424124.785 6 128349708.47406        39.250    24424124.361 3        20.750    24424124.798 3 100012798.78303        20.750    24424125.933 6 100012794.78106        36.250    24424126.297 7  95845608.02207        42.750
R03  24139410.962 6 129220169.19206        36.750    24139413.009 6 100504609.26206        38.000    24139413.239 6 100504603.23306        37.250
R04  20075900.382 8 107505540.60008        51.000    20075900.208 8  83615439.58708        49.250    20075900.167 8  83615453.57508        48.250
R05  19869926.413 8 106216149.68308        51.250    19869927.118 8  82612578.83508        50.250    19869927.064 8  82612567.83908        49.500
R06  23845236.693 5 127242748.29905        32.750
R13  22740938.621 6 121435407.44106        37.250    22740940.701 6  94449785.83006        39.000    22740941.133 6  94449788.83506        39.000
R14  19469884.214 8 103785495.40208        51.750    19469886.005 8  80722081.85508        51.000    19469886.151 8  80722067.85908        50.250
R15  19721940.224 8 105388109.25508        49.250    19721943.142 7  81968536.07807        42.500    19721943.358 7  81968540.07907        42.500
R22  23464863.528 6 125257031.91306        40.250    23464864.499 6  97422147.96506        39.250    23464865.709 6  97422082.94006        39.250
R23  22859394.453 7 122282353.53407        43.250    22859397.527 5  95108512.14205        34.500    22859397.434 5  95108437.14705        35.750
> 2018 11 06 19 24  0.0000000  0 36
C05  40266145.332 5 209676400.17505        34.500    40266141.154 6 162135086.16106        39.000
C10  40178660.256 5 209220857.10905        35.750    40178657.030 6 161782840.16506        40.000
C14  24464121.416 6 127391126.44406        40.500    24464118.945 7  98506889.77807        45.750
C18  40978446.827 5 213385556.50005        34.500
C19  25937577.925 6 135063780.61506        37.750
C24  21738889.514 8 113200149.82308        52.500
C25  25169793.602 6 131065728.92306        38.000
C26  22685091.452 8 118127275.46908        49.500
C29  25894035.905 6 134837053.07706        39.000
E07  26432413.880 6 138903304.99806        41.250    26432418.867 7 103726529.17507        44.500    26432415.143 7 106432420.98307        44.500    26432416.291 7 105079460.58407        47.500
E19  24800614.619 7 130328119.45907        42.250    24800616.163 7  97322959.08507        44.750    24800612.681 7  99861804.93607        45.500    24800613.783 8  98592387.01708        48.000
E20  22584189.055 7 118680718.75107        42.750
E21  25555382.528 7 134294452.42607        45.000    25555386.182 7 100284842.63707        47.750    25555382.295 7 102900954.88707        47.500    25555383.645 8 101592896.76808        50.500
E27  23081616.632 8 121294761.90308        49.750    23081619.613 8  90577296.81308        53.500    23081615.883 9  92940164.55809        54.000    23081617.173 9  91758728.19109        56.750
E30  23908112.934 7 125638044.40707        44.250    23908115.625 7  93820661.79507        47.250    23908111.798 7  96268136.61207        47.500    23908113.219 8  95044395.70708        50.500
G05  25172921.580 6 132284613.13006        38.000    25172921.852 3        18.000    25172920.064 3 103078914.55903        18.000    25172919.933 5 103078903.55105        33.500
G10  24640219.633 6 129485246.89306        36.250    24640219.553 3        18.750    24640219.927 3 100897585.72503        18.750    24640219.293 6 100897580.70206        36.000    24640219.383 7  96693514.42307        42.250
G11  25367813.601 5 133308761.57705        33.000    25367813.034 1        11.750    25367809.995 1 103876944.49201        11.750
G12  25012060.416 6 131439267.76006        38.000    25012060.483 2        15.750    25012059.001 2 102420198.66502        15.750    25012059.261 5 102420198.64005        32.250
G13  20694625.747 8 108751044.80608        50.000    20694625.524 7        43.250    20694623.019 7  84741081.24507        43.250
G15  20456672.911 8 107500564.37008        52.250    20456672.937 7        47.000    20456670.219 7  83766673.62107        47.000    20456670.390 8  83766679.61708        49.250
G17  23574593.661 7 123885341.31707        44.250    23574593.581 4        29.250    23574591.544 4  96534020.45704        29.250    23574592.089 6  96534023.46806        39.500
G19  24787340.309 6 130258354.90806        37.000    24787339.299 3        20.250    24787336.908 3 101500002.13103        20.250
G20  23002920.857 6 120881171.23406        40.250    23002919.994 4        25.000    23002918.175 4  94193106.27404        25.000
G24  21646870.547 8 113755098.33908        48.000    21646870.480 6        40.250    21646870.846 6  88640335.29906        40.250    21646870.596 7  88640330.30807        46.500    21646872.311 8  84946993.52108        52.000
G28  22279966.651 7 117082051.25807        46.250    22279966.012 5        34.500    22279963.786 5  91232775.81405        34.500
G30  24442720.872 6 128447432.73906        39.250    24442720.425 3        21.000    24442721.489 3 100088947.54203        21.000    24442721.743 6 100088943.52006        36.500    24442722.826 7  95918583.89407        43.500
R03  24165295.145 6 129358726.50006        37.250    24165296.509 6 100612376.05406        37.250    24165295.904 6 100612370.01106        37.000
R04  20091709.943 8 107590200.18908        51.250    20091709.938 8  83681285.92108        49.500    20091709.829 8  83681299.91108        48.500
R05  19862233.337 8 106175027.32008        51.000    19862234.447 8  82580594.76908        50.250    19862234.229 8  82580583.77208        49.750    19862319.772 7  79638440.41517        44.250
R06  23821276.980 5 127114890.51005        34.250
R13  22761960.373 6 121547666.54306        37.500    22761962.858 6  94537098.42806        39.000    22761962.894 6  94537101.43506        39.000
R14  19477624.605 8 103826756.01808        51.750    19477626.451 8  80754173.44408        51.000    19477626.505 8  80754159.44708        50.250
R15  19713111.786 8 105340931.93308        49.250    19713114.362 7  81931842.61407        42.500    19713115.185 7  81931846.61607        42.250
R22  23474109.461 6 125306382.05006        39.000    23474109.995 6  97460531.39106        40.000    23474109.925 6  97460466.38006        40.000
R23  22847497.911 7 122218715.35407        43.000    22847501.249 5  95059015.80105        35.750    22847499.917 5  95058940.78805        35.500
> 2018 11 06 19 24 30.0000000  0 36
C05  40265888.469 5 209675063.16005        34.750    40265884.849 6 162134052.31506        38.500
C10  40184508.208 5 209251306.96105        35.750    40184504.183 6 161806385.90606        39.500
C14  24483210.553 6 127490526.50906        40.500    24483207.683 7  98583752.19307        45.500
C18  40984517.788 5 213417173.92405        34.500
C19  25921160.364 6 134978290.83006        37.000
C24  21734261.213 8 113176048.75808        52.500
C25  25153281.812 6 130979749.84206        37.000
C26  22696327.699 8 118185785.83908        49.250
C29  25896854.406 6 134851729.45406        38.750
E07  26449426.269 6 138992705.04706        41.750    26449431.164 7 103793288.91907        44.750    26449427.125 7 106500922.28607        44.000    26449428.642 7 105147091.11007        47.250
E19  24791325.766 7 130279306.26707        42.500    24791327.274 7  97286507.68507        44.750    24791323.838 7  99824402.61907        45.000    24791324.958 8  98555460.15908        48.000
E20  22589676.690 7 118709556.26507        42.750
E21  25541743.974 7 134222780.49407        44.750    25541747.392 7 100231321.41307        47.750    25541743.679 8 102846037.45308        48.000    25541744.897 8 101538677.43908        50.750
E27  23081716.898 8 121295288.45408        49.750    23081719.796 8  90577690.02408        53.500    23081716.074 8  92940568.02808        53.750    23081717.369 9  91759126.53109        56.500
E30  23921517.155 7 125708485.41007        44.500    23921520.206 7  93873263.82807        47.250    23921516.356 7  96322110.87607        47.250    23921517.686 8  95097683.85808        50.250
G05  25194218.287 6 132396529.56406        37.250    25194218.550 3        18.500    25194216.985 3 103166122.17903        18.500    25194218.055 5 103166111.19805        34.000
G10  24624651.626 6 129403432.99206        37.000    24624651.550 3        20.000    24624651.481 3 100833834.63303        20.000    24624651.048 6 100833829.64306        36.750    24624650.946 7  96632419.64307        42.250
G11  25362317.528 5 133279882.48505        32.250    25362316.970 1        10.500    25362314.438 1 103854441.29401        10.500
G12  24988858.065 6 131317338.30906        38.250    24988858.073 2        15.500    24988856.619 2 102325188.70602        15.500    24988856.082 5 102325188.69705        32.250
G13  20704587.423 8 108803392.86108        49.500    20704587.200 7        43.250    20704584.551 7  84781871.93407        43.250
G15  20454518.007 8 107489240.82708        52.500    20454518.038 7        47.000    20454515.402 7  83757850.07407        47.000    20454515.667 8  83757856.06908        49.500
G17  23561618.635 7 123817155.92707        44.250    23561618.519 4        29.000    23561616.299 4  96480889.00904        29.000    23561616.419 6  96480891.99606        39.250
G19  24766711.594 6 130149954.19206        36.500    24766710.633 3        19.750    24766708.776 3 101415534.08103        19.750
G20  22997132.677 6 120850753.84506        40.250    22997131.837 4        25.000    22997129.508 4  94169404.41104        25.000
G24  21632983.086 8 113682120.02908        48.000    21632983.019 6        40.500    21632983.453 6  88583469.08806        40.500    21632983.617 7  88583464.09507        46.250    21632984.999 8  84892496.73608        51.750
G28  22293018.471 7 117150638.91707        45.250    22293017.823 5        34.250    22293015.330 5  91286220.74705        34.250
G30  24461328.590 6 128545216.39106        40.250    24461328.152 3        22.000    24461328.935 3 100165142.58003        22.000    24461328.628 6 100165138.56906        36.250    24461330.343 7  95991604.11607        42.750
R03  24191183.969 6 129497319.53606        36.250    24191186.614 6 100720170.65606        37.250    24191186.403 6 100720164.64506        36.000
R04  20107637.223 8 107675488.79508        51.000    20107636.928 8  83747621.47508        49.250    20107637.048 8  83747635.47108        48.500
R05  19854683.004 8 106134664.45508        51.250    19854683.602 8  82549201.42708        50.250    19854683.520 8  82549190.42808        49.750
R06  23797349.076 5 126987207.23805        34.500
R13  22782996.860 6 121660000.73306        36.750    22782999.222 6  94624469.49206        37.750    22782998.872 6  94624472.48706        38.000
R14  19485455.303 8 103868498.11508        51.750    19485457.214 8  80786639.52008        51.000    19485457.149 8  80786625.52408        50.500
R15  19704381.162 8 105294278.93808        48.750    19704383.952 7  81895556.95607        42.750    19704384.391 7  81895560.96207        42.250
R22  23483489.752 6 125356454.87506        40.000    23483490.605 6  97499476.92406        40.250    23483491.105 6  97499411.91606        40.500
R23  22835724.012 7 122155735.16407        42.250    22835727.180 5  95010031.21405        35.250    22835727.737 5  95009956.21105        34.500
> 2018 11 06 19 25  0.0000000  0 36
C05  40265631.945 5 209673724.47205        34.500    40265627.326 6 162133017.16206        39.000
C10  40190355.153 5 209281757.93505        35.750    40190351.722 6 161829932.57106        40.000
C14  24502330.625 6 127590088.17906        40.500    24502327.438 7  98660739.56107        45.000
C18  40990586.129 5 213448771.59505        34.750
C19  25904777.480 6 134892981.19906        37.750
C24  21729696.254 8 113152277.89608        52.250
C25  25136794.425 6 130893893.19706        38.000
C26  22707606.509 8 118244517.80208        49.750
C29  25899768.680 6 134866902.90406        39.250
E07  26466465.235 6 139082245.29106        41.250    26466470.020 7 103860153.37307        44.500    26466466.521 7 106569531.02407        44.250    26466467.661 7 105214827.70207        47.500
E19  24782096.960 7 130230807.88807        42.250    24782098.361 7  97250291.35907        45.000    24782094.858 7  99787241.51907        45.000    24782095.998 8  98518771.44308        48.000
E20  22595237.999 7 118738780.53107        42.500
E21  25528144.140 7 134151313.73607        44.750    25528147.660 7 100177953.39507        47.750    25528143.981 7 102791277.22907        47.750    25528145.248 8 101484613.31708        50.750
E27  23081878.538 8 121296138.09208        50.000    23081881.469 8  90578324.50208        53.500    23081877.744 8  92941219.05308        53.750    23081879.040 9  91759769.28209        56.750
E30  23934948.949 7 125779070.26707        44.500    23934951.919 7  93925973.30007        47.250    23934948.309 7  96376195.37907        47.250    23934949.510 8  95151080.84308        50.250
G05  25215505.877 6 132508395.80106        38.250    25215506.154 2        17.750    25215504.564 2 103253290.66802        17.750    25215505.373 5 103253279.70405        34.000
G10  24609154.274 6 129321998.23106        36.250    24609154.198 3        18.750    24609155.172 3 100770378.97803        18.750    24609154.228 6 100770373.95406        37.000    24609154.028 6  96571607.97106        41.500
G11  25356922.192 5 133251528.77705        32.750    25356921.678 1        11.500    25356918.938 1 103832347.49001        11.500
G12  24965664.009 6 131195447.11106        38.000    24965664.080 2        17.000    24965661.602 2 102230208.60702        17.000    24965661.597 5 102230208.58505        33.250
G13  20714634.046 8 108856189.61808        50.000    20714633.823 7        43.000    20714631.491 7  84823012.26207        43.000
G15  20452465.339 8 107478454.12108        52.250    20452465.374 7        47.000    20452462.753 7  83749444.84407        47.000    20452462.971 8  83749450.83608        49.250
G17  23548712.201 7 123749331.37407        43.250    23548712.081 4        29.250    23548710.150 4  96428038.72304        29.250    23548709.892 6  96428041.71306        40.500
G19  24746097.339 6 130041623.06306        36.750    24746096.311 3        19.500    24746094.024 3 101331120.21403        19.500
G20  22991454.417 6 120820916.40606        40.500    22991453.546 4        24.750    22991451.482 4  94146154.46504        24.750
G24  21619149.150 8 113609422.27508        48.250    21619149.088 6        40.250    21619149.451 6  88526821.49006        40.250    21619149.710 7  88526816.49907        46.500    21619151.069 8  84838209.45508        52.000
G28  22306135.669 7 117219569.50507        46.000    22306135.039 5        34.250    22306132.302 5  91339932.89905        34.250
G30  24479947.319 6 128643058.43106        39.250    24479946.819 3        22.000    24479947.743 3 100241383.11503        22.000    24479948.290 6 100241379.11106        37.000    24479948.873 7  96064667.97507        43.000
R03  24217080.978 5 129635945.46305        35.500    24217082.862 6 100827990.79706        36.250    24217082.412 6 100827984.81706        36.000
R04  20123680.895 8 107761404.08308        51.000    20123680.948 8  83814444.46608        49.250    20123681.015 8  83814458.46008        48.500
R05  19847274.349 8 106095063.22408        51.250    19847275.546 8  82518400.47108        50.250    19847275.562 8  82518389.46608        49.750    19847360.169 7  79578458.65717        44.750
R06  23773454.012 5 126859702.38905        35.250
R13  22804047.208 6 121772407.29806        36.250    22804049.926 6  94711896.81906        39.000    22804050.064 6  94711899.82206        38.500
R14  19493375.835 8 103910719.41908        52.000    19493377.710 8  80819478.31108        50.750    19493377.695 8  80819464.31408        50.250
R15  19695748.908 8 105248150.15308        49.000    19695751.431 7  81859679.02907        42.750    19695751.543 7  81859683.02107        42.250
R22  23493003.878 6 125407248.08206        38.750    23493005.578 6  97538982.75006        40.250    23493006.192 6  97538917.74706        40.000
R23  22824075.116 7 122093416.81707        43.500    22824077.539 5  94961561.39205        35.000    22824077.480 5  94961486.42005        35.250
> 2018 11 06 19 25 30.0000000  0 36
C05  40265373.879 5 209672384.07105        34.750    40265369.614 6 162131980.68206        39.250
C10  40196203.034 5 209312210.02705        35.000    40196200.154 6 161853480.02206        40.000
C14  24521480.222 6 127689809.28206        40.500    24521477.807 7  98737850.23107        45.250
C18  40996650.300 5 213480349.42305        34.250
C19  25888430.010 6 134807854.32706        36.750
C24  21725194.717 8 113128837.16608        52.500
C25  25120329.438 6 130808159.64606        37.750
C26  22718927.800 8 118303470.26608        49.750
C29  25902777.622 6 134882573.02406        38.750
E07  26483530.817 6 139171924.49906        41.000    26483535.484 7 103927121.60107        44.250    26483531.731 7 106638246.25507        44.500    26483532.956 7 105282669.43107        47.500
E19  24772928.067 7 130182625.63807        42.500    24772929.581 7  97214311.11307        44.750    24772926.136 7  99750322.65707        45.500    24772927.227 8  98482321.89108        48.250
E20  22600872.563 7 118768391.34807        42.750
E21  25514583.628 7 134080052.70907        45.000    25514587.146 7 100124738.99307        47.500    25514583.298 8 102736674.62908        48.000    25514584.735 8 101430704.81808        50.750
E27  23082101.545 8 121297310.20008        49.750    23082104.529 8  90579199.78108        53.500    23082100.781 9  92942117.16609        54.000    23082102.085 9  91760655.97909        56.750
E30  23948408.159 7 125849797.75007        43.750    23948411.062 7  93978789.26507        47.250    23948407.103 7  96430389.15407        47.250    23948408.521 8  95204585.71908        50.250
G05  25236783.127 6 132620209.21506        38.000    25236783.413 2        17.000    25236781.872 2 103340418.02302        17.000    25236782.902 5 103340407.02705        33.750
G10  24593731.018 6 129240945.03406        36.750    24593731.005 3        18.500    24593730.735 3 100707220.63703        18.500    24593730.526 6 100707215.64306        36.250    24593730.203 7  96511081.23107        42.000
G11  25351627.889 5 133223701.74605        33.500    25351627.541 2        13.000    25351623.800 2 103810664.10302        13.000
G12  24942476.111 6 131073596.46206        39.000    24942476.160 2        17.500    24942473.860 2 102135260.08002        17.500    24942474.112 5 102135260.07205        33.500
G13  20724766.119 8 108909433.92808        50.500    20724765.891 7        43.000    20724763.588 7  84864501.32807        43.000
G15  20450514.911 8 107468204.87308        52.750    20450514.946 7        47.000    20450512.388 7  83741458.41007        47.000    20450512.675 8  83741464.40608        49.000
G17  23535874.498 7 123681869.72807        44.500    23535874.396 4        29.500    23535872.551 4  96375471.23104        29.500    23535872.109 6  96375474.22106        39.750
G19  24725496.307 6 129933364.39806        36.750    24725495.283 3        19.750    24725492.883 3 101246762.83003        19.750
G20  22985887.313 6 120791659.90106        41.250    22985886.464 4        25.250    22985884.567 4  94123357.18004        25.250
G24  21605368.916 8 113537005.93208        48.500    21605368.858 6        40.500    21605369.180 6  88470393.18406        40.500    21605369.146 7  88470388.19207        46.000    21605370.740 8  84784132.33208        52.250
G28  22319317.505 7 117288840.98507        46.250    22319316.879 5        34.000    22319314.350 5  91393910.67205        34.000
G30  24498576.562 6 128740957.97506        39.250    24498576.004 3        22.500    24498577.600 3 100317668.45403        22.500    24498578.068 6 100317664.45706        36.000    24498578.667 7  96137774.74507        42.750
R03  24242984.136 5 129774601.16405        35.750    24242984.727 6 100935834.10906        36.250    24242985.155 5 100935828.09305        35.500
R04  20139842.006 8 107847942.64108        51.000    20139841.638 8  83881752.20808        49.250    20139841.446 8  83881766.20708        48.500
R05  19840009.107 8 106056225.86808        51.250    19840010.004 8  82488193.63208        50.250    19840010.175 8  82488182.62908        49.750
R06  23749594.039 5 126732379.25205        35.250
R13  22825112.786 6 121884885.01106        36.250    22825112.843 6  94799379.46206        38.250    22825113.741 6  94799382.46806        37.500
R14  19501386.086 8 103953418.01908        52.000    19501387.897 8  80852688.33608        51.000    19501388.066 8  80852674.33708        50.250
R15  19687214.514 8 105202545.52708        49.000    19687217.219 7  81824208.76307        42.500    19687217.821 7  81824212.77007        42.250
R22  23502654.531 6 125458759.16906        39.750    23502655.926 6  97579046.93706        39.750    23502655.504 6  97578981.94106        40.500
R23  22812549.240 7 122031763.52307        43.250    22812552.339 5  94913608.86305        35.250    22812552.593 5  94913533.85505        35.750
> 2018 11 06 19 26  0.0000000  0 36
C05  40265116.594 5 209671042.00305        34.750    40265112.547 6 162130942.87606        38.750
C10  40202050.329 5 209342662.87705        35.000    40202048.022 6 161877028.09006        39.750
C14  24540660.870 6 127789687.71406        40.000    24540658.617 7  98815082.53807        45.750
C18  41002711.267 5 213511907.27205        33.750
C19  25872118.108 6 134722912.87206        38.250
C24  21720756.564 8 113105726.51808        52.250
C25  25103890.080 6 130722549.83206        37.750
C26  22730290.942 8 118362642.15308        49.500
C29  25905882.369 6 134898739.47606        39.000
E07  26500622.383 6 139261741.42206        41.500    26500627.107 7 103994192.64607        44.250    26500623.362 7 106707066.98707        44.250    26500624.575 7 105350615.32007        47.250
E19  24763819.859 7 130134760.89307        42.500    24763821.196 7  97178567.95907        44.750    24763817.743 7  99713647.08007        45.250    24763818.889 8  98446112.52608        48.000
E20  22606580.882 7 118798388.52207        42.500
E21  25501062.405 7 134008997.95607        44.500    25501065.892 7 100071678.65007        47.750    25501062.136 8 102682230.09108        48.250    25501063.403 8 101376952.37408        50.750
E27  23082385.831 8 121298804.17908        50.000    23082388.819 8  90580315.42208        53.250    23082385.080 9  92943261.91109        54.000    23082386.368 9  91761786.17209        56.500
E30  23961893.717 7 125920666.64107        44.250    23961897.037 7  94031710.83307        47.250    23961893.219 7  96484691.28707        47.500    23961894.425 8  95258197.56408        50.250
G05  25258050.789 6 132731967.70406        38.250    25258051.043 2        17.750    25258048.610 2 103427502.57602        17.750    25258049.037 5 103427491.57105        33.750
G10  24578379.943 6 129160275.99906        36.750    24578379.983 3        19.500    24578379.985 3 100644361.65603        19.500    24578379.560 6 100644356.66406        37.000    24578379.659 7  96450841.36707        42.750
G11  25346432.196 5 133196402.88605        33.000    25346431.794 1        11.250    25346428.977 1 103789392.27601        11.250
G12  24919296.541 6 130951788.57806        38.500    24919296.452 2        16.000    24919294.650 2 102040344.87402        16.000    24919295.247 5 102040344.88505        32.750
G13  20734983.356 8 108963125.24308        50.000    20734983.124 7        43.000    20734980.692 7  84906338.71007        43.000
G15  20448667.095 8 107458493.99808        52.500    20448667.130 7        47.000    20448664.490 7  83733891.49207        47.000    20448664.587 8  83733897.49008        49.250
G17  23523106.828 7 123614774.29907        44.500    23523106.726 4        29.500    23523104.338 4  96323189.09504        29.500    23523104.492 6  96323192.08406        39.750
G19  24704910.247 6 129825181.76406        36.500    24704909.322 3        19.500    24704906.597 3 101162464.72303        19.500
G20  22980431.040 6 120762984.96506        41.250    22980430.195 4        25.000    22980427.922 4  94101013.07304        25.000
G24  21591642.118 8 113464871.88008        48.250    21591642.042 6        40.500    21591642.605 6  88414184.83906        40.500    21591642.525 7  88414179.84907        46.250    21591644.076 8  84730266.00108        52.250
G28  22332563.897 7 117358451.22407        45.750    22332563.263 5        33.750    22332560.598 5  91448152.41605        33.750
G30  24517217.130 6 128838914.13206        39.000    24517216.607 3        22.500    24517218.471 3 100393997.89703        22.500    24517217.669 6 100393993.89906        37.250    24517219.006 7  96210923.80907        42.750
R03  24268891.155 6 129913283.73706        36.000    24268892.239 6 101043698.34106        36.750    24268892.185 6 101043692.34406        36.000
R04  20156118.075 8 107935101.68308        51.000    20156117.732 8  83949542.55808        48.750    20156117.843 8  83949556.55208        48.250
R05  19832887.504 8 106018155.07308        51.250    19832888.087 8  82458583.01308        50.250    19832888.242 8  82458572.01308        49.500    19832972.942 7  79520773.08217        44.750
R06  23725767.990 6 126605241.68406        36.250
R13  22846187.328 6 121997430.98106        37.250    22846189.308 6  94886915.25106        38.500    22846189.532 6  94886918.23006        38.000
R14  19509485.312 8 103996591.94808        52.000    19509487.289 8  80886268.06108        51.000    19509487.168 8  80886254.06408        50.500
R15  19678778.479 8 105157464.90608        49.250    19678780.823 7  81789146.06707        42.500    19678781.464 7  81789150.07007        42.250
R22  23512438.831 6 125510985.71006        40.250    23512439.308 6  97619667.58106        40.000    23512439.492 6  97619602.59306        39.500
R23  22801148.725 7 121970778.64907        43.000    22801151.562 5  94866176.17105        35.500    22801151.248 6  94866101.19206        36.000
> 2018 11 06 19 26 30.0000000  0 37
C05  40264858.777 5 209669698.18805        34.500    40264854.109 6 162129903.79806        39.000
C10  40207900.156 5 209373116.42305        35.250    40207896.452 6 161900576.67806        39.750
C14  24559871.782 6 127889721.28506        40.000    24559868.581 7  98892434.83307        44.750
C18  41008767.587 5 213543445.03005        33.750
C19  25855841.654 6 134638159.44506        37.750
C24  21716381.653 8 113082945.83108        52.250
C25  25087472.452 6 130637064.31506        37.500
C26  22741696.182 8 118422032.34708        49.250
C29  25909082.142 6 134915401.88406        38.500
E07  26517740.030 6 139351694.79206        40.500    26517744.805 7 104061365.60907        44.500    26517741.086 7 106775992.29307        44.000    26517742.313 7 105418664.45907        47.250
E19  24754772.173 7 130087215.01107        42.250    24754773.513 7  97143062.92107        45.000    24754770.017 7  99677215.82107        45.250    24754771.156 8  98410144.37708        48.250
E20  22612362.544 7 118828771.77707        42.750
E21  25487580.464 7 133938150.03307        44.750    25487583.949 8 100018772.75908        48.000    25487580.308 8 102627944.04608        48.000    25487581.470 8 101323356.40908        51.000
E27  23082731.339 8 121300619.37208        49.750    23082734.255 8  90581670.93108        53.500    23082730.477 9  92944652.78109        54.000    23082731.779 9  91763159.36109        56.750
E30  23975406.650 7 125991675.70507        44.000    23975409.535 7  94084737.08007        47.250    23975405.526 7  96539100.82607        47.250    23975407.038 8  95311915.46108        50.250
G05  25279306.206 6 132843668.49506        36.500    25279306.402 2        15.000    25279304.356 2 103514542.17102        15.000    25279304.727 5 103514531.16705        32.250
G10  24563102.655 6 129079993.62706        36.500    24563102.651 3        19.750    24563102.964 3 100581803.95903        19.750    24563102.362 6 100581798.97206        37.250    24563102.213 7  96390890.23807        42.750
G11  25341338.554 5 133169633.94105        30.500    25341338.224 1        10.250    25341334.945 1 103768533.34001        10.250
G12  24896125.858 6 130830024.90206        38.000    24896125.854 3        18.500    24896123.811 3 101945464.13203        18.500    24896124.458 5 101945464.16905        35.000
G13  20745285.220 8 109017262.90508        50.000    20745284.988 7        43.000    20745282.675 7  84948523.90207        43.000
G15  20446921.823 8 107449322.07808        52.500    20446921.854 7        47.250    20446919.144 7  83726744.53307        47.250    20446919.454 8  83726750.53208        49.250
G17  23510409.010 7 123548047.87407        44.500    23510408.885 5        30.000    23510406.719 5  96271194.50505        30.000    23510406.889 6  96271197.49706        39.250
G19  24684338.549 6 129717078.70906        37.500    24684337.669 3        20.000    24684335.175 3 101078228.58703        20.000
G20  22975084.926 6 120734892.73606        40.500    22975084.055 4        24.750    22975081.744 4  94079123.01304        24.750
G24  21577969.535 8 113393021.18208        48.250    21577969.468 6        40.750    21577969.814 6  88358197.28406        40.750    21577969.699 7  88358192.29307        46.500    21577971.229 8  84676611.26508        52.250
G28  22345874.265 7 117428397.93807        45.500    22345873.635 5        34.250    22345871.169 5  91502656.35005        34.250
G30  24535868.502 6 128936925.87806        40.000    24535867.939 3        22.250    24535869.667 3 100470370.66503        22.250    24535869.019 6 100470366.68506        36.750    24535870.571 7  96284114.39807        43.500
R03  24294802.559 6 130051989.86906        36.500    24294804.017 6 101151580.90306        36.750    24294804.819 5 101151574.92005        35.750
R04  20172509.592 8 108022878.25008        50.750    20172509.493 8  84017813.21408        49.250    20172509.611 8  84017827.20708        48.500
R05  19825909.127 8 105980852.72108        51.000    19825909.811 8  82429570.07008        50.250    19825910.104 8  82429559.06908        49.250
R06  23701978.718 6 126478293.50406        36.000
R13  22867275.125 5 122110044.10205        35.750    22867278.410 6  94974503.20306        38.000    22867277.860 6  94974506.19306        37.500
R14  19517673.456 8 104040238.84908        52.000    19517675.210 8  80920215.64708        51.000    19517675.254 8  80920201.65008        50.250
R15  19670440.266 8 105112908.17608        49.000    19670442.727 7  81754490.84407        42.750    19670443.203 7  81754494.84507        42.250
R22  23522355.076 6 125563925.51406        40.000    23522356.325 6  97660842.96306        39.750    23522356.952 6  97660777.97306        39.250
R23  22789872.975 7 121910465.24807        42.250    22789877.054 5  94819265.84605        35.250    22789875.794 5  94819190.83505        35.250
R24  24283680.326 5 129855736.92415        34.000
> 2018 11 06 19 27  0.0000000  0 37
C05  40264600.433 5 209668352.76805        34.500    40264595.843 6 162128863.40806        38.750
C10  40213748.321 5 209403570.30705        35.500    40213744.655 6 161924125.58506        39.500
C14  24579111.826 6 127989907.86706        40.250    24579109.087 7  98969905.44007        45.750
C18  41014820.098 5 213574962.72205        34.500
C19  25839602.506 6 134553596.67206        37.750
C24  21712070.335 8 113060495.02708        52.500
C25  25071080.841 6 130551703.78806        37.500
C26  22753143.318 8 118481639.76508        49.250
C29  25912377.450 6 134932559.85306        38.750
E07  26534883.289 6 139441783.41006        40.750    26534887.879 7 104128639.54807        44.000    26534884.325 7 106845021.21807        44.500    26534885.530 7 105486815.88707        47.250
E19  24745785.546 7 130039989.34607        42.750    24745786.766 7  97107796.99907        45.000    24745783.319 7  99641029.91607        45.500    24745784.438 8  98374418.46208        48.250
E20  22618217.661 7 118859540.82007        42.750
E21  25474137.938 7 133867509.52307        45.000    25474141.427 8  99966021.75208        48.000    25474137.716 8 102573816.92308        48.000    25474139.034 8 101269917.34508        51.000
E27  23083137.660 8 121302755.18808        50.000    23083140.672 8  90583265.86108        53.500    23083136.922 9  92946289.31709        54.000    23083138.209 9  91764775.09409        56.750
E30  23988945.747 7 126062823.69707        44.250    23988948.518 7  94137867.07007        47.250    23988944.853 7  96593616.81507        47.500    23988946.034 8  95365738.44608        50.250
G05  25300550.620 6 132955309.35806        38.000    25300550.704 2        17.000    25300548.838 2 103601535.06302        17.000    25300549.136 5 103601524.07505        34.000
G10  24547900.136 5 129000100.42605        35.000    24547900.171 3        18.500    24547899.649 3 100519549.53703        18.500    24547898.799 5 100519544.53105        35.750    24547898.906 7  96331229.74107        42.000
G11  25336345.220 5 133143396.10205        31.250    25336344.939 1         9.500    25336342.047 1 103748088.27101         9.500
G12  24872963.043 6 130708307.88406        39.250    24872962.990 2        17.000    24872962.049 2 101850619.73402        17.000    24872961.460 5 101850619.73905        33.750
G13  20755672.213 8 109071846.23408        50.250    20755671.981 7        42.750    20755669.566 7  84991056.36107        42.750
G15  20445279.089 8 107440689.65208        52.750    20445279.129 7        47.000    20445276.453 7  83720017.96307        47.000    20445276.696 8  83720023.96408        49.750
G17  23497782.276 7 123481692.80407        44.000    23497782.151 4        29.500    23497779.845 4  96219489.26004        29.500    23497779.858 6  96219492.24306        40.000
G19  24663782.380 6 129609058.05206        37.750    24663781.495 3        21.250    24663779.345 3 100994056.67503        21.250
G20  22969850.161 6 120707384.00506        40.750    22969849.281 4        25.500    22969847.294 4  94057687.63104        25.500
G24  21564350.754 8 113321454.14908        48.500    21564350.701 6        40.750    21564351.013 6  88302430.77106        40.750    21564350.823 7  88302425.77307        46.250    21564352.573 8  84623168.35508        52.000
G28  22359248.327 7 117498678.90207        45.500    22359247.679 5        33.750    22359245.216 5  91557420.73805        33.750
G30  24554530.070 6 129034992.36806        38.750    24554529.561 3        22.000    24554530.740 3 100546786.10403        22.000    24554530.691 6 100546782.10806        37.000    24554531.745 7  96357345.82907        42.750
R03  24320718.213 5 130190716.75605        35.000    24320719.342 5 101259479.60805        35.750    24320719.499 5 101259473.59205        34.750
R04  20189016.319 8 108111269.36408        50.750    20189015.951 8  84086561.82908        49.000    20189015.940 8  84086575.82708        48.250
R05  19819075.118 8 105944321.52308        51.250    19819075.960 8  82401156.92008        50.000    19819076.090 8  82401145.91308        49.500
R06  23678224.881 5 126351538.08105        35.750
R13  22888377.671 6 122222722.18206        36.750    22888378.906 6  95062141.72406        38.500    22888379.580 6  95062144.74406        38.000
R14  19525949.984 8 104084356.81608        52.250    19525951.602 8  80954529.61908        51.000    19525951.619 8  80954515.62108        50.250
R15  19662200.379 8 105068876.57608        49.250    19662202.855 7  81720244.05007        42.500    19662203.397 7  81720248.04407        42.250
R22  23532406.036 6 125617575.93606        39.500    23532407.044 6  97702571.08606        40.000    23532407.358 6  97702506.09706        39.250
R23  22778724.943 7 121850826.95207        43.250    22778727.909 5  94772880.49605        34.500    22778728.327 6  94772805.48706        36.250
R24  24261651.735 5 129737945.40205        33.500
> 2018 11 06 19 27 30.0000000  0 37
C05  40264341.561 5 209667005.59905        34.250    40264337.190 6 162127821.72606        38.750
C10  40219596.055 5 209434024.32005        35.000    40219593.379 6 161947674.56206        39.250
C14  24598379.775 6 128090245.33806        39.250    24598377.464 7  99047492.70607        45.500
C18  41020868.272 5 213606460.20405        34.000
C19  25823400.126 6 134469227.20206        37.500
C24  21707822.247 8 113038374.00208        52.000
C25  25054711.626 6 130466468.78306        38.500
C26  22764631.832 8 118541463.35008        49.250
C29  25915766.983 6 134950212.90106        38.500
E07  26552051.748 6 139532005.97706        40.750    26552056.689 7 104196013.51307        44.250    26552052.952 7 106914152.75707        43.750    26552054.262 7 105555068.64607        47.000
E19  24736859.991 7 129993085.22407        42.750    24736861.298 7  97072771.20007        45.000    24736857.756 7  99605090.39607        45.500    24736858.896 8  98338935.80208        48.250
E20  22624146.213 7 118890695.35807        42.750
E21  25460735.047 7 133797076.95207        44.750    25460738.595 8  99913426.01108        48.000    25460734.853 8 102519849.12008        48.250    25460736.137 8 101216635.57108        51.000
E27  23083604.885 8 121305210.97708        50.250    23083607.955 8  90585099.73608        53.500    23083604.236 9  92948171.03309        54.000    23083605.529 9  91766632.89009        56.750
E30  24002510.692 7 126134109.41707        44.500    24002513.650 7  94191099.90307        47.000    24002509.850 7  96648238.33107        47.000    24002511.264 8  95419665.62408        50.000
G05  25321782.807 6 133066887.78706        38.250    25321782.883 2        17.250    25321781.694 2 103688479.30302        17.250    25321781.820 5 103688468.31705        32.750
G10  24532771.213 6 128920598.90906        36.250    24532771.391 3        19.500    24532770.634 3 100457600.29303        19.500    24532771.019 6 100457595.29706        36.000    24532770.216 7  96271861.73207        42.000
G11  25331453.531 5 133117690.77505        32.000    25331453.236 1         8.750    25331450.544 1 103728058.18801         8.750
G12  24849810.694 6 130586639.66006        39.500    24849810.493 2        17.250    24849809.163 2 101755813.37202        17.250    24849808.981 5 101755813.36805        33.250
G13  20766143.838 8 109126874.33508        49.750    20766143.606 7        43.000    20766141.126 7  85033935.39207        43.000
G15  20443739.076 8 107432597.40008        52.500    20443739.120 7        47.250    20443736.552 7  83713712.30507        47.250    20443736.769 8  83713718.30308        49.500
G17  23485226.179 7 123415711.27507        44.250    23485226.072 5        30.000    23485223.981 5  96168075.10205        30.000    23485224.157 6  96168078.09406        40.250
G19  24643242.973 6 129501123.18006        36.750    24643242.052 3        19.250    24643239.765 3 100909951.59203        19.250
G20  22964726.904 6 120680459.47106        40.750    22964726.019 4        25.750    22964724.285 4  94036707.48004        25.750
G24  21550786.190 8 113250172.24208        48.250    21550786.141 6        41.000    21550786.597 6  88246886.43506        41.000    21550786.300 7  88246881.44807        46.750    21550788.021 8  84569938.36708        52.250
G28  22372685.531 7 117569292.10307        45.750    22372684.883 5        33.750    22372682.432 5  91612444.01005        33.750
G30  24573201.311 6 129133112.68006        39.750    24573200.811 3        22.000    24573202.465 3 100623243.45403        22.000    24573202.442 6 100623239.46206        36.750    24573203.655 7  96430617.47107        42.750
R03  24346636.751 5 130329461.04005        34.500    24346637.541 5 101367391.85705        34.000    24346637.061 5 101367385.87605        33.750
R04  20205636.845 8 108200271.94508        50.500    20205636.690 8  84155786.03908        48.750    20205636.608 8  84155800.03508        48.250
R05  19812385.941 8 105908563.33908        51.250    19812386.717 8  82373344.99508        50.000    19812386.819 8  82373333.98608        49.500    19812447.686 7  79438477.19717        46.000
R06  23654507.821 6 126224979.28206        36.000
R13  22909491.056 6 122335463.02006        36.000    22909492.186 6  95149829.01206        38.750    22909492.410 6  95149832.01206        38.250
R14  19534314.120 8 104128943.70208        52.000    19534316.072 8  80989208.30608        51.000    19534316.193 8  80989194.30708        50.250
R15  19654058.561 8 105025370.04708        49.000    19654061.126 7  81686405.63707        42.500    19654061.868 7  81686409.64207        42.250
R22  23542588.660 6 125671934.39006        39.250    23542590.234 6  97744849.90006        39.750    23542590.579 6  97744784.90806        40.000
R23  22767701.458 7 121791866.83607        42.250    22767705.274 5  94727022.64605        35.000    22767706.082 5  94726947.65705        35.250
R24  24239654.929 5 129620316.52505        34.250
> 2018 11 06 19 28  0.0000000  0 37
C05  40264081.896 5 209665656.82205        34.250    40264078.212 6 162126778.74206        38.750
C10  40225444.153 5 209464478.31905        34.750    40225441.591 6 161971223.52706        39.250
C14  24617677.667 6 128190731.48206        39.750    24617675.014 7  99125194.96407        45.250
C18  41026914.783 5 213637937.46305        34.750
C19  25807236.119 6 134385053.67506        38.000
C24  21703637.451 8 113016582.67908        52.250
C25  25038367.625 6 130381359.98306        37.750
C26  22776161.707 8 118601501.97408        49.000
C29  25919252.304 6 134968360.65106        38.000
E07  26569246.130 6 139622361.23106        40.500    26569250.973 7 104263486.57007        44.250    26569246.979 7 106983385.98507        44.000    26569248.353 7 105623421.78407        47.000
E19  24727995.589 7 129946504.00507        43.000    24727997.124 7  97037986.52107        44.750    24727993.720 7  99569398.29407        45.500    24727994.763 8  98303697.41108        48.250
E20  22630148.137 7 118922235.12407        42.750
E21  25447371.864 7 133726852.83207        45.250    25447375.352 7  99860985.93607        47.750    25447371.695 8 102466041.04508        48.250    25447372.908 8 101163511.49508        51.000
E27  23084133.134 8 121307986.11408        50.000    23084136.059 8  90587172.08308        53.250    23084132.317 8  92950297.43908        53.750    23084133.623 9  91768732.26709        56.500
E30  24016102.012 7 126205531.63707        44.000    24016105.029 7  94244434.67507        47.000    24016101.250 7  96702964.45407        47.250    24016102.488 8  95473696.07108        50.000
G05  25343003.288 6 133178400.95006        37.750    25343003.323 2        16.500    25343001.837 2 103775372.72202        16.500    25343001.315 5 103775361.74105        33.500
G10  24517717.956 6 128841491.58606        36.750    24517718.134 3        19.250    24517717.551 3 100395958.20403        19.250    24517716.695 6 100395953.21506        36.250    24517717.035 7  96212788.06507        42.250
G11  25326664.347 5 133092519.69305        31.500    25326664.030 1         9.500    25326660.542 1 103708444.39101         9.500
G12  24826667.538 6 130465022.41906        38.250    24826667.315 3        18.000    24826665.597 3 101661046.63803        18.000    24826665.501 5 101661046.62705        33.750
G13  20776699.593 8 109182346.10408        50.000    20776699.361 7        42.500    20776697.067 7  85077160.13207        42.500
G15  20442302.240 8 107425046.36008        52.500    20442302.280 7        47.250    20442299.654 7  83707828.37607        47.250    20442299.920 8  83707834.36808        49.250
G17  23472741.706 7 123350106.16707        44.500    23472741.590 5        30.000    23472739.564 5  96116954.24505        30.000    23472740.148 6  96116957.24006        39.750
G19  24622721.389 6 129393277.34706        37.000    24622720.482 3        18.750    24622717.200 3 100825915.87903        18.750
G20  22959714.680 6 120654120.16806        41.000    22959713.791 4        25.250    22959712.120 4  94016183.35804        25.250
G24  21537276.049 8 113179176.42908        48.000    21537276.009 6        40.500    21537276.425 6  88191565.02606        40.500    21537276.631 7  88191560.03707        46.500    21537278.052 8  84516922.02108        52.500
G28  22386185.694 7 117640235.32707        45.500    22386185.033 5        33.750    22386182.444 5  91667724.44405        33.750
G30  24591883.325 6 129231285.83006        38.750    24591882.838 3        20.750    24591883.679 3 100699742.01003        20.750    24591884.462 6 100699738.01206        36.000    24591885.226 7  96503928.57407        42.250
R03  24372557.650 5 130468220.44005        35.500    24372559.037 5 101475315.85205        34.750    24372559.881 5 101475309.85005        34.750
R04  20222370.854 8 108289883.16308        50.250    20222371.009 8  84225483.64308        49.000    20222370.910 8  84225497.63208        48.250
R05  19805841.657 8 105873580.60908        51.000    19805842.497 8  82346136.20408        50.000    19805842.531 8  82346125.20208        49.500
R06  23630828.708 5 126098621.13505        35.750
R13  22930613.369 6 122448264.63906        37.000    22930616.010 6  95237563.59306        38.000    22930617.006 6  95237566.58106        37.250
R14  19542766.328 8 104173997.39108        52.500    19542768.020 8  81024250.05908        51.000    19542768.182 8  81024236.06008        50.000
R15  19646015.145 8 104982388.55808        49.250    19646017.925 7  81652975.59807        42.750    19646018.660 7  81652979.60707        42.250
R22  23552904.730 6 125726998.44706        38.750    23552905.351 6  97787677.51606        39.000    23552905.343 6  97787612.52406        38.750
R23  22756808.087 7 121733588.05307        43.000    22756810.944 5  94681694.73405        35.250    22756811.428 5  94681619.73305        35.250
R24  24217689.555 5 129502854.88205        34.250
> 2018 11 06 19 28 30.0000000  0 37
C05  40263822.663 5                        34.500    40263818.658 6 162125734.49506        39.000
C10  40231292.957 5 209494932.01805        35.000    40231289.829 6 161994772.24606        39.500
C14  24637003.135 6 128291364.28406        40.250    24637000.244 7  99203010.60207        45.750
C18  41032954.651 5 213669394.34805        35.000
C19  25791108.725 6 134301078.70206        37.750
C24  21699515.988 8 112995120.95008        52.250
C25  25022047.736 6 130296377.95906        38.500
C26  22787732.456 8 118661754.57808        49.250
C29  25922832.149 6 134987002.61006        37.750
E07  26586465.147 6 139712847.92306        40.500    26586469.922 7 104331057.77407        44.250    26586466.183 7 107052719.93507        44.250    26586467.516 7 105691874.36207        47.250
E19  24719193.219 7 129900247.00107        43.250    24719194.784 7  97003443.95807        44.750    24719191.279 7  99533954.61907        45.500    24719192.378 8  98268704.29408        48.250
E20  22636223.146 7 118954159.73407        42.500
E21  25434048.420 7 133656837.70507        44.500    25434051.904 8  99808701.94408        48.000    25434048.170 8 102412393.11008        48.250    25434049.467 8 101110545.53208        51.000
E27  23084721.821 8 121311079.96208        50.000    23084724.791 8  90589482.42508        53.250    23084721.080 9  92952668.05009        54.000    23084722.362 9  91771072.74309        56.750
E30  24029719.026 7 126277089.16007        44.000    24029721.807 7  94297870.48407        46.750    24029717.960 7  96757794.23707        47.000    24029719.415 8  95527828.86608        50.000
G05  25364211.410 6 133289846.77506        37.000    25364211.406 2        15.250    25364209.097 2 103862213.62902        15.250    25364210.003 5 103862202.64705        33.000
G10  24502739.306 6 128762780.98206        37.250    24502739.377 3        19.250    24502739.337 3 100334625.27503        19.250    24502739.208 6 100334620.25506        37.000    24502738.386 6  96154010.65806        41.500
G11  25321975.562 5 133067883.89405        32.500    25321975.223 1         9.500    25321972.614 1 103689247.66401         9.500
G12  24803535.108 6 130343458.43206        39.000    24803534.948 2        17.000    24803533.070 2 101566321.50302        17.000    24803533.497 5 101566321.52505        33.250
G13  20787339.858 8 109238260.93408        50.000    20787339.626 7        42.750    20787337.261 7  85120730.11407        42.750
G15  20440968.422 8 107418036.82708        52.500    20440968.462 7        47.000    20440965.764 7  83702366.39207        47.000    20440966.030 8  83702372.39208        49.500
G17  23460329.774 7 123284880.20307        44.250    23460329.649 5        30.250    23460327.627 5  96066128.83805        30.250    23460328.232 6  96066131.84706        40.000
G19  24602215.750 6 129285523.92806        37.750    24602214.870 3        21.250    24602212.735 3 100741952.18703        21.250
G20  22954813.673 6 120628366.85906        41.000    22954812.726 4        25.500    22954811.284 4  93996115.84004        25.500
G24  21523820.930 8 113108468.03308        48.750    21523820.895 6        41.000    21523821.090 6  88136467.58706        41.000    21523821.103 7  88136462.59407        46.500    21523822.610 8  84464120.31408        52.500
G28  22399748.203 7 117711506.58007        45.500    22399747.560 5        33.500    22399744.804 5  91723260.49105        33.500
G30  24610575.007 6 129329511.01106        38.750    24610574.578 3        21.000    24610575.249 3 100776281.07703        21.000    24610575.524 6 100776277.08306        36.000    24610577.020 7  96577278.53707        42.750
R03  24398482.354 5 130606991.20405        35.250    24398482.065 5 101583248.63105        34.500    24398482.334 5 101583242.65405        34.500
R04  20239218.110 8 108380099.84308        50.500    20239218.218 8  84295652.14308        48.750    20239218.182 8  84295666.14108        48.000
R05  19799442.879 8 105839375.26308        51.250    19799443.646 8  82319532.04108        50.000    19799443.456 8  82319521.04308        49.500
R06  23607186.328 5 125972466.99305        35.250
R13  22951748.965 5 122561125.55805        35.750    22951751.170 6  95325344.30406        37.750    22951751.074 6  95325347.30406        37.000
R14  19551305.373 8 104219515.81508        52.250    19551307.236 8  81059653.27908        51.250    19551307.333 8  81059639.28008        50.250
R15  19638070.003 8 104939932.15308        49.000    19638072.621 7  81619953.95507        42.500    19638073.843 7  81619957.95207        42.250
R22  23563350.521 6 125782765.40806        39.500    23563353.324 6  97831051.80806        40.500    23563353.001 6  97830986.80606        40.250
R23  22746041.452 7 121675993.69907        43.250    22746044.104 5  94636899.14305        35.250    22746044.142 5  94636824.13005        34.500
R24  24195754.898 5 129385565.23305        35.000
> 2018 11 06 19 29  0.0000000  0 37
C05  40263562.173 5 209662954.28105        34.500    40263558.925 6 162124688.99206        39.000
C10  40237142.207 6 209525385.31406        36.000    40237138.134 6 162018320.64506        39.250
C14  24656356.750 6 128392141.44906        39.750    24656353.382 7  99280937.88507        44.750
C18  41038991.032 5 213700830.89805        34.250
C19  25775021.199 6 134217304.89506        38.250
C24  21695457.714 8 112973988.69508        52.250
C25  25005752.032 6 130211523.38106        38.500
C26  22799344.237 8 118722220.09508        49.000
C29  25926506.982 6 135006138.32906        38.500
E07  26603709.028 6 139803464.79606        41.000    26603713.804 7 104398726.20707        44.000    26603709.819 7 107122153.60607        44.250    26603711.215 7 105760425.41007        47.000
E19  24710452.971 7 129854315.58207        43.250    24710454.317 7  96969144.51107        45.000    24710450.780 7  99498760.39307        45.250    24710451.885 8  98233957.45708        48.250
E20  22642371.349 7 118986469.04707        42.500
E21  25420764.867 7 133587032.13207        45.250    25420768.342 8  99756574.41208        48.250    25420764.623 8 102358905.73108        48.250    25420765.886 8 101057738.07808        51.250
E27  23085371.113 8 121314491.85608        50.250    23085374.064 8  90592030.26808        53.500    23085370.322 8  92955282.35908        53.750    23085371.623 9  91773653.81809        56.500
E30  24043361.338 7 126348780.74007        44.500    24043364.381 7  94351406.40107        47.000    24043360.713 7  96812726.73907        47.000    24043361.902 8  95582063.07708        50.000
G05  25385404.803 6 133401222.71706        37.000    25385404.865 2        15.500    25385403.394 2 103949000.07802        15.500    25385403.615 5 103948989.08205        32.000
G10  24487837.339 6 128684469.52506        36.500    24487837.383 3        19.750    24487837.472 3 100273603.35603        19.750    24487836.750 6 100273598.35206        37.000    24487836.204 6  96095531.31006        41.000
G11  25317389.368 5 133043784.66905        33.000    25317388.944 1         9.750    25317386.553 1 103670469.03101         9.750
G12  24780412.700 6 130221950.12706        38.000    24780412.464 3        18.250    24780410.954 3 101471639.68003        18.250    24780411.458 5 101471639.65005        33.000
G13  20798064.297 8 109294618.16708        50.000    20798064.061 7        42.750    20798061.724 7  85164644.82207        42.750
G15  20439737.713 8 107411569.63108        52.500    20439737.753 7        47.250    20439735.084 7  83697327.01207        47.250    20439735.326 8  83697333.01108        49.500
G17  23447990.229 7 123220035.73307        44.250    23447990.091 5        30.750    23447988.386 5  96015600.69705        30.750    23447988.083 6  96015603.69706        40.500
G19  24581729.852 6 129177866.29706        38.250    24581728.972 3        21.750    24581726.229 3 100658063.13503        21.750
G20  22950024.921 6 120603200.01206        40.000    22950023.982 4        25.750    22950022.275 4  93976505.31004        25.750
G24  21510420.177 8 113038047.34408        49.000    21510420.119 6        41.250    21510420.437 6  88081594.32906        41.250    21510420.303 7  88081589.33807        46.750    21510422.007 8  84411533.43808        52.500
G28  22413372.744 7 117783103.58307        45.000    22413372.096 5        33.500    22413369.319 5  91779050.36005        33.500
G30  24629276.048 6 129427787.29706        38.500    24629275.561 3        20.500    24629276.898 3 100852859.99803        20.500    24629277.422 6 100852855.99906        36.500    24629278.235 7  96650666.62007        42.000
R03  24424406.585 5 130745770.89205        35.250    24424407.929 5 101691188.42705        34.750    24424407.938 5 101691182.42905        34.000
R04  20256177.887 8 108470918.95108        50.250    20256178.117 8  84366289.20308        48.750    20256178.260 8  84366303.19908        48.000
R05  19793189.943 8 105805949.46508        51.000    19793190.735 8  82293534.19608        50.250    19793190.554 8  82293523.19408        50.000
R06  23583582.304 5 125846520.49205        34.000
R13  22972895.378 6 122674043.51906        36.250    22972896.771 6  95413169.37206        37.250    22972897.461 6  95413172.38906        37.000
R14  19559931.493 8 104265496.79708        52.250    19559933.090 8  81095416.26008        51.000    19559932.995 8  81095402.25708        50.000
R15  19630222.963 8 104898000.21908        49.250    19630225.750 7  81587340.23907        42.500    19630225.836 7  81587344.24507        42.500
R22  23573929.521 6 125839232.56206        39.750    23573930.433 6  97874970.70106        39.250    23573931.589 6  97874905.69606        39.250
R23  22735403.668 7 121619087.13507        43.500    22735405.792 5  94592638.49405        34.750    22735403.890 5  94592563.49605        35.000
R24  24173853.914 5 129268451.70305        35.250
> 2018 11 06 19 29 30.0000000  0 37
C05  40263302.259 5 209661600.50505        34.500    40263298.466 6 162123642.16606        39.000
C10  40242989.402 5 209555837.79205        35.750    40242986.198 6 162041868.45806        39.250
C14  24675737.742 6 128493060.86906        40.500    24675734.133 7  99358975.16207        45.250
C18  41045024.512 5 213732246.98605        34.250
C19  25758971.872 6 134133734.85506        38.250
C24  21691462.657 8 112953185.82108        52.250
C25  24989481.350 6 130126796.82906        38.500
C26  22810996.591 8 118782897.41408        49.500
C29  25930276.397 6 135025767.33006        38.750
E07  26620977.382 6 139894210.57506        39.500    26620982.217 7 104466490.87607        44.250    26620978.373 7 107191686.07207        43.750    26620979.593 7 105829073.98107        47.000
E19  24701774.612 7 129808711.02507        43.000    24701775.977 7  96935089.16107        45.000    24701772.580 7  99463816.65407        45.750    24701773.637 8  98199457.91408        48.250
E20  22648592.926 7 119019162.64607        42.500
E21  25407521.138 7 133517436.61607        45.250    25407524.742 8  99704603.74808        48.000    25407520.995 8 102305579.31008        48.250    25407522.317 8 101005089.53408        51.250
E27  23086080.731 8 121318221.15408        50.000    23086083.731 8  90594815.13508        53.500    23086079.967 9  92958139.87609        54.000    23086081.274 9  91776475.01009        56.750
E30  24057029.196 7 126420605.21407        43.750    24057031.973 7  94405041.54907        46.750    24057028.212 7  96867761.06707        47.000    24057029.631 8  95636397.81408        50.000
G05  25406585.254 6 133512526.42406        36.500    25406585.219 2        15.250    25406583.744 2 104035730.29302        15.250    25406583.561 5 104035719.28705        32.500
G10  24473011.483 6 128606559.76806        37.000    24473011.585 3        20.750    24473011.490 3 100212894.43403        20.750    24473011.776 6 100212889.44106        38.000    24473010.759 7  96037351.92807        42.000
G11  25312907.320 5 133020223.35805        32.500    25312906.891 1        10.000    25312903.032 1 103652109.58601        10.000
G12  24757301.529 6 130100499.38506        39.000    24757301.319 3        18.500    24757299.802 3 101377002.78903        18.500    24757299.803 5 101377002.80505        35.250
G13  20808872.962 8 109351416.94308        49.750    20808872.726 7        42.500    20808870.230 7  85208903.59307        42.500
G15  20438610.359 8 107405645.10508        52.250    20438610.394 7        47.000    20438607.690 7  83692710.49307        47.000    20438607.886 8  83692716.49108        49.750
G17  23435723.807 7 123155575.26107        44.000    23435723.700 5        30.000    23435722.099 5  95965371.77305        30.000    23435721.826 6  95965374.78206        40.000
G19  24561261.499 6 129070307.62006        37.750    24561260.614 3        21.500    24561258.571 3 100574251.22203        21.500
G20  22945347.610 6 120578620.35006        40.250    22945346.716 4        25.750    22945344.676 4  93957352.32004        25.750
G24  21497074.865 8 112967915.71208        48.500    21497074.798 6        41.250    21497074.808 6  88026946.31406        41.250    21497075.168 7  88026941.32007        46.500    21497076.441 8  84359162.42708        52.500
G28  22427058.636 7 117855024.14307        44.750    22427057.970 5        33.000    22427055.494 5  91835092.35605        33.000
G30  24647987.638 6 129526113.74906        38.250    24647987.182 3        20.500    24647988.278 3 100929477.99803        20.500    24647987.681 6 100929473.97606        36.000    24647989.551 7  96724092.21407        42.500
R03  24450331.763 6 130884557.14806        36.250    24450334.196 5 101799133.29505        35.000    24450334.831 5 101799127.33005        34.500
R04  20273249.599 8 108562337.28508        50.500    20273249.801 8  84437392.32808        48.750    20273249.786 8  84437406.32608        48.000
R05  19787083.239 8 105773305.45308        51.250    19787083.992 8  82268144.40308        50.250    19787084.204 8  82268133.39808        49.750    19787168.905 7  79337120.59617        46.250
R06  23560021.120 6 125720785.73406        36.000
R13  22994051.706 5 122787016.63405        35.500    22994053.046 6  95501037.36706        38.000    22994053.797 6  95501040.35506        37.750
R14  19568643.623 8 104311938.48008        52.000    19568645.447 8  81131537.57308        51.000    19568645.380 8  81131523.57408        50.250
R15  19622474.361 8 104856593.84508        49.250    19622476.943 7  81555135.28607        42.750    19622478.022 7  81555139.28207        42.500
R22  23584638.198 6 125896397.57206        38.750    23584640.456 6  97919432.37006        39.500    23584640.142 6  97919367.37506        40.000
R23  22724894.031 7 121562871.56707        43.000    22724897.184 5  94548915.31705        35.250    22724895.445 6  94548840.30406        36.250
R24  24151986.105 5 129151519.13305        35.750
> 2018 11 06 19 30  0.0000000  0 38
C05  40263043.037 5 209660245.05505        34.500    40263038.783 6 162122594.04006        38.750
C10  40248836.421 5 209586289.36605        34.750    40248834.087 6 162065415.51606        39.500
C14  24695144.178 6 128594120.40206        40.000    24695141.338 7  99437120.79507        44.750
C18  41051053.744 5 213763642.51405        34.250
C19  25742963.566 6 134050371.26406        38.250
C24  21687531.004 8 112932712.18808        52.250
C25  24973235.143 6 130042198.91806        38.750
C26  22822689.574 8 118843785.49108        49.250
C29  25934140.455 6 135045889.09806        39.250
E07  26638270.383 6 139985083.99806        41.000    26638274.930 7 104534350.88107        44.000    26638270.884 7 107261316.32907        43.750    26638272.292 7 105897819.11007        46.750
E19  24693158.869 7 129763434.68407        43.250    24693160.232 7  96901278.91207        44.750    24693156.727 7  99429124.38607        45.500    24693157.849 8  98165206.65408        48.250
E20  22654887.402 7 119052240.15607        42.750
E21  25394317.696 7 133448051.65707        45.500    25394321.213 8  99652790.32108        48.000    25394317.398 8 102252414.22508        48.250    25394318.770 8 100952600.27908        51.000
E27  23086850.732 8 121322267.18708        50.000    23086853.663 8  90597836.52208        53.250    23086849.919 9  92961240.08109        54.000    23086851.212 9  91779535.80709        56.500
E30  24070722.026 7 126492561.35907        44.000    24070725.031 7  94458775.02807        46.750    24070721.322 7  96922896.29107        47.250    24070722.401 8  95690832.16408        50.000
G05  25427750.859 6 133623755.82206        37.250    25427750.943 2        15.750    25427749.986 2 104122402.55102        15.750    25427750.327 5 104122391.53605        33.250
G10  24458262.750 6 128529054.12706        38.750    24458262.776 3        20.500    24458263.117 3 100152500.44503        20.500    24458262.155 6 100152495.45606        37.000    24458262.073 7  95979474.35407        42.500
G11  25308525.760 5 132997201.35205        32.250    25308525.340 1         8.250    25308521.995 1 103634170.38601         8.250
G12  24734200.868 6 129979108.65706        39.250    24734200.640 2        17.000    24734199.646 2 101282412.58902        17.000    24734200.175 5 101282412.59805        33.000
G13  20819765.194 8 109408656.32908        50.000    20819764.958 7        42.250    20819762.503 7  85253505.70207        42.250
G15  20437586.499 8 107400264.15108        52.500    20437586.543 7        47.000    20437583.756 7  83688517.53707        47.000    20437584.016 8  83688523.53308        49.500
G17  23423531.119 7 123091501.38107        43.750    23423531.003 4        29.500    23423528.731 4  95915444.08504        29.500    23423528.967 6  95915447.09006        39.500
G19  24540813.194 6 128962851.33106        38.000    24540812.278 3        20.500    24540810.060 3 100490519.06203        20.500
G20  22940781.686 6 120554628.76206        40.750    22940780.801 4        24.750    22940778.930 4  93938657.57704        24.750
G24  21483783.996 8 112898074.29308        49.000    21483783.929 6        41.000    21483784.408 6  87972524.43406        41.000    21483784.388 7  87972519.44407        46.500    21483786.027 8  84307008.12708        52.500
G28  22440805.718 7 117927266.12107        45.250    22440805.066 5        33.000    22440802.505 5  91891384.80105        33.000
G30  24666707.931 6 129624489.45606        38.750    24666707.520 3        21.000    24666708.229 3 101006134.37203        21.000    24666708.026 5 101006130.38505        35.750    24666709.566 7  96797554.58107        42.500
R03  24476259.951 5 131023345.98005        32.750    24476260.292 5 101907080.18605        31.000    24476261.527 5 101907074.20505        30.500
R04  20290432.998 8 108654351.58708        50.500    20290432.740 8  84508958.97708        48.500    20290432.743 7  84508972.97407        47.750
R05  19781122.884 8 105741445.15608        51.250    19781123.815 8  82243364.16908        50.000    19781123.892 8  82243353.16708        49.500
R06  23536500.155 6 125595266.12006        36.250
R13  23015218.288 5 122900043.42505        35.750    23015220.070 6  95588947.06806        38.000    23015220.011 6  95588950.05406        37.250
R14  19577442.183 8 104358838.29608        52.000    19577443.713 8  81168015.20508        51.000    19577443.796 8  81168001.20608        50.250
R15  19614824.402 8 104815713.27008        49.250    19614826.730 7  81523339.28707        42.500    19614827.209 7  81523343.29207        42.250
R16  24303085.033 5 129822752.69915        30.250
R22  23595477.741 6 125954257.50406        39.750    23595478.337 6  97964434.52606        37.750    23595479.151 6  97964369.51406        38.250
R23  22714514.342 7 121507349.87507        42.000    22714518.101 5  94505731.82405        35.250    22714517.194 6  94505656.79206        36.000
R24  24130154.538 5 129034772.07405        35.250
> 2018 11 06 19 30 30.0000000  0 38
C05  40262782.521 5 209658887.93605        35.000    40262777.788 6 162121544.63906        39.000
C10  40254684.915 5 209616739.77605        35.000    40254682.246 6 162088961.71406        40.250
C14  24714578.702 6 128695317.88106        40.250    24714575.529 7  99515373.10407        44.250
C18  41057079.300 5 213795017.43905        35.500
C19  25726994.585 6 133967216.69306        38.250
C24  21683662.390 8 112912567.67808        52.500
C25  24957013.435 6 129957730.25906        38.000
C26  22834422.932 8 118904883.25308        49.250
C29  25938099.682 6 135066503.08006        38.500
E07  26655586.396 6 140076083.76606        41.000    26655591.404 7 104602305.23507        43.750    26655587.663 7 107331043.41207        43.750    26655589.039 7 105966659.83107        46.750
E19  24684605.771 7 129718487.87807        43.250    24684607.095 7  96867714.73207        45.000    24684603.655 7  99394684.63507        45.750    24684604.753 8  98131204.69108        48.250
E20  22661254.915 7 119085701.29607        42.500
E21  25381154.392 7 133378877.80307        45.250    25381157.903 8  99601134.53808        48.000    25381154.024 8 102199410.90508        48.250    25381155.395 8 100900270.72708        51.250
E27  23087680.822 8 121326629.31308        50.250    23087683.714 8  90601093.95408        53.250    23087680.008 8  92964582.48908        53.750    23087681.293 9  91782835.72709        56.500
E30  24084439.524 7 126564647.97407        44.250    24084442.462 7  94512605.94007        46.750    24084438.629 7  96978131.49007        46.750    24084440.037 8  95745365.21808        49.750
G05  25448902.811 6 133734907.95006        36.500    25448902.812 2        15.000    25448901.074 2 104209014.61002        15.000    25448902.339 5 104209003.62005        32.000
G10  24443591.110 6 128451955.08406        36.500    24443591.084 3        19.750    24443591.062 3 100092423.26103        19.750    24443591.048 6 100092418.27006        36.750    24443590.401 7  95921900.40107        42.250
G11  25304246.220 5 132974719.86405        32.250    25304245.666 1         8.000    25304243.583 1 103616652.31901         8.000
G12  24711113.198 6 129857779.56006        40.500    24711112.903 3        20.750    24711111.675 3 101187870.44703        20.750    24711111.754 5 101187870.44505        35.500
G13  20830741.229 8 109466335.60008        49.750    20830740.993 7        42.250    20830738.423 7  85298450.57607        42.250
G15  20436666.000 8 107395427.32108        52.750    20436666.053 7        47.250    20436663.348 7  83684748.57307        47.250    20436663.757 8  83684754.56908        49.250
G17  23411412.263 7 123027816.60907        44.750    23411412.174 5        30.250    23411409.682 5  95865819.60605        30.250    23411410.424 6  95865822.61406        39.750
G19  24520385.215 6 128855500.71106        38.250    24520384.272 3        21.750    24520382.087 3 100406869.21903        21.750
G20  22936329.130 6 120531226.10906        40.250    22936328.259 4        25.000    22936325.275 4  93920421.73404        25.000
G24  21470548.796 8 112828523.13308        48.750    21470548.720 6        41.250    21470549.295 6  87918328.73006        41.250    21470549.325 7  87918323.73307        46.750    21470550.816 8  84255070.57708        52.250
G28  22454613.539 7 117999827.22307        45.250    22454612.891 5        33.000    22454610.316 5  91947925.92605        33.000
G30  24685436.936 6 129722913.59106        38.750    24685436.530 3        20.750    24685437.513 3 101082828.50203        20.750    24685437.782 6 101082824.49006        36.250    24685439.020 7  96871053.09107        42.750
R03  24502187.361 5 131162134.99405        34.000    24502188.227 5 102015027.30105        33.250    24502189.453 5 102015021.27305        32.500
R04  20307726.780 8 108746959.02208        50.500    20307726.642 8  84580986.95308        48.500    20307726.583 8  84581000.95208        48.250
R05  19775309.897 8 105710370.69308        51.250    19775310.701 8  82219195.13408        50.250    19775310.790 8  82219184.13608        49.750
R06  23513017.373 6 125469965.94106        36.000
R13  23036393.749 5 123013121.52605        34.500    23036395.873 6  95676896.71006        38.250    23036396.324 6  95676899.69506        37.250
R14  19586325.667 8 104406194.31108        51.750    19586327.718 8  81204847.66508        51.000    19586327.644 8  81204833.66708        50.500
R15  19607272.091 8 104775357.91808        49.250    19607274.669 7  81491951.80807        42.500    19607275.425 7  81491955.80407        42.250
R16  24281471.778 5 129707305.59005        31.500    24281474.343 5                        30.500
R22  23606446.224 6 126012809.70806        39.750    23606447.088 6  98009975.15806        38.500    23606448.070 6  98009910.16406        38.000
R23  22704266.159 7 121452525.27707        42.750    22704269.468 5  94463090.45605        35.000    22704269.291 5  94463015.43805        35.750
R24  24108358.225 6 128918215.20306        36.250
> 2018 11 06 19 31  0.0000000  0 38
C05  40262521.924 5 209657529.22705        34.500    40262517.285 6 162120494.00106        39.000
C10  40260532.675 5 209647188.85605        34.750    40260529.134 6 162112506.85606        39.500
C14  24734038.588 6 128796651.17806        39.750    24734035.229 7  99593730.40707        45.750
C18  41063101.043 5 213826371.72005        35.500
C19  25711065.824 6 133884273.79706        38.500
C24  21679857.045 8 112892752.18008        52.000
C25  24940817.764 6 129873391.44306        39.000
C26  22846195.990 8 118966189.62508        49.500
C29  25942152.370 6 135087608.72606        39.000
E07  26672927.039 6 140167208.65606        40.250    26672932.107 7 104670353.02207        43.750    26672928.052 7 107400866.36207        43.750    26672929.415 7 106035595.19507        46.750
E19  24676115.630 7 129673871.90707        43.250    24676116.989 7  96834397.61007        45.000    24676113.564 7  99360498.37007        45.250    24676114.622 8  98097452.99708        48.250
E20  22667695.157 7 119119545.76707        42.500
E21  25368031.251 7 133309915.57307        45.250    25368034.783 8  99549636.78908        48.000    25368031.143 8 102146569.73308        48.500    25368032.310 8 100848101.26608        51.250
E27  23088570.896 8 121331306.86608        50.250    23088573.844 8  90604586.93808        53.500    23088570.080 8  92968166.59508        53.750    23088571.400 9  91786374.27209        56.500
E30  24098181.653 7 126636863.85007        44.250    24098184.776 7  94566533.37107        47.000    24098180.996 7  97033465.72407        46.500    24098182.290 8  95799996.05408        49.750
G05  25470039.381 6 133845980.38406        36.250    25470039.412 2        14.750    25470037.740 2 104295564.60702        14.750    25470038.229 5 104295553.59405        32.500
G10  24428997.578 6 128375265.09306        37.750    24428997.645 3        20.250    24428997.000 3 100032664.80303        20.250    24428997.581 6 100032659.82706        37.000    24428996.539 7  95864631.90507        42.000
G11  25300071.387 5 132952780.14005        32.500    25300070.981 1         8.000    25300068.670 1 103599556.37701         8.000
G12  24688036.891 6 129736514.38506        36.500    24688036.587 2        17.000    24688035.889 2 101093378.14602        17.000    24688035.847 5 101093378.13105        32.750
G13  20841800.572 8 109524453.66808        50.000    20841800.340 7        42.250    20841797.984 7  85343737.37907        42.250
G15  20435849.033 8 107391134.95408        52.750    20435849.082 7        47.250    20435846.530 7  83681403.86707        47.250    20435846.877 8  83681409.86608        49.250
G17  23399368.004 7 122964523.37407        44.250    23399367.906 5        30.250    23399365.465 5  95816500.21505        30.250    23399365.873 6  95816503.22006        39.750
G19  24499978.390 6 128748258.88306        38.750    24499977.416 3        21.000    24499974.389 3 100323304.17203        21.000
G20  22931987.720 6 120508412.79306        40.000    22931986.862 4        24.750    22931984.308 4  93902645.12604        24.750
G24  21457369.291 8 112759264.19908        49.000    21457369.220 6        41.250    21457369.800 6  87864360.73906        41.250    21457369.802 7  87864355.75007        46.750    21457371.409 8  84203351.25708        52.750
G28  22468482.207 7 118072705.43607        45.000    22468481.581 5        32.750    22468478.705 5  92004714.14305        32.750
G30  24704175.711 6 129821385.21506        39.000    24704175.242 3        20.750    24704176.263 3 101159559.61103        20.750    24704176.639 6 101159555.59006        36.000    24704177.593 7  96944587.06007        42.500
R03  24528112.326 5 131300922.11005        30.500    24528114.699 5 102122972.89405        33.250    24528115.456 5 102122966.87705        32.500
R04  20325130.504 8 108840156.62808        50.500    20325130.796 8  84653473.94408        48.500    20325130.780 7  84653487.94607        47.750
R05  19769644.392 8 105680083.99908        51.250    19769644.941 8  82195638.81208        50.250    19769644.961 8  82195627.81108        50.000
R06  23489578.712 6 125344888.77106        36.000
R13  23057578.933 6 123126249.52606        36.000    23057580.860 6  95764885.12306        37.750    23057580.582 6  95764888.12606        38.000
R14  19595294.864 8 104454004.54808        51.750    19595296.702 8  81242033.40508        50.750    19595296.545 8  81242019.40908        50.250
R15  19599818.434 8 104735528.41108        49.000    19599821.288 7  81460973.31807        42.500    19599822.056 7  81460977.31507        42.250
R16  24259879.270 5 129591963.60105        31.500    24259880.743 5                        30.750
R22  23617543.727 6 126072051.55506        39.750    23617545.982 6  98056052.16506        39.500    23617545.766 6  98055987.14306        39.750
R23  22694148.214 7 121398400.66607        44.000    22694151.148 5  94420993.54305        35.000    22694150.611 6  94420918.55306        36.000
R24  24086597.620 5 128801852.58505        35.500
