     3.04           OBSERVATION DATA    M (MIXED)           RINEX VERSION / TYPE
GR50 V4.31          BKG/GOWettzell+LMI  20190927 095942 UTC PGM / RUN BY / DATE
gfzrnx-1.11-7513    FILE CONVERSION     20190927 110202 UTC COMMENT
SNR is mapped to RINEX snr flag value [1-9]                 COMMENT
LX:     < 12dBHz -> 1; 12-17dBHz -> 2; 18-23dBHz -> 3       COMMENT
       24-29dBHz -> 4; 30-35dBHz -> 5; 36-41dBHz -> 6       COMMENT
       42-47dBHz -> 7; 48-53dBHz -> 8; >= 54dBHz -> 9       COMMENT
REYK                                                        MARKER NAME
10202M001                                                   MARKER NUMBER
Automatic           BKG/GOWettzell+LMI                      OBSERVER / AGENCY
1830137             LEICA GR50          4.31/7.403          REC # / TYPE / VERS
725281              LEIAR25.R4      LEIT                    ANT # / TYPE
  2587384.4105 -1043033.8325  5716563.9240                  APPROX POSITION XYZ
        0.0635        0.0000        0.0000                  ANTENNA: DELTA H/E/N
DBHZ                                                        SIGNAL STRENGTH UNIT
     0                                                      RCV CLOCK OFFS APPL
G L2S -0.25000                                              SYS / PHASE SHIFT
R L2P  0.25000                                              SYS / PHASE SHIFT
E L8Q -0.25000                                              SYS / PHASE SHIFT
 24 R01  1 R02 -4 R03  5 R04  6 R05  1 R06 -4 R07  5 R08  6 GLONASS SLOT / FRQ #
    R09 -2 R10 -7 R11  0 R12 -1 R13 -2 R14 -7 R15  0 R16 -1 GLONASS SLOT / FRQ #
    R17  4 R18 -3 R19  3 R20  2 R21  4 R22 -3 R23  3 R24  2 GLONASS SLOT / FRQ #
 C1C  -71.940 C1P  -71.940 C2C  -71.940 C2P  -71.940        GLONASS COD/PHS/BIS
    18    18  1929     7                                    LEAP SECONDS
C    8 C2I C7I D2I D7I L2I L7I S2I S7I                      SYS / # / OBS TYPES
E   16 C1C C5Q C7Q C8Q D1C D5Q D7Q D8Q L1C L5Q L7Q L8Q S1C  SYS / # / OBS TYPES
       S5Q S7Q S8Q                                          SYS / # / OBS TYPES
G   16 C1C C2S C2W C5Q D1C D2S D2W D5Q L1C L2S L2W L5Q S1C  SYS / # / OBS TYPES
       S2S S2W S5Q                                          SYS / # / OBS TYPES
I    4 C5A D5A L5A S5A                                      SYS / # / OBS TYPES
R   12 C1C C2C C2P D1C D2C D2P L1C L2C L2P S1C S2C S2P      SYS / # / OBS TYPES
S    4 C1C D1C L1C S1C                                      SYS / # / OBS TYPES
    49                                                      # OF SATELLITES
   C06   120   120   120   120   120   120   120   120      PRN / # OF OBS
   C09   120   120   120   120   120   120   120   120      PRN / # OF OBS
   C11   120   120   120   120   120   120   120   120      PRN / # OF OBS
   C16   120   120   120   120   120   120   120   120      PRN / # OF OBS
   C21   120         120         120         120            PRN / # OF OBS
   C22   117         117         116         117            PRN / # OF OBS
   C23    68          68          68          68            PRN / # OF OBS
   C27    10          10          10          10            PRN / # OF OBS
   C28   120         120         120         120            PRN / # OF OBS
   E01   120   120   120   120   120   120   120   120   120PRN / # OF OBS
         120   120   120   120   120   120   120            PRN / # OF OBS
   E03   120   120   120   120   120   120   120   120   120PRN / # OF OBS
         120   120   120   120   120   120   120            PRN / # OF OBS
   E05   120   120   120   120   120   120   120   120   120PRN / # OF OBS
         120   120   120   120   120   120   120            PRN / # OF OBS
   E07     7     7     7     7     7     7     7     7     7PRN / # OF OBS
           7     7     7     7     7     7     7            PRN / # OF OBS
   E08   120   120   120   120   120   120   120   120   120PRN / # OF OBS
         120   120   120   120   120   120   120            PRN / # OF OBS
   E13   120   120   120   120   120   120   120   120   120PRN / # OF OBS
         120   120   120   120   120   120   120            PRN / # OF OBS
   E15   120   120   120   120   120   120   120   120   120PRN / # OF OBS
         120   120   120   120   120   120   120            PRN / # OF OBS
   E18   120   120   120   120   120   120   120   120   120PRN / # OF OBS
         120   120   120   120   120   120   120            PRN / # OF OBS
   E21   120   120   120   120   120   120   120   120   120PRN / # OF OBS
         120   120   120   120   120   120   120            PRN / # OF OBS
   E26   120   120   120   120   120   120   120   120   120PRN / # OF OBS
         120   120   120   120   120   120   120            PRN / # OF OBS
   E31   120   120   120   120   120   120   120   120   120PRN / # OF OBS
         120   120   120   120   120   120   120            PRN / # OF OBS
   E33     2     3     3     4     2     3     3     4     2PRN / # OF OBS
           3     3     4     2     3     3     4            PRN / # OF OBS
   G01   120   120   120   120   120   120   120   120   120PRN / # OF OBS
         120   120   120   120   120   120   120            PRN / # OF OBS
   G03   120   120   120   120   120   120   120   120   120PRN / # OF OBS
         120   120   120   120   120   120   120            PRN / # OF OBS
   G08   120   120   120   120   120   120   120   120   120PRN / # OF OBS
         120   120   120   120   120   120   120            PRN / # OF OBS
   G10   117   117   117   117   117   117   117   117   117PRN / # OF OBS
         117   117   117   117   117   117   117            PRN / # OF OBS
   G11   120         120         120         120         120PRN / # OF OBS
               120         120         120                  PRN / # OF OBS
   G14   120         120         120         120         120PRN / # OF OBS
               120         120         120                  PRN / # OF OBS
   G17   120   120   120         120   120   120         120PRN / # OF OBS
         120   120         120   120   120                  PRN / # OF OBS
   G18   120         120         120         120         120PRN / # OF OBS
               120         120         120                  PRN / # OF OBS
   G19    92          92          92          92          92PRN / # OF OBS
                92          92          92                  PRN / # OF OBS
   G22   120         120         120         120         120PRN / # OF OBS
               120         120         120                  PRN / # OF OBS
   G24   120   120   120   120   120   120   120   120   120PRN / # OF OBS
         120   120   120   120   120   120   120            PRN / # OF OBS
   G27    38    38    37    37    38    38    37    37    38PRN / # OF OBS
          38    37    37    38    38    37    37            PRN / # OF OBS
   G28   120         120         120         120         120PRN / # OF OBS
               120         120         120                  PRN / # OF OBS
   G30     8     8     8     8     8     8     8     8     8PRN / # OF OBS
           8     8     8     8     8     8     8            PRN / # OF OBS
   G32   120   120   120   120   120   120   120   120   120PRN / # OF OBS
         120   120   120   120   120   120   120            PRN / # OF OBS
   I06   119   119    72   119                              PRN / # OF OBS
   R03    91    90    91    91    90    91    91    89    90PRN / # OF OBS
          91    90    91                                    PRN / # OF OBS
   R05   120   120   120   120   120   120   120   120   120PRN / # OF OBS
         120   120   120                                    PRN / # OF OBS
   R06    60                60                60            PRN / # OF OBS
          60                                                PRN / # OF OBS
   R11   120   120   120   120   120   120   120   120   120PRN / # OF OBS
         120   120   120                                    PRN / # OF OBS
   R12   120   120   120   120   120   120   120   120   120PRN / # OF OBS
         120   120   120                                    PRN / # OF OBS
   R13    77    70    72    77    70    72    77    68    71PRN / # OF OBS
          77    70    72                                    PRN / # OF OBS
   R19    94    94    94    94    94    94    92    92    92PRN / # OF OBS
          94    94    94                                    PRN / # OF OBS
   R20   120   120   120   120   120   120   120   120   120PRN / # OF OBS
         120   120   120                                    PRN / # OF OBS
   R21   120   120   120   120   120   120   120   120   120PRN / # OF OBS
         120   120   120                                    PRN / # OF OBS
   R22    50    50    50    50    50    50    50    50    50PRN / # OF OBS
          50    50    50                                    PRN / # OF OBS
   S23   120   120   120   120                              PRN / # OF OBS
   S36   120   120   120   120                              PRN / # OF OBS
    30.000                                                  INTERVAL
  2019     9    27    10     0    0.0000000     GPS         TIME OF FIRST OBS
  2019     9    27    10    59   30.0000000     GPS         TIME OF LAST OBS
                                                            END OF HEADER
> 2019 09 27 10 00 00.0000000  0 42
C06  39266633.891    39266628.804        -109.319         -84.593   204471670.07007 158110458.91307        44.750          43.600
C09  39039513.405    39039511.629         852.858         659.387   203289010.45107 157195962.32807        44.800          44.850
C11  21916950.651    21916948.076       -1155.263        -893.272   114127333.35208  88250485.94108        49.650          52.250
C16  39133473.461    39133473.711          88.736          68.542   203778272.34407 157574295.84807        46.750          43.950
C21  22976455.210                         478.927                   119644455.50308                        51.700
C22  25098761.472                       -2464.142                   130695844.26708                        49.750
C23  26189351.542                       -3140.748                   136374811.81907                        45.250
C28  24429393.631                        2981.715                   127210260.39207                        47.850
E01  25400852.617    25400854.030    25400852.714    25400852.817        -141.706        -105.814        -108.563        -107.187   133482377.52148  99678409.80308 102278703.69108 100978555.17908        51.450          50.700          50.600          53.900
E03  25747702.956    25747705.451    25747704.216    25747704.949        1301.991         972.296         997.591         984.992   135305115.88448 101039555.66107 103675359.08008 102357454.80208        51.150          47.850          48.950          51.850
E05  26834238.308    26834240.915    26834239.343    26834239.799       -1469.900       -1097.621       -1126.290       -1111.953   141014882.34948 105303337.38407 108050374.27407 106676855.26008        49.200          47.250          47.150          50.650
E08  25618674.144    25618676.162    25618674.553    25618675.174        3158.453        2358.588        2420.006        2389.337   134627051.39047 100533202.59207 103155801.15407 101844500.30907        44.900          42.950          43.100          46.450
E13  23229087.655    23229088.871    23229087.484    23229087.872         390.865         291.878         299.545         295.726   122069677.50148  91155953.13408  93533933.65808  92344940.82709        53.950          53.900          53.900          57.300
E15  24785348.570    24785351.405    24785350.141    24785350.433       -2265.801       -1692.034       -1736.168       -1714.087   130247896.19248  97263056.81908  99800349.22308  98531702.45309        53.150          50.750          51.650          54.550
E18  17806162.548    17806163.605    17806162.267    17806162.523       -2028.967       -1515.110       -1554.657       -1534.867    93572015.31049  69875207.78809  71698032.99809  70786617.82309        56.250          56.600          56.750          60.000
E21  26298768.784    26298771.215    26298769.890    26298770.199       -2760.938       -2061.730       -2115.577       -2088.602   138200952.22648 103202013.36708 105894233.79908 104548122.01008        50.950          48.250          49.100          52.000
E26  24884980.418    24884983.791    24884982.402    24884982.690        2681.401        2002.342        2054.565        2028.477   130771451.11648  97654019.95308 100201514.78908  98927766.30308        49.250          48.400          48.700          51.900
E31  27552869.995    27552873.142    27552871.914    27552872.106        2425.125        1811.075        1858.278        1834.749   144791308.98947 108123397.19507 110944001.07207 109533696.56207        46.550          43.100          43.700          46.750
G01  20526252.493    20526254.002    20526253.893    20526252.256        1551.516        1208.974        1208.974        1158.553   107866192.40909  84051594.91508  84051598.90908  80549450.28609        54.000          51.700          49.800          56.100
G03  24790445.542    24790447.475    24790446.794    24790447.725        4020.952        3133.212        3133.213        3002.608   130274671.61907 101512742.47706 101512739.47906  97283044.73506        44.050          41.250          39.050          41.900
G08  21909591.916    21909593.824    21909593.064    21909591.830       -2803.168       -2184.289       -2184.289       -2093.276   115135679.56508  89716123.69308  89716120.68708  85977932.99008        53.550          49.950          48.050          53.350
G10  23271983.349    23271984.780    23271984.705    23271982.496       -2751.001       -2143.639       -2143.638       -2054.212   122295106.49907  95294898.17707  95294881.17707  91324275.02108        47.400          47.950          44.600          50.250
G11  20182171.481                    20182168.741                         708.563                         552.127                   106058033.73608                  82642616.51708                        51.450                          48.950
G14  25036551.579                    25036551.028                        3065.456                        2388.673                   131567973.76307                 102520498.33306                        42.200                          36.650
G17  24564622.781    24564621.639    24564621.336                        3405.206        2653.407        2653.407                   129087961.65108 100588017.62707 100588010.62706                        51.250          43.000          40.250
G18  19912259.811                    19912258.619                        -241.988                        -188.562                   104639671.60408                  81537378.53708                        52.900                          48.150
G22  23192405.812                    23192401.808                        3240.436                        2525.016                   121876929.24508                  94969025.58007                        50.750                          42.300
G24  24551577.029    24551579.644    24551579.087    24551579.230        1719.541        1339.901        1339.903        1284.183   129019408.18507 100534624.98607 100534603.97806  96345675.25807        45.800          42.800          40.050          44.700
G27  25046717.997    25046720.410    25046719.848    25046719.822       -3866.910       -3013.177       -3013.176       -2887.518   131621372.50707 102562109.35506 102562102.35706  98288683.56507        46.850          40.700          37.950          45.300
G28  21843695.301                    21843692.756                         673.338                         524.678                   114789398.05308                  89446274.87807                        50.800                          44.500
G30  25566120.646    25566122.361    25566121.738    25566121.623       -3334.749       -2598.507       -2598.506       -2490.124   134350865.65107 104688986.81706 104688963.82006 100326932.83307        43.400          40.050          38.750          42.250
G32  23723405.189    23723406.866    23723406.410    23723404.568        2223.195        1732.358        1732.360        1660.106   124667345.67908  97143397.44106  97143397.44406  93095755.95907        50.050          41.150          39.500          46.250
I06  41072385.202          35.878                          29.550
R03  22625707.766    22625706.880    22625706.658       -3452.189       -2685.039       -2685.037   121117202.61608  94202264.52807  94202268.53807        48.600          42.800          42.650
R05  21902991.578    21902993.289    21902993.317        3944.530        3067.968        3067.969   117084065.20208  91065396.41007  91065396.41107        50.100          46.550          45.850
R11  21044789.411    21044790.713    21044790.725       -1403.434       -1091.560       -1091.561   112456983.89508  87466547.72208  87466546.71407        52.850          48.200          47.600
R12  22021208.885    22021210.632    22021210.646        2418.574        1881.111        1881.113   117633347.27107  91492632.09207  91492639.08607        46.800          44.400          43.800
R19  22472965.770    22472966.148    22472965.796       -3889.760       -3025.368       -3025.368   120215206.53106  93500722.40706  93500718.40606        38.050          41.500          40.650
R20  19319322.103    19319324.785    19319323.712        -579.318        -450.581        -450.581   103309106.64607  80351531.89308  80351529.89208        47.200          48.600          48.850
R21  21246758.459    21246758.572    21246758.616        3386.079        2633.618        2633.618   113695696.68208  88429984.43207  88429990.43107        52.100          47.950          47.400
S23  40948880.224           -.462   215187812.75807        44.200
S36  40095488.629           3.836   210703203.98006        41.300
> 2019 09 27 10 00 30.0000000  0 42
C06  39267280.276    39267275.172        -114.451         -88.608   204475035.84707 158113061.55707        45.250          43.500
C09  39034616.647    39034614.719         847.674         655.440   203263511.28607 157176244.76507        44.950          44.850
C11  21923643.994    21923641.546       -1168.093        -903.209   114162188.37908  88277438.04008        49.750          52.400
C16  39132980.945    39132981.292          82.736          64.003   203775707.73107 157572312.73507        46.750          44.050
C21  22973748.300                         461.231                   119630359.73608                        51.850
C22  25112992.244                       -2475.697                   130769947.18608                        50.100
C23  26207461.927                       -3145.939                   136469118.23507                        45.900
C28  24412232.637                        2976.228                   127120898.19808                        48.550
E01  25401707.339    25401708.753    25401707.441    25401707.525        -157.244        -117.488        -120.528        -119.013   133486869.04948  99681763.86808 102282145.25308 100981952.99108        51.000          50.300          50.500          53.400
E03  25740311.208    25740313.640    25740312.252    25740312.785        1288.136         961.911         987.019         974.476   135266270.25548 101010547.58408 103645594.26308 102328068.35608        52.200          48.050          49.450          51.750
E05  26842667.824    26842670.424    26842668.820    26842669.300       -1482.961       -1107.341       -1136.259       -1121.782   141059179.65148 105336416.52107 108084316.34507 106710365.86108        49.100          46.600          47.000          49.900
E08  25600654.389    25600656.545    25600654.889    25600655.503        3155.029        2356.013        2417.417        2386.717   134532357.62947 100462489.77807 103083243.63007 101772865.13707        45.950          43.500          43.250          46.400
E13  23226888.058    23226889.200    23226887.820    23226888.210         380.198         283.887         291.298         287.601   122058118.18648  91147321.17508  93525076.52308  92336196.27909        53.650          53.550          53.900          56.800
E15  24798303.594    24798306.421    24798305.190    24798305.447       -2272.346       -1696.898       -1741.123       -1719.017   130315975.14448  97313894.97008  99852513.58308  98583203.71008        52.400          50.300          51.600          53.950
E18  17817887.567    17817888.615    17817887.285    17817887.526       -2078.298       -1551.992       -1592.470       -1572.251    93633630.51649  69921219.13809  71745244.64509  70833229.32409        55.900          56.300          56.800          59.600
E21  26314555.280    26314557.664    26314556.401    26314556.765       -2769.175       -2067.922       -2121.927       -2094.916   138283910.97848 103263963.05207 105957799.56708 104610879.73908        50.100          47.800          49.100          51.500
E26  24869686.381    24869689.768    24869688.603    24869688.818        2677.043        1999.029        2051.197        2025.092   130691081.14248  97594003.42908 100139932.62408  98866966.95908        49.400          48.000          48.800          51.500
E31  27539053.151    27539056.217    27539054.847    27539055.174        2415.709        1803.840        1850.878        1827.524   144718700.95847 108069176.95307 110888366.36507 109478769.08207        45.900          42.750          43.850          46.400
G01  20517445.960    20517447.523    20517447.403    20517445.747        1534.013        1195.330        1195.330        1145.588   107819913.99308  84015533.79308  84015537.78708  80514891.72609        53.600          52.250          50.750          55.850
G03  24767497.746    24767499.929    24767499.332    24767499.276        4018.588        3131.365        3131.365        3001.166   130154080.39607 101418775.35107 101418772.34907  97192992.83807        44.800          44.300          42.700          42.200
G08  21925628.565    21925630.369    21925629.673    21925628.275       -2814.586       -2193.190       -2193.190       -2101.780   115219951.70608  89781790.24908  89781787.24108  86040863.45808        53.800          50.750          48.700          52.750
G10  23287725.186    23287726.578    23287726.428    23287724.463       -2763.696       -2153.539       -2153.540       -2063.726   122377830.39807  95359358.32508  95359341.31607  91386049.31408        44.950          48.600          44.850          49.900
G11  20178181.921                    20178179.205                         689.440                         537.221                   106037068.54908                  82626279.98708                        51.150                          49.800
G14  25019070.508                    25019069.908                        3059.020                        2383.647                   131476109.97507                 102448916.18206                        44.100                          36.050
G17  24545193.049    24545191.741    24545191.364                        3402.272        2651.117        2651.117                   128985856.73008 100508455.32507 100508448.32706                        49.950          42.200          39.600
G18  19913700.163                    19913698.954                        -262.163                        -204.288                   104647240.63408                  81543276.45808                        52.700                          48.800
G22  23173933.371                    23173929.400                        3231.428                        2517.991                   121779856.67208                  94893384.61707                        50.600                          43.800
G24  24541810.291    24541812.695    24541812.228    24541812.478        1702.754        1326.816        1326.814        1271.275   128968083.31607 100494631.57507 100494610.56106  96307348.29607        45.400          43.350          40.950          44.300
G27  25068799.203    25068801.377    25068800.768    25068800.903       -3868.426       -3014.368       -3014.367       -2888.749   131737409.15707 102652527.42806 102652520.42206  98375334.22207        45.600          41.600          39.300          44.600
G28  21839903.029                    21839900.432                         655.719                         510.944                   114769469.22608                  89430745.90307                        50.900                          44.300
G30  25585167.854    25585169.419    25585168.847    25585168.994       -3337.914       -2600.976       -2600.977       -2492.573   134450958.84607 104766981.55606 104766958.54506 100401677.78407        46.600          38.050          36.550          44.100
G32  23710756.531    23710757.897    23710757.157    23710756.853        2208.467        1720.877        1720.878        1649.200   124600878.32208  97091604.68706  97091604.68006  93046121.31507        50.150          41.900          39.800          46.000
I06  41072113.957          35.555                          28.850
R03  22645102.172    22645101.227    22645101.023       -3468.687       -2697.874       -2697.874   121221022.33108  94283013.14006  94283017.15006        48.750          41.550          41.650
R05  21880894.484    21880896.154    21880896.197        3930.512        3057.062        3057.062   116965943.96608  90973524.34907  90973524.35007        49.100          45.550          45.300
R11  21052744.496    21052745.651    21052745.648       -1430.126       -1112.326       -1112.325   112499493.19108  87499610.47907  87499609.47907        52.950          47.400          46.700
R12  22007689.088    22007692.633    22007692.646        2395.770        1863.371        1863.371   117561136.95907  91436468.48807  91436475.47707        45.400          44.350          43.300
R19  22494801.260    22494801.571    22494801.243       -3896.275       -3030.441       -3030.441   120332011.37806  93591570.56406  93591566.55606        38.750          40.400          40.000
R20  19322629.658    19322632.291    19322631.217        -599.414        -466.216        -466.216   103326793.61807  80365288.40208  80365286.39908        46.850          48.000          48.050
R21  21227805.463    21227805.664    21227805.670        3375.754        2625.581        2625.582   113594275.90508  88351101.58007  88351107.58007        51.050          47.200          46.750
S23  40948882.983           -.119   215187829.47207        43.900
S36  40095467.559           4.176   210703094.69306        40.800
> 2019 09 27 10 01 00.0000000  0 42
C06  39267958.374    39267953.237        -120.323         -93.016   204478566.51607 158115791.68407        45.600          43.500
C09  39029751.443    39029749.229         841.817         650.975   203238175.06507 157156653.19907        46.100          44.950
C11  21930413.013    21930410.601       -1181.680        -913.720   114197437.02908  88304694.54308        49.850          51.900
C16  39132523.054    39132523.574          76.457          59.058   203773323.58507 157570469.15007        47.050          43.800
C21  22971144.330                         442.902                   119616800.28508                        52.100
C22  25127291.279                       -2487.957                   130844405.60608                        50.850
C23  26225603.845                       -3151.678                   136563587.81807                        46.600
C28  24395104.313                        2970.121                   127031706.28108                        48.900
E01  25402652.254    25402653.752    25402652.348    25402652.515        -173.513        -129.569        -132.958        -131.229   133491834.96148  99685472.17008 102285950.29708 100985709.66208        51.200          50.800          50.150          52.950
E03  25732999.032    25733001.328    25733000.063    25733000.265        1273.899         951.318         976.095         963.722   135227842.84148 100981851.79208 103616149.89308 102298998.27408        51.400          48.450          49.250          51.350
E05  26851172.750    26851175.267    26851173.710    26851174.223       -1496.399       -1117.526       -1146.665       -1132.059   141103873.42648 105369791.74707 108118562.22607 106744176.41408        49.300          47.050          46.400          49.300
E08  25582655.321    25582657.432    25582655.686    25582656.267        3150.910        2353.110        2414.397        2383.827   134437771.94347 100391857.64607 103010768.91207 101701311.70707        46.400          43.600          42.900          45.850
E13  23224750.675    23224751.798    23224750.421    23224750.813         368.881         275.439         282.668         279.052   122046886.04848  91138933.53608  93516470.07308  92327699.23609        53.700          53.950          53.650          56.250
E15  24811296.604    24811299.617    24811298.440    24811298.626       -2279.393       -1702.152       -1746.570       -1724.390   130384254.78148  97364882.97508  99904831.71708  98634856.78008        52.000          50.600          51.150          53.350
E18  17829895.011    17829896.032    17829894.725    17829894.944       -2128.042       -1589.109       -1630.605       -1609.849    93696729.83949  69968338.74909  71793593.46909  70880963.54009        55.900          56.700          56.450          59.050
E21  26330390.059    26330392.436    26330391.316    26330391.547       -2778.054       -2074.551       -2128.590       -2101.553   138367123.34348 103326102.12607 106021559.64608 104673829.31708        50.250          47.700          48.650          50.750
E26  24854419.392    24854422.853    24854421.514    24854421.875        2671.830        1995.246        2047.212        2021.192   130610852.84148  97534092.69708 100078459.00308  98806274.78408        49.250          48.750          48.100          50.950
E31  27525291.700    27525294.716    27525293.709    27525293.864        2405.651        1796.279        1843.186        1819.807   144646384.81147 108015174.68007 110832955.34707 109424062.43907        44.900          43.100          44.000          46.150
G01  20508739.865    20508741.390    20508741.265    20508739.619        1516.171        1181.433        1181.433        1132.207   107774162.96409  83979883.65508  83979887.65208  80480727.00109        54.000          51.250          49.450          56.250
G03  24744562.629    24744564.990    24744564.423    24744564.071        4016.441        3129.698        3129.697        2999.177   130033555.43707 101324859.87907 101324856.87306  97102990.46907        46.150          42.950          40.700          45.300
G08  21941730.907    21941732.570    21941731.846    21941730.398       -2826.285       -2202.299       -2202.299       -2110.618   115304568.99808  89847725.79308  89847722.78208  86104051.67308        53.550          49.600          48.100          53.050
G10  23303540.757    23303542.003    23303542.025    23303539.771       -2776.779       -2163.726       -2163.726       -2073.555   122460940.48307  95424119.43307  95424102.43507  91448112.03908        44.000          46.950          44.500          50.300
G11  20174303.110                    20174300.423                         669.705                         521.850                   106016685.44508                  82610397.06208                        51.200                          48.650
G14  25001625.810                    25001624.933                        3052.403                        2378.497                   131384437.29107                 102377482.99506                        43.850                          36.400
G17  24525781.500    24525780.061    24525779.646                        3398.638        2648.290        2648.291                   128883848.22408 100428968.20206 100428961.19906                        49.150          39.400          37.800
G18  19915256.883                    19915255.673                        -282.977                        -220.501                   104655421.20808                  81549650.94407                        52.950                          47.600
G22  23155514.630                    23155510.795                        3221.590                        2510.331                   121683066.13108                  94817963.46107                        50.300                          42.250
G24  24532143.251    24532145.649    24532145.244    24532145.431        1684.616        1312.689        1312.689        1257.929   128917282.47207 100455046.52406 100455025.52106  96269412.60207        45.100          41.900          39.850          44.850
G27  25090890.622    25090892.837    25090892.207    25090892.255       -3870.941       -3016.320       -3016.321       -2890.345   131853499.64307 102742987.49206 102742980.48506  98462025.06407        45.700          41.150          39.750          44.200
G28  21836212.478                    21836209.839                         637.495                         496.751                   114750074.89208                  89415633.45307                        51.400                          43.850
G30  25604233.985    25604235.625    25604235.047    25604235.274       -3341.476       -2603.744       -2603.743       -2495.287   134551152.12907 104845054.15706 104845031.15105 100476497.43506        46.600          36.400          34.150          39.800
G32  23698193.281    23698194.724    23698194.043    23698193.319        2193.076        1708.893        1708.892        1637.772   124534856.93808  97040159.48107  97040159.47606  92996819.65607        51.000          43.050          40.700          44.850
I06  41071841.768          35.738   161174729.57105        30.250
R03  22664589.230    22664588.210    22664588.100       -3485.494       -2710.940       -2710.940   121325337.92908  94364147.47007  94364151.47307        48.750          42.200          42.050
R05  21858877.381    21858879.185    21858879.256        3915.888        3045.693        3045.693   116848250.40908  90881984.97607  90881984.97307        50.000          45.700          45.600
R11  21060849.933    21060851.246    21060851.162       -1457.178       -1133.358       -1133.359   112542806.64708  87533298.74007  87533297.73407        52.300          47.650          47.250
R12  21994300.077    21994304.858    21994304.900        2372.323        1845.140        1845.138   117489621.52907  91380845.35807  91380852.35707        47.100          44.900          43.800
R19  22516673.377    22516673.686    22516673.421       -3903.263       -3035.871       -3035.871   120449012.10706  93682571.08706  93682567.08906        39.300          40.350          39.750
R20  19326050.891    19326053.598    19326052.519        -619.930        -482.167        -482.167   103345088.72207  80379517.95008  80379515.94808        46.800          48.200          48.350
R21  21208911.797    21208912.152    21208912.193        3364.667        2616.966        2616.966   113493172.99708  88272466.02207  88272472.01207        51.350          47.300          46.800
S23  40948886.083           -.537   215187845.66607        44.000
S36  40095446.469           3.312   210702984.88406        41.000
> 2019 09 27 10 01 30.0000000  0 41
C06  39268667.480    39268662.369        -125.722         -97.543   204482258.92307 158118646.90107        45.550          43.400
C09  39024917.098    39024914.562         836.308         646.618   203212998.83507 157137185.33107        46.600          45.450
C11  21937256.966    21937254.568       -1194.703        -923.853   114233075.63508  88332252.55708        49.800          52.250
C16  39132099.248    39132099.844          70.469          54.402   203771116.60407 157568762.57907        47.200          44.050
C21  22968642.821                         425.133                   119603774.33408                        52.000
C22  25141657.605                       -2499.637                   130919214.27308                        50.700
C23  26243776.125                       -3157.128                   136658214.88607                        45.550
C28  24378008.482                        2964.473                   126942682.84608                        49.600
E01  25403686.864    25403688.407    25403686.908    25403687.157        -189.296        -141.364        -145.075        -143.220   133497272.00248  99689532.29208 102290116.33608 100989822.74708        51.600          50.800          50.400          52.800
E03  25725765.382    25725767.904    25725766.843    25725766.989        1259.999         940.804         965.310         953.072   135189831.43348 100953466.68008 103587024.30008 102270242.92008        50.250          48.350          49.400          51.100
E05  26859752.268    26859754.870    26859753.361    26859753.803       -1509.604       -1127.318       -1156.684       -1142.002   141148959.25548 105403459.70807 108153108.48407 106778283.52908        49.250          47.100          47.250          49.350
E08  25564676.461    25564678.749    25564677.150    25564677.521        3147.272        2350.252        2411.500        2380.840   134343292.96647 100321305.24107 102938376.01407 101629839.05807        46.350          43.250          43.500          45.550
E13  23222674.938    23222676.079    23222674.690    23222675.084         358.061         267.292         274.247         270.788   122035978.00048  91130787.91908  93508111.96308  92319447.37309        53.950          53.900          53.850          56.100
E15  24824327.136    24824330.225    24824329.030    24824329.231       -2286.106       -1707.172       -1751.705       -1729.453   130452731.05748  97416017.83208  99957300.52708  98686658.61208        52.150          50.600          51.300          53.150
E18  17842183.264    17842184.262    17842182.979    17842183.174       -2177.190       -1625.895       -1668.311       -1647.085    93761304.81549  70016560.31109  71843072.98309  70929814.07809        56.100          56.650          56.750          58.850
E21  26346272.160    26346274.591    26346273.431    26346273.632       -2786.291       -2080.764       -2135.143       -2107.954   138450584.32848 103388426.84007 106085510.24308 104736966.97308        50.350          47.950          48.900          50.600
E26  24839178.918    24839182.422    24839181.014    24839181.373        2667.133        1991.554        2043.531        2017.535   130530763.78348  97474285.95408 100017092.07308  98745687.94408        50.000          48.650          48.500          50.700
E31  27511585.340    27511588.633    27511587.549    27511587.891        2395.716        1789.057        1835.669        1812.345   144574359.02347 107961389.22807 110777766.79907 109369575.44707        45.050          43.550          44.100          46.050
G01  20500133.770    20500135.182    20500135.067    20500133.433        1498.626        1167.760        1167.759        1119.009   107728937.11709  83944642.73908  83944646.73308  80446954.45309        54.300          51.900          50.150          56.200
G03  24721640.168    24721642.324    24721641.701    24721641.584        4013.946        3127.749        3127.750        2997.348   129913095.98807 101230995.41007 101230992.40806  97013037.02907        47.100          43.100          40.200          46.600
G08  21957897.768    21957899.411    21957898.714    21957897.226       -2837.715       -2211.206       -2211.208       -2119.153   115389526.11408  89913926.13308  89913923.12208  86167493.65508        53.400          50.050          48.650          53.000
G10  23319428.725    23319429.775    23319429.767    23319427.590       -2789.456       -2173.604       -2173.604       -2083.192   122544431.16507  95489177.09708  95489160.09807  91510458.95708        45.700          48.050          44.750          50.150
G11  20170534.545                    20170531.967                         650.291                         506.718                   105996881.94908                  82594965.77308                        51.350                          49.100
G14  24984217.212                    24984216.592                        3045.848                        2373.389                   131292955.41606                 102306198.49806                        41.650                          37.850
G17  24506388.027    24506386.287    24506385.877                        3395.305        2645.690        2645.689                   128781934.35208 100349554.76006 100349547.75906                        50.950          40.700          38.300
G18  19916929.265                    19916928.058                        -303.234                        -236.288                   104664209.76508                  81556499.17308                        53.200                          48.000
G22  23137149.385                    23137145.681                        3212.183                        2502.999                   121586556.40908                  94742761.11507                        50.900                          43.650
G24  24522575.668    24522578.092    24522577.585    24522577.824        1667.023        1298.979        1298.979        1244.736   128867004.63207 100415869.01207 100415848.00406  96231867.48707        45.800          42.000          39.950          45.000
G27  25112991.274    25112993.530    25112992.955    25112992.873       -3872.421       -3017.473       -3017.475       -2891.646   131969639.12607 102833485.68006 102833478.67906  98548752.51007        45.750          41.250          39.500          44.600
G28  21832623.222                    21832620.550                         619.530                         482.749                   114731212.84508                  89400935.75607                        51.350                          44.900
G30  25623318.074    25623319.606    25623319.049    25623319.185       -3344.487       -2606.106       -2606.106       -2497.717   134651439.29106 104923200.10006 104923177.10106 100551387.21207        41.250          40.950          37.800          44.050
G32  23685714.688    23685716.456    23685715.977    23685713.657        2178.261        1697.346        1697.345        1626.602   124469280.76708  96989061.21707  96989061.21506  92947850.42107        50.300          43.950          41.050          44.850
R03  22684167.858    22684166.739    22684166.695       -3501.752       -2723.587       -2723.587   121430142.69308  94445662.25106  94445666.26106        48.750          41.000          41.350
R05  21836940.686    21836942.448    21836942.534        3901.434        3034.447        3034.447   116730986.00108  90790779.36107  90790779.35607        50.550          45.350          44.800
R11  21069104.997    21069106.286    21069106.273       -1483.918       -1154.162       -1154.161   112586919.00008  87567608.32507  87567607.32207        52.700          46.900          46.300
R12  21981042.671    21981047.080    21981047.074        2348.860        1826.890        1826.890   117418800.81608  91325762.60407  91325769.59807        48.900          42.950          43.050
R19  22538581.172    22538581.282    22538581.077       -3909.745       -3040.918       -3040.917   120566203.38106  93773719.81806  93773715.81806        39.000          39.200          38.600
R20  19329585.219    19329587.952    19329586.817        -640.144        -497.892        -497.891   103363988.22907  80394217.56507  80394215.56107        47.150          47.350          47.250
R21  21190077.395    21190077.873    21190077.872        3354.054        2608.709        2608.708   113392386.92508  88194076.86307  88194082.85407        51.200          46.600          45.750
S23  40948889.286           -.913   215187860.89207        44.650
S36  40095425.385           3.540   210702874.93806        41.850
> 2019 09 27 10 02 00.0000000  0 42
C06  39269408.498    39269403.359        -131.135        -101.376   204486117.56607 158121630.63407        45.300          44.100
C09  39020114.268    39020111.532         831.383         642.704   203187987.34207 157117844.87807        46.550          46.000
C11  21944176.665    21944174.261       -1207.536        -933.672   114269108.40208  88360115.38008        49.650          52.850
C16  39131710.467    39131710.864          64.599          50.040   203769091.46407 157567196.61507        47.300          44.600
C21  22966244.760                         407.595                   119591286.86308                        51.950
C22  25156091.604                       -2511.046                   130994375.91408                        50.400
C23  26261978.759                       -3162.019                   136753001.82707                        45.450
C28  24360946.038                        2958.859                   126853833.94908                        49.700
E01  25404812.049    25404813.665    25404812.155    25404812.364        -204.767        -152.986        -156.930        -154.914   133503184.93848  99693947.79808 102294647.02808 100994295.84308        51.100          51.450          51.000          53.150
E03  25718611.947    25718614.717    25718613.566    25718613.959        1246.048         930.571         954.750         942.656   135152241.78748 100925396.52208 103558221.88308 102241806.63508        50.800          49.100          49.850          51.600
E05  26868407.023    26868409.688    26868408.340    26868408.627       -1522.281       -1136.911       -1166.540       -1151.722   141194440.73648 105437423.14707 108187957.92307 106812689.96608        48.950          47.250          47.550          49.400
E08  25546719.320    25546721.606    25546719.953    25546720.390        3143.843        2347.629        2408.872        2378.319   134248927.42847 100250837.51007 102866069.97507 101558452.16707        45.000          44.350          43.650          46.000
E13  23220661.795    23220662.967    23220661.570    23220661.964         347.399         259.383         266.114         262.758   122025398.97148  91122887.98609  93500005.95009  92311444.39709        53.700          54.600          54.500          56.550
E15  24837395.812    24837399.025    24837397.816    24837398.034       -2292.404       -1711.881       -1756.569       -1734.210   130521407.95148  97467302.49208 100009923.05408  98738612.20308        51.850          51.100          51.850          53.400
E18  17854752.249    17854753.199    17854751.930    17854752.107       -2225.962       -1662.258       -1705.657       -1683.950    93827354.91149  70065883.42209  71893682.78909  70979780.53509        55.900          57.250          57.400          59.300
E21  26362202.125    26362204.550    26362203.383    26362203.690       -2794.386       -2086.746       -2141.176       -2113.983   138534296.94048 103450939.46308 106149653.62408 104800294.97708        49.800          48.250          49.300          50.750
E26  24823966.063    24823969.584    24823968.030    24823968.493        2662.537        1988.282        2040.129        2014.226   130450819.57848  97414587.35308  99955836.11708  98685210.66608        49.550          49.250          48.700          50.950
E31  27497935.603    27497939.162    27497937.975    27497938.355        2386.144        1781.907        1828.404        1805.141   144502630.22547 107907825.56507 110722805.81207 109315313.12007        44.950          44.600          44.650          46.600
G01  20491628.666    20491630.026    20491629.921    20491628.261        1481.130        1154.127        1154.128        1106.084   107684242.19708  83909815.53408  83909819.53008  80413578.38109        53.950          51.450          50.150          56.800
G03  24698731.336    24698733.422    24698732.805    24698733.065        4011.896        3126.156        3126.156        2995.835   129792709.23907 101137187.61206 101137184.60906  96923137.87308        45.400          40.850          39.300          48.400
G08  21974129.795    21974131.600    21974130.880    21974129.384       -2848.824       -2219.863       -2219.863       -2127.401   115474826.78108  89980394.15608  89980391.14808  86231192.17008        52.600          49.500          48.400          53.450
G10  23335389.323    23335390.290    23335390.235    23335388.165       -2802.148       -2183.490       -2183.490       -2092.408   122628304.81407  95554533.15407  95554516.13907  91573091.82408        45.950          47.550          44.500          50.650
G11  20166877.326                    20166874.800                         631.025                         491.708                   105977663.43708                  82579990.30108                        50.750                          49.350
G14  24966846.412                    24966845.745                        3039.411                        2368.374                   131201671.72807                 102235068.41906                        42.300                          37.350
G17  24487013.799    24487012.098    24487011.778                        3392.268        2643.326        2643.327                   128680121.44208 100270220.01507 100270213.01906                        50.500          42.550          40.750
G18  19918718.168                    19918716.985                        -323.355                        -251.964                   104673610.67308                  81563824.54808                        52.650                          48.250
G22  23118838.938                    23118835.534                        3202.760                        2495.657                   121490334.70908                  94667783.20407                        50.550                          44.050
G24  24513108.994    24513111.199    24513110.535    24513110.884        1649.669        1285.459        1285.458        1231.818   128817256.27807 100377104.07406 100377083.06406  96194717.74707        46.150          41.750          40.400          45.650
G27  25135101.870    25135104.120    25135103.493    25135103.708       -3873.794       -3018.545       -3018.545       -2892.795   132085830.85407 102924024.58906 102924017.59806  98635518.92807        44.750          40.000          38.100          45.650
G28  21829136.338                    21829133.531                         602.034                         469.118                   114712888.66608                  89386657.16907                        51.250                          44.350
G30  25642420.437    25642421.950    25642421.361    25642421.429       -3347.254       -2608.247       -2608.250       -2499.702   134751822.40406 105001420.85406 105001397.84906 100626348.72007        39.250          39.400          37.800          44.000
G32  23673321.693    23673323.491    23673322.930    23673321.199        2163.342        1685.721        1685.721        1615.554   124404157.02608  96938315.47706  96938315.47306  92899219.10407        49.900          41.650          39.000          46.850
I06  41071293.863          35.838                          30.800
R03  22703837.684    22703836.677    22703836.672       -3517.667       -2735.965       -2735.966   121535437.18808  94527557.93107  94527561.93107        48.900          42.950          42.600
R05  21815085.996    21815087.664    21815087.752        3887.025        3023.243        3023.243   116614159.34708  90699914.21607  90699914.21507        50.950          46.600          46.050
R11  21077510.045    21077511.196    21077511.180       -1510.179       -1174.583       -1174.583   112631832.74808  87602541.23807  87602540.23607        52.350          47.800          47.250
R12  21967917.650    21967920.949    21967921.033        2325.742        1808.913        1808.913   117348683.16608  91271226.67607  91271233.67007        51.200          44.750          44.500
R19  22560525.007    22560525.378    22560524.974       -3915.826       -3045.645       -3045.644   120683588.03406  93865018.94606  93865014.95306        39.050          40.000          39.800
R20  19333233.299    19333236.114    19333235.026        -660.205        -513.493        -513.493   103383496.59107  80409390.73008  80409388.72608        46.900          48.650          48.600
R21  21171303.578    21171304.136    21171304.084        3343.535        2600.530        2600.529   113291924.83408  88115939.68707  88115945.68107        50.650          47.950          47.050
S23  40948893.767           -.691   215187880.93107        44.100
S36  40095404.891           4.027   210702765.21006        41.550
> 2019 09 27 10 02 30.0000000  0 42
C06  39270180.691    39270175.494        -137.192        -106.146   204490138.79607 158124740.11507        45.450          42.850
C09  39015342.195    39015339.369         824.938         637.927   203163137.30407 157098629.23107        46.550          45.200
C11  21951171.347    21951168.907       -1221.172        -944.272   114305531.40608  88388279.95108        49.850          51.950
C16  39131355.851    39131356.027          58.066          44.905   203767244.57807 157565768.50107        47.400          43.450
C21  22963949.440                         388.968                   119579334.73208                        51.900
C22  25170592.293                       -2523.216                   131069884.98108                        50.200
C23  26280211.193                       -3167.717                   136847942.70407                        45.000
C28  24343916.673                        2952.403                   126765157.46108                        49.650
E01  25406027.095    25406028.769    25406027.204    25406027.462        -221.311        -165.307        -169.566        -167.430   133509570.19948  99698715.99908 102299539.61908 100999126.23808        51.500          50.750          50.100          53.100
E03  25711538.922    25711541.464    25711540.030    25711540.634        1231.545         919.606         943.611         931.609   135115071.43148 100897639.45108 103529740.70708 102213687.51108        52.000          48.750          49.100          51.700
E05  26877136.245    26877138.744    26877137.482    26877137.888       -1535.981       -1147.148       -1177.134       -1162.167   141240313.13648 105471678.49207 108223106.90507 106847392.13108        48.850          46.700          46.700          49.400
E08  25528783.249    25528785.840    25528783.947    25528784.275        3139.228        2344.280        2405.464        2374.760   134154673.61347 100180453.22807 102793849.56707 101487149.83007        46.700          43.200          43.200          45.850
E13  23218710.646    23218711.813    23218710.423    23218710.826         335.757         250.735         257.261         254.001   122015145.56849  91115231.21908  93492149.44208  92303687.76209        54.000          53.800          53.600          56.450
E15  24850502.014    24850505.190    24850503.970    24850504.186       -2299.576       -1717.260       -1762.072       -1739.652   130590281.11548  97518733.72108 100062695.97108  98790714.27708        52.600          50.350          50.800          53.300
E18  17867600.229    17867601.137    17867599.854    17867600.055       -2275.577       -1699.272       -1743.597       -1721.444    93894871.18249  70116301.39309  71945416.01709  71030856.13809        55.850          56.550          56.550          59.200
E21  26378178.990    26378181.426    26378180.349    26378180.608       -2803.180       -2093.381       -2147.938       -2120.644   138618255.84548 103513636.00007 106213985.73508 104863809.30008        50.700          47.550          48.800          50.800
E26  24808780.345    24808783.846    24808782.133    24808782.574        2657.144        1984.160        2035.920        2009.999   130371017.51248  97354994.91208  99894689.08407  98624840.93108        50.350          48.550          47.750          50.850
E31  27484342.147    27484345.663    27484344.339    27484344.881        2375.561        1773.744        1820.311        1796.993   144431196.54047 107854482.25907 110668070.91907 109261274.02307        45.650          43.650          43.350          46.300
G01  20483224.074    20483225.408    20483225.326    20483223.650        1462.836        1139.872        1139.872        1092.351   107640075.69809  83875400.08108  83875404.07608  80380596.89909        54.350          51.800          50.250          56.100
G03  24675836.120    24675837.749    24675837.031    24675838.131        4008.738        3123.689        3123.690        2993.477   129672394.01707 101043435.48306 101043432.47905  96833292.15807        45.050          39.350          34.200          47.750
G08  21990426.109    21990428.127    21990427.390    21990425.976       -2860.797       -2229.192       -2229.193       -2136.323   115560465.71208  90047125.75008  90047122.74207  86295143.27108        53.350          49.750          47.700          52.700
G10  23351421.687    23351422.702    23351422.684    23351420.324       -2815.034       -2193.532       -2193.532       -2102.257   122712555.39107  95620182.90607  95620165.90407  91636006.17608        46.800          47.800          44.700          49.700
G11  20163330.929                    20163328.417                         610.928                         476.048                   105959027.05108                  82565468.43908                        51.000                          49.550
G14  24949513.245                    24949512.486                        3032.616                        2363.082                   131110585.84207                 102164092.47406                        42.800                          38.500
G17  24467658.127    24467656.708    24467656.381                        3388.287        2640.225        2640.225                   128578407.70407 100190962.60606 100190955.60406                        47.400          40.900          37.550
G18  19920622.855                    19920621.673                        -344.431                        -268.389                   104683619.80808                  81571623.86608                        53.150                          48.250
G22  23100583.077                    23100579.692                        3192.425                        2487.606                   121394399.64708                  94593028.64207                        50.300                          44.650
G24  24503742.659    24503744.899    24503744.354    24503744.507        1631.342        1271.176        1271.176        1218.130   128768035.98707 100338750.61407 100338729.61006  96157962.34707        45.800          43.000          41.400          45.300
G27  25157221.532    25157223.728    25157223.116    25157223.317       -3875.809       -3020.114       -3020.117       -2894.356   132202069.71607 103014600.24007 103014593.23506  98722320.57307        45.250          42.400          39.550          44.150
G28  21825751.176                    21825748.299                         583.453                         454.638                   114695099.30608                  89372795.32907                        51.400                          44.850
G30  25661539.525    25661541.386    25661540.602    25661540.520       -3351.256       -2611.364       -2611.362       -2502.609   134852299.90506 105079710.97606 105079718.97205 100701376.75406        41.000          37.550          34.100          36.700
G32  23661015.048    23661016.274    23661015.589    23661014.890        2147.632        1673.478        1673.478        1603.768   124339484.72308  96887921.45507  96887921.45606  92850924.88807        50.800          42.550          39.550          45.950
I06  41071018.143          35.806   161171497.51205        30.150
R03  22723597.822    22723596.694    22723596.861       -3534.406       -2748.984       -2748.984   121641213.71808  94609828.49307  94609832.49707        49.250          42.750          42.250
R05  21793313.234    21793314.797    21793314.911        3871.664        3011.293        3011.295   116497771.36008  90609390.24307  90609390.24807        51.250          46.750          46.150
R11  21086063.934    21086065.181    21086065.162       -1537.478       -1195.818       -1195.817   112677542.28508  87638093.08408  87638092.08307        52.650          48.050          47.150
R12  21954924.673    21954926.378    21954926.304        2301.514        1790.065        1790.067   117279267.98908  91217237.10507  91217244.10607        52.950          45.200          44.100
R19  22582503.929    22582504.091    22582503.710       -3922.729       -3051.014       -3051.012   120801160.64606  93956464.29106  93956460.28906        39.150          39.750          38.900
R20  19336994.552    19336997.354    19336996.308        -681.086        -529.734        -529.733   103403609.81507  80425034.35008  80425032.34408        46.800          48.150          48.300
R21  21152590.008    21152590.636    21152590.600        3332.103        2591.635        2591.635   113191785.43508  88038053.47407  88038059.47607        51.000          47.550          46.900
S23  40948898.277          -1.300   215187901.27007        44.400
S36  40095384.505           2.890   210702654.67706        41.400
> 2019 09 27 10 03 00.0000000  0 42
C06  39270984.197    39270978.908        -142.526        -110.108   204494322.96607 158127975.56607        45.350          43.000
C09  39010601.168    39010598.304         819.979         634.067   203138449.39907 157079538.98707        46.550          44.900
C11  21958240.984    21958238.501       -1233.863        -954.077   114342344.55408  88416746.21408        49.600          52.000
C16  39131035.501    39131035.576          52.262          40.469   203765576.37007 157564478.54407        47.150          43.400
C21  22961757.062                         371.272                   119567918.68408                        52.100
C22  25185159.360                       -2534.449                   131145739.87108                        50.600
C23  26298472.861                       -3172.573                   136943035.60807                        44.500
C28  24326920.688                        2946.896                   126676655.17208                        49.850
E01  25407332.154    25407333.814    25407332.259    25407332.487        -236.854        -176.793        -181.401        -179.089   133516428.19548  99703837.22508 102304794.44408 101004314.26608        51.450          50.800          50.100          53.450
E03  25704546.106    25704548.310    25704546.763    25704547.341        1217.644         909.319         933.070         921.200   135078321.78748 100870196.54708 103501581.88808 102185886.64908        51.650          49.100          49.250          52.200
E05  26885939.661    26885942.380    26885941.083    26885941.369       -1548.759       -1156.609       -1186.721       -1171.616   141286575.68948 105506225.18207 108258554.79907 106882389.41908        48.800          46.700          46.800          49.750
E08  25510869.080    25510871.309    25510869.705    25510870.224        3135.927        2341.754        2402.812        2372.270   134060533.90747 100110154.12607 102721716.58807 101415933.79107        44.700          43.050          42.750          45.950
E13  23216821.569    23216822.730    23216821.343    23216821.737         325.201         242.864         249.188         246.028   122005218.37549  91107818.06108  93484542.89808  92296177.90909        54.100          53.900          53.550          56.750
E15  24863645.580    24863648.586    24863647.317    24863647.615       -2305.861       -1721.875       -1766.812       -1744.382   130659350.20748  97570311.27408 100115619.02408  98842964.58408        52.650          50.500          50.650          53.550
E18  17880726.201    17880727.068    17880725.813    17880726.020       -2323.823       -1735.271       -1780.568       -1757.918    93963848.52349  70167810.44309  71998268.77709  71083037.04209        55.900          56.550          56.500          59.550
E21  26394202.522    26394204.888    26394203.923    26394204.035       -2811.262       -2099.235       -2154.040       -2126.653   138702459.74748 103576515.49607 106278505.56808 104927508.96408        50.500          47.150          48.350          50.800
E26  24793621.868    24793625.214    24793623.596    24793624.010        2652.578        1980.888        2032.549        2006.757   130291358.89148  97295509.58408  99833651.96107  98564579.70308        50.750          48.650          47.650          51.100
E31  27470805.341    27470809.039    27470807.622    27470807.901        2366.042        1766.759        1812.800        1789.817   144360060.20447 107801360.98907 110613563.88107 109207459.86407        45.800          43.950          43.800          46.900
G01  20474920.359    20474921.650    20474921.540    20474919.862        1445.498        1126.363        1126.363        1079.409   107596439.03109  83841397.49008  83841401.48408  80348011.08509        54.750          51.300          49.450          56.250
G03  24652954.875    24652956.063    24652955.208    24652957.263        4006.415        3121.885        3121.884        2991.887   129552153.26807 100949741.38206 100949738.37606  96743502.05807        42.550          36.900          36.600          46.600
G08  22006786.766    22006788.769    22006788.039    22006786.717       -2871.671       -2237.665       -2237.666       -2144.484   115646441.60108  90114119.91108  90114116.90307  86359346.01108        53.200          48.950          47.400          52.750
G10  23367525.448    23367526.442    23367526.438    23367524.100       -2827.311       -2203.099       -2203.099       -2111.329   122797180.93707  95686124.85707  95686107.85207  91699200.53108        46.250          47.600          45.000          49.900
G11  20159895.534                    20159893.036                         591.715                         461.077                   105940974.07808                  82551401.18508                        51.050                          48.650
G14  24932218.372                    24932217.703                        3025.968                        2357.898                   131019701.04007                 102093273.21005                        42.900                          33.800
G17  24448321.790    24448320.215    24448319.828                        3385.081        2637.724        2637.725                   128476795.17908 100111784.00706 100111777.01106                        49.400          39.450          36.800
G18  19922643.339                    19922642.099                        -364.380                        -283.932                   104694237.21508                  81579897.16907                        53.050                          47.950
G22  23082382.172                    23082378.760                        3183.010                        2480.268                   121298753.85108                  94518499.48107                        50.200                          43.250
G24  24494477.261    24494479.492    24494479.071    24494479.286        1614.248        1257.856        1257.854        1205.217   128719345.90807 100300810.30807 100300789.29406  96121602.89207        46.650          42.300          40.200          45.800
G27  25179349.695    25179352.135    25179351.601    25179351.730       -3877.222       -3021.212       -3021.214       -2895.300   132318354.68407 103105211.81906 103105204.80206  98809156.63307        44.250          41.600          38.250          44.650
G28  21822468.062                    21822465.172                         565.838                         440.913                   114677846.16008                  89359351.31907                        51.950                          44.200
G30  25680674.986    25680677.791    25680676.667    25680676.299       -3353.558       -2613.159       -2613.158       -2504.357   134952872.39406 105158082.77606 105158082.78206 100776470.66906        38.600          38.900          37.200          41.550
G32  23648794.843    23648796.263    23648795.789    23648794.409        2132.674        1661.827        1661.826        1592.649   124275266.72008  96837881.49007  96837881.49006  92802969.90207        50.250          43.200          40.500          44.750
I06  41070741.571          36.076                          30.050
R03  22743447.247    22743446.141    22743446.282       -3550.030       -2761.133       -2761.133   121747468.84108  94692471.34107  94692475.34707        49.400          42.850          42.050
R05  21771623.145    21771624.842    21771624.905        3857.136        2999.994        2999.995   116381826.25308  90519210.76007  90519210.76307        50.050          45.850          45.350
R11  21094766.419    21094767.740    21094767.757       -1563.526       -1216.075       -1216.075   112724045.91008  87674262.56207  87674261.55807        52.300          47.800          47.350
R12  21942063.697    21942063.892    21942063.911        2278.206        1771.941        1771.943   117210559.09408  91163796.92407  91163803.93407        52.950          44.900          44.150
R19  22604517.699    22604518.148    22604517.710       -3928.781       -3055.720       -3055.720   120918919.65306  94048054.54806  94048050.56206        39.600          40.550          39.050
R20  19340868.885    19340871.753    19340870.675        -701.011        -545.230        -545.229   103424327.86307  80441148.38908  80441146.38608        47.150          48.600          48.750
R21  21133937.239    21133938.080    21133938.046        3321.419        2583.328        2583.328   113091971.38808  87960420.34108  87960426.33807        51.000          48.000          47.250
S23  40948902.565           -.889   215187923.17807        44.100
S36  40095364.160           3.540   210702547.68506        41.400
> 2019 09 27 10 03 30.0000000  0 42
C06  39271818.433    39271813.075        -147.491        -113.910   204498666.93507 158131334.59407        45.400          43.000
C09  39005890.807    39005887.846         815.076         630.305   203113920.71207 157060571.84707        46.900          45.300
C11  21965384.879    21965382.356       -1246.448        -963.789   114379544.28508  88445511.40108        49.900          52.250
C16  39130748.760    39130748.875          46.758          36.157   203764083.69207 157563324.32507        47.050          43.850
C21  22959667.181                         353.875                   119557035.90708                        52.000
C22  25199791.941                       -2545.427                   131221935.51408                        50.500
C23  26316762.519                       -3177.078                   137038275.08307                        44.400
C28  24309957.986                        2941.427                   126588325.46108                        49.450
E01  25408726.512    25408728.238    25408726.692    25408726.890        -251.924        -188.201        -193.080        -190.651   133523755.77948  99709309.12808 102310409.08908 101009857.53908        51.100          51.300          50.350          53.200
E03  25697632.483    25697634.822    25697633.336    25697633.730        1204.100         899.140         922.614         910.910   135041990.70448 100843066.21408 103473743.81108 102158402.44408        50.250          49.550          49.850          52.100
E05  26894816.518    26894819.124    26894818.041    26894818.277       -1561.342       -1165.834       -1196.317       -1181.108   141333224.11848 105541060.03207 108294298.39407 106917678.64708        48.900          46.850          47.000          49.350
E08  25492976.211    25492978.543    25492976.944    25492977.405        3132.124        2339.231        2400.107        2369.590   133966507.07847 100039939.35507 102649670.11407 101344803.17107        45.100          44.100          43.100          46.050
E13  23214994.003    23214995.159    23214993.797    23214994.170         314.845         235.068         241.190         238.110   121995614.46748  91100646.31109  93477184.05308  92288912.61509        53.800          54.250          53.800          56.450
E15  24876825.677    24876828.585    24876827.276    24876827.616       -2311.964       -1726.374       -1771.433       -1748.943   130728611.33748  97622032.22108 100168689.21808  98895360.15308        52.600          50.700          50.850          53.200
E18  17894128.527    17894129.387    17894128.169    17894128.362       -2371.732       -1771.102       -1817.336       -1794.200    94034278.26449  70220404.06909  72052234.41409  71136316.67209        55.600          56.850          56.750          59.200
E21  26410271.650    26410274.119    26410273.104    26410273.211       -2818.724       -2104.853       -2159.836       -2132.328   138786903.76648 103639574.29707 106343209.38208 104991390.27508        49.900          47.800          48.600          50.600
E26  24778490.231    24778493.539    24778491.890    24778492.276        2648.276        1977.605        2029.180        2003.339   130211841.41348  97236129.67608  99772723.00408  98504425.27308        50.800          48.800          48.150          50.800
E31  27457324.776    27457328.447    27457327.273    27457327.507        2356.365        1759.687        1805.482        1782.566   144289219.94247 107748460.82907 110559283.72607 109153869.71107        45.000          44.050          44.150          46.600
G01  20466717.052    20466718.284    20466718.155    20466716.518        1428.252        1112.925        1112.925        1066.503   107553330.08009  83807806.10108  83807810.09608  80315819.34009        54.250          51.550          50.100          56.650
G03  24630087.865    24630089.016    24630088.177    24630090.307        4004.608        3120.473        3120.473        2990.221   129431986.33807 100856104.80706 100856101.80106  96653767.07407        45.850          40.100          38.050          44.750
G08  22023210.675    22023212.524    22023211.793    22023210.529       -2882.442       -2246.059       -2246.058       -2152.439   115732749.14708  90181372.52008  90181369.51307  86423796.41508        53.550          49.300          47.550          53.000
G10  23383699.548    23383700.467    23383700.374    23383698.150       -2839.221       -2212.381       -2212.381       -2120.227   122882175.91107  95752354.68107  95752337.66307  91762670.76408        46.350          47.550          45.350          50.400
G11  20156570.619                    20156568.207                         572.700                         446.260                   105923501.95808                  82537786.54608                        50.850                          49.300
G14  24914961.763                    24914961.014                        3019.585                        2352.926                   130929016.79107                 102022610.22605                        43.500                          35.100
G17  24429004.671    24429003.083    24429002.615                        3382.085        2635.391        2635.390                   128375282.60708 100032683.26906 100032676.26506                        50.200          41.800          39.350
G18  19924778.865                    19924777.597                        -384.120                        -299.314                   104705459.17908                  81588641.55407                        53.300                          47.900
G22  23064236.142                    23064232.721                        3173.778                        2473.075                   121203396.68908                  94444195.23307                        49.200                          44.150
G24  24485312.682    24485314.682    24485314.182    24485314.626        1596.399        1243.948        1243.948        1192.313   128671185.06107 100263282.38906 100263261.38806  96085638.61007        46.750          41.550          40.550          46.650
G27  25201485.878    25201488.563    25201488.075    25201488.009       -3877.880       -3021.728       -3021.727       -2896.115   132434680.98907 103195855.56006 103195848.56806  98896023.56907        46.100          40.700          38.200          45.300
G28  21819286.578                    21819283.677                         548.416                         427.337                   114661127.04708                  89346323.43507                        51.650                          44.150
G30  25699828.523    25699828.927    25699828.636    25699827.805       -3355.702       -2614.796       -2614.798       -2506.162   135053514.22805 105236505.37906 105236505.36504 100851625.69106        32.250          37.400          24.600          38.150
G32  23636660.635    23636662.584    23636662.205    23636659.789        2117.941        1650.344        1650.344        1581.544   124211502.35408  96788195.01107  96788195.00706  92755353.66007        49.850          43.000          41.000          45.400
I06  41070462.820          36.713                          30.700
R03  22763384.817    22763383.622    22763383.826       -3565.317       -2773.026       -2773.025   121854195.74308  94775481.11407  94775485.11806        49.450          42.300          41.700
R05  21750016.087    21750017.827    21750018.006        3842.620        2988.706        2988.706   116266325.26908  90429376.71107  90429376.71307        50.800          45.800          45.300
R11  21103616.491    21103617.860    21103617.817       -1589.384       -1236.187       -1236.187   112771338.25308  87711045.49007  87711044.48307        52.300          47.500          46.850
R12  21929333.065    21929333.644    21929333.587        2255.076        1753.947        1753.946   117142556.34007  91110905.91807  91110912.92107        47.150          45.350          44.050
R19  22626565.304    22626565.739    22626565.235       -3934.413       -3060.099       -3060.100   121036860.23406  94139786.10406  94139782.09106        40.050          39.100          38.750
R20  19344855.675    19344858.587    19344857.493        -720.562        -560.437        -560.437   103445647.08907  80457730.00308  80457727.99908        47.700          48.400          48.400
R21  21115345.075    21115346.049    21115346.069        3310.919        2575.159        2575.159   112992481.72508  87883039.49408  87883045.49507        51.800          48.000          47.200
S23  40948905.414           -.427   215187941.06907        44.300
S36  40095343.028           3.793   210702435.57206        41.050
> 2019 09 27 10 04 00.0000000  0 41
C06  39272684.232    39272678.880        -153.064        -118.444   204503175.31807 158134820.77407        45.400          43.200
C09  39001212.104    39001208.882         809.327         625.803   203089556.25807 157041731.70507        47.100          45.450
C11  21972603.826    21972601.261       -1259.467        -973.954   114417134.78708  88474578.76408        49.600          52.300
C16  39130496.677    39130496.854          40.858          31.536   203762771.24807 157562309.46407        46.950          44.000
C21  22957680.653                         335.746                   119546691.42108                        51.750
C22  25214490.524                       -2556.986                   131298474.64908                        50.300
C23  26335080.694                       -3182.112                   137133663.52907                        42.800
C28  24293029.422                        2935.284                   126500174.41208                        49.950
E01  25410211.108    25410212.974    25410211.389    25410211.567        -268.070        -200.152        -205.348        -202.753   133531557.74748  99715135.24808 102316387.19908 101015759.65608        51.100          50.600          50.350          53.200
E03  25690799.135    25690802.100    25690800.778    25690800.925        1189.838         888.518         911.638         900.047   135006084.00748 100816252.80608 103446230.92808 102131239.29908        50.250          49.050          50.050          52.300
E05  26903767.583    26903770.225    26903769.202    26903769.301       -1574.395       -1175.731       -1206.431       -1191.102   141380262.02348 105576185.73307 108330340.41807 106953262.50708        48.800          46.400          47.350          49.650
E08  25475106.521    25475108.747    25475107.000    25475107.322        3128.090        2335.983        2396.885        2366.394   133872599.89547  99969813.93007 102577715.31507 101273763.05407        45.800          42.900          43.250          45.850
E13  23213228.857    23213230.054    23213228.697    23213229.085         303.695         226.751         232.712         229.739   121986338.81948  91093719.68608  93470076.73608  92281895.64109        53.950          53.600          53.800          56.400
E15  24890043.039    24890045.858    24890044.596    24890044.902       -2318.542       -1731.370       -1776.549       -1753.960   130798068.52648  97673899.58008 100221909.64208  98947904.04308        52.150          49.950          50.750          53.150
E18  17907807.057    17907807.912    17907806.752    17907806.916       -2420.243       -1807.351       -1854.461       -1830.906    94106159.51049  70274081.61109  72107312.23809  71190694.35509        55.550          56.150          56.750          59.150
E21  26426387.132    26426389.408    26426388.516    26426388.705       -2826.942       -2111.024       -2166.116       -2138.590   138871590.94748 103702814.68907 106408099.52208 105055455.53508        50.550          46.550          48.150          50.100
E26  24763386.583    24763389.675    24763388.175    24763388.548        2643.122        1973.824        2025.236        1999.513   130132470.79048  97176859.39907  99711906.54908  98444381.90508        50.900          47.900          48.250          50.800
E31  27443901.868    27443905.731    27443904.376    27443904.631        2345.931        1751.891        1797.655        1774.689   144218682.31647 107695786.69707 110505235.46607 109100508.51507        45.850          43.750          43.950          46.650
G01  20458615.218    20458616.409    20458616.290    20458614.671        1410.320        1098.952        1098.952        1053.116   107510754.58709  83774630.38908  83774634.38408  80284025.95209        54.300          51.400          50.050          56.000
G03  24607236.309    24607237.864    24607237.199    24607238.178        4001.313        3117.911        3117.911        2988.143   129311900.59507 100762531.53207 100762528.53206  96564092.61206        46.300          43.150          40.950          41.200
G08  22039698.533    22039700.182    22039699.411    22039698.212       -2893.836       -2254.936       -2254.937       -2160.922   115819392.30508  90248886.65308  90248883.63907  86488497.44308        53.600          48.950          47.050          52.250
G10  23399944.304    23399945.274    23399945.249    23399942.896       -2851.628       -2222.047       -2222.048       -2129.625   122967542.67107  95818874.19407  95818857.18507  91826418.64808        45.250          47.250          44.700          49.600
G11  20153357.395                    20153355.007                         552.999                         430.909                   105906616.39908                  82524628.96208                        51.000                          49.000
G14  24897744.757                    24897743.993                        3012.551                        2347.444                   130838540.66307                 101952109.38706                        43.350                          37.000
G17  24409707.585    24409706.177    24409705.804                        3378.502        2632.604        2632.606                   128273875.99207  99953665.18406  99953658.18606                        45.400          41.550          38.600
G18  19927030.307                    19927028.962                        -404.572                        -315.249                   104717290.14008                  81597860.48207                        53.600                          47.850
G22  23046146.369                    23046142.985                        3163.747                        2465.259                   121108335.30708                  94370121.46607                        50.600                          43.000
G24  24476249.939    24476251.861    24476251.234    24476252.050        1578.595        1230.074        1230.073        1178.716   128623559.98207 100226171.92806 100226150.92106  96050074.43707        46.700          41.850          39.150          46.350
G27  25223630.419    25223633.194    25223632.598    25223632.778       -3879.622       -3023.085       -3023.088       -2897.257   132551052.05207 103286534.21306 103286527.18706  98982923.90307        44.600          40.500          37.050          44.400
G28  21816207.754                    21816204.821                         530.287                         413.212                   114644947.54708                  89333716.03207                        51.550                          44.650
G32  23624614.464    23624616.080    23624615.544    23624613.788        2102.327        1638.178        1638.178        1569.997   124148198.95108  96738867.67807  96738867.68106  92708081.65507        50.200          42.450          39.900          45.650
I06  41070183.424          36.870                          29.750
R03  22783410.567    22783409.281    22783409.498       -3581.104       -2785.303       -2785.302   121961395.05408  94858858.34307  94858862.34207        49.150          42.650          42.100
R05  21728493.966    21728495.668    21728495.744        3827.240        2976.747        2976.745   116151277.56308  90339895.21607  90339895.20607        51.700          46.050          45.700
R11  21112614.598    21112616.067    21112616.107       -1616.006       -1256.892       -1256.892   112819422.05508  87748443.99408  87748442.98707        52.150          48.300          47.500
R12  21916734.171    21916737.041    21916737.078        2230.946        1735.184        1735.182   117075267.94108  91058570.42907  91058577.42607        49.900          44.350          44.250
R19  22648647.525    22648648.044    22648647.711       -3940.351       -3064.719       -3064.718   121154985.07406  94231660.90506  94231656.91306        38.750          39.750          38.750
R20  19348955.802    19348958.782    19348957.665        -741.050        -576.370        -576.370   103467572.32707  80474782.96208  80474780.95808        46.950          49.000          49.050
R21  21096815.188    21096816.086    21096816.135        3299.680        2566.420        2566.421   112893323.76408  87805916.65408  87805922.64907        51.950          48.150          47.700
S23  40948908.248           -.316   215187960.60807        44.350
S36  40095322.346           2.960   210702329.20606        41.350
> 2019 09 27 10 04 30.0000000  0 41
C06  39273581.343    39273575.971        -158.772        -122.666   204507846.82807 158138433.07307        45.700          43.050
C09  38996564.678    38996561.260         803.553         621.501   203065354.97707 157023017.71807        47.250          45.050
C11  21979897.565    21979894.881       -1272.712        -984.176   114455114.47708  88503947.06508        50.000          52.250
C16  39130279.037    39130279.250          34.383          26.724   203761637.77907 157561432.99407        47.000          43.800
C21  22955797.294                         317.636                   119536884.29808                        51.950
C22  25229254.492                       -2568.640                   131375354.00308                        50.800
C23  26353426.930                       -3187.198                   137229197.32907                        43.350
C28  24276135.270                        2929.175                   126412202.25008                        49.750
E01  25411785.729    25411787.677    25411786.102    25411786.263        -284.073        -212.089        -217.610        -214.848   133539832.74548  99721314.62708 102322727.77808 101022019.63308        51.000          50.950          50.350          53.550
E03  25684047.065    25684050.023    25684048.785    25684048.840        1175.356         877.617         900.563         889.084   134970601.45148 100789756.11908 103419043.01308 102104396.99908        51.750          49.550          49.850          52.550
E05  26912792.145    26912795.005    26912794.090    26912793.978       -1587.446       -1185.458       -1216.430       -1200.958   141427686.96448 105611600.44007 108366678.99107 106989139.14908        48.750          46.500          47.200          49.750
E08  25457259.360    25457261.575    25457259.893    25457260.365        3123.733        2332.790        2393.695        2363.234   133778812.98347  99899778.31407 102505852.69507 101202813.93707        44.900          43.350          43.000          46.000
E13  23211525.974    23211527.212    23211525.829    23211526.244         292.585         218.469         224.158         221.314   121977390.31749  91087037.36408  93463220.09108  92275126.15909        54.100          53.950          53.700          56.700
E15  24903297.194    24903300.058    24903298.771    24903299.126       -2325.218       -1736.358       -1781.672       -1759.024   130867719.77148  97725911.84908 100275278.75208  99000594.73408        52.200          50.300          50.650          53.300
E18  17921760.403    17921761.327    17921760.209    17921760.337       -2468.509       -1843.331       -1891.421       -1867.368    94179485.20949  70328837.79609  72163496.85009  71246164.75409        55.400          56.500          56.650          59.350
E21  26442548.362    26442550.465    26442549.682    26442549.868       -2835.138       -2117.206       -2172.366       -2144.795   138956518.28848 103766234.41407 106473173.67808 105119702.47708        50.750          46.750          48.350          50.400
E26  24748310.730    24748313.797    24748312.419    24748312.717        2638.112        1970.038        2021.347        1995.739   130053246.61348  97117698.50208  99651202.33507  98384449.34408        50.600          48.400          47.950          51.050
E31  27430536.809    27430540.467    27430539.093    27430539.343        2335.741        1744.301        1789.736        1767.008   144148447.80447 107643338.89507 110451419.45807 109047376.60807        46.600          44.300          43.750          46.900
G01  20450614.783    20450616.017    20450615.892    20450614.290        1392.200        1084.831        1084.831        1039.654   107468712.28009  83741870.15308  83741874.14908  80252630.72509        54.700          51.850          50.200          56.400
G03  24584400.558    24584402.285    24584401.740    24584401.670        3998.460        3115.684        3115.683        2985.805   129191897.23607 100669022.43907 100669019.43707  96474479.63707        46.300          44.700          42.750          43.350
G08  22056249.609    22056251.154    22056250.437    22056249.193       -2905.004       -2263.640       -2263.640       -2169.300   115906368.09208  90316659.95608  90316656.95007  86553446.86808        53.600          49.300          47.600          52.700
G10  23416259.083    23416260.094    23416260.061    23416257.870       -2864.365       -2231.975       -2231.975       -2138.865   123053277.63107  95885680.62808  95885663.62507  91890441.45008        45.700          48.200          45.400          50.150
G11  20150255.776                    20150253.315                         533.145                         415.437                   105890316.91708                  82511928.05808                        51.400                          49.250
G14  24880567.461                    24880566.960                        3004.866                        2341.457                   130748274.48107                 101881772.18706                        42.950                          39.050
G17  24390430.458    24390429.265    24390428.830                        3374.538        2629.508        2629.507                   128172575.86408  99874730.04706  99874723.04506                        49.900          41.250          38.300
G18  19929397.281                    19929395.871                        -425.054                        -331.211                   104729728.32309                  81607552.56908                        54.000                          48.300
G22  23028113.145                    23028109.814                        3153.566                        2457.326                   121013570.71108                  94296278.95007                        49.650                          43.750
G24  24467289.254    24467291.177    24467290.537    24467291.447        1560.237        1215.769        1215.769        1165.195   128576471.52507 100189479.61807 100189458.60506  96014910.98207        43.950          42.100          40.000          47.200
G27  25245783.322    25245786.020    25245785.573    25245785.411       -3881.695       -3024.700       -3024.701       -2898.471   132667464.99407 103377245.51206 103377238.50906  99069855.52407        44.800          41.400          39.350          44.650
G28  21813231.442                    21813228.506                         512.041                         398.993                   114629306.97608                  89321528.57707                        51.800                          45.050
G32  23612656.251    23612657.534    23612656.901    23612655.803        2086.773        1626.056        1626.057        1558.218   124085357.66108  96689900.43107  96689900.43306  92661154.74107        49.750          43.000          40.400          45.750
I06  41069902.773          36.892                          29.250
R03  22803523.759    22803522.361    22803522.545       -3597.030       -2797.692       -2797.691   122069061.60808  94942598.94606  94942602.95206        49.850          41.800          41.100
R05  21707057.393    21707058.941    21707059.020        3811.754        2964.698        2964.698   116036685.94708  90250768.40207  90250768.39907        50.150          45.950          45.350
R11  21121760.142    21121761.824    21121761.839       -1642.468       -1277.476       -1277.476   112868293.72908  87786455.27707  87786454.26907        51.350          47.250          46.550
R12  21904271.990    21904274.366    21904274.467        2206.856        1716.448        1716.446   117008695.35508  91006791.80807  91006798.79407        51.550          43.800          43.350
R19  22670763.779    22670764.065    22670763.815       -3946.640       -3069.610       -3069.611   121273291.36706  94323676.90606  94323672.89206        39.650          39.300          38.650
R20  19353168.864    19353171.841    19353170.756        -761.311        -592.131        -592.131   103490101.58307  80492305.70008  80492303.70008        46.750          48.100          48.300
R21  21078347.480    21078348.278    21078348.300        3288.269        2557.543        2557.543   112794498.59808  87729052.62007  87729058.61907        51.800          47.800          47.100
S23  40948911.898          -1.043   215187981.60007        44.400
S36  40095301.222           3.059   210702225.21306        41.650
> 2019 09 27 10 05 00.0000000  0 41
C06  39274510.151    39274504.728        -164.028        -126.837   204512683.41307 158142173.02907        45.350          43.300
C09  38991948.874    38991945.426         798.478         617.352   203041318.93807 157004431.54907        47.150          45.300
C11  21987266.286    21987263.530       -1285.590        -994.097   114493484.82808  88533617.44208        49.700          52.600
C16  39130096.064    39130096.362          28.787          22.220   203760685.23007 157560696.43007        47.150          44.050
C21  22954017.489                         299.861                   119527616.75708                        51.700
C22  25244083.611                       -2579.667                   131452573.62308                        50.400
C23  26371801.085                       -3191.844                   137324876.10307                        42.250
C28  24259276.052                        2923.298                   126324412.36408                        49.400
E01  25413450.759    25413452.738    25413451.181    25413451.357        -299.675        -223.788        -229.597        -226.675   133548582.79448  99727848.74308 102329432.35708 101028638.97908        50.750          50.900          50.750          52.850
E03  25677376.744    25677379.146    25677377.773    25677377.997        1161.283         867.255         889.858         878.519   134935546.04348 100763578.36808 103392182.36408 102077877.79908        51.750          49.250          49.950          51.800
E05  26921890.618    26921893.360    26921892.438    26921892.472       -1600.270       -1195.052       -1226.188       -1210.588   141475499.74948 105647304.79507 108403314.75807 107025309.20608        48.350          46.300          47.600          49.050
E08  25439436.003    25439438.046    25439436.217    25439436.908        3119.928        2329.854        2390.591        2360.264   133685150.35647  99829835.50607 102434085.27307 101131958.81807        46.050          43.750          43.100          45.650
E13  23209885.801    23209887.045    23209885.652    23209886.084         281.780         210.413         215.877         213.149   121968771.21448  91080601.02508  93456615.84709  92268605.86809        53.850          53.900          54.050          56.050
E15  24916588.462    24916591.434    24916590.195    24916590.516       -2331.550       -1741.098       -1786.511       -1763.815   130937566.34848  97778069.97508 100328797.53008  99053433.18608        51.850          50.100          51.100          52.750
E18  17935987.871    17935988.879    17935987.774    17935987.912       -2516.227       -1879.000       -1928.019       -1903.505    94254251.56949  70384669.79709  72220785.33709  71302725.00109        55.050          56.250          57.000          58.700
E21  26458755.251    26458757.184    26458756.495    26458756.682       -2842.903       -2122.967       -2178.422       -2150.666   139041686.06348 103829833.69607 106538432.06808 105184131.31108        50.250          46.400          48.100          49.400
E26  24733263.379    24733266.432    24733264.896    24733265.241        2633.189        1966.409        2017.669        1992.049   129974171.81948  97058649.13808  99590612.53608  98324629.77008        50.500          48.350          48.300          50.400
E31  27417230.010    27417233.633    27417232.274    27417232.423        2325.722        1736.681        1782.106        1759.393   144078520.20847 107591120.30207 110397838.62107 108994476.89107        46.100          44.000          44.550          46.350
G01  20442716.409    20442717.676    20442717.551    20442715.936        1374.537        1071.068        1071.068        1026.410   107427206.18109  83709527.74108  83709531.73708  80221635.91309        54.200          51.850          50.400          56.300
G03  24561581.028    24561583.225    24561582.718    24561582.287        3995.491        3113.373        3113.373        2983.687   129071980.74407 100575581.08407 100575578.08007  96384931.63907        45.900          44.950          42.550          45.600
G08  22072863.779    22072865.437    22072864.705    22072863.477       -2915.873       -2272.110       -2272.110       -2177.453   115993676.57308  90384692.50508  90384689.49507  86618644.71508        53.200          49.400          47.550          52.550
G10  23432643.872    23432644.953    23432644.912    23432642.812       -2876.261       -2241.242       -2241.243       -2147.893   123139380.30407  95952773.60907  95952756.59607  91954738.89008        44.800          47.950          44.600          49.950
G11  20147266.167                    20147263.651                         513.771                         400.342                   105874606.15808                  82499685.90808                        50.800                          49.400
G14  24863431.235                    24863430.421                        2998.111                        2336.192                   130658222.91407                 101811602.15906                        42.350                          36.900
G17  24371174.894    24371173.515    24371173.110                        3371.037        2626.781        2626.781                   128071386.48508  99795881.11806  99795874.11406                        49.700          41.900          39.350
G18  19931880.054                    19931878.531                        -445.045                        -346.789                   104742774.95708                  81617718.77608                        53.750                          48.200
G22  23010137.282                    23010134.142                        3143.797                        2449.714                   120919107.33508                  94222671.15007                        49.300                          44.800
G24  24458431.308    24458433.319    24458432.745    24458433.732        1542.396        1201.864        1201.864        1151.840   128529923.22207 100153208.21107 100153187.21406  95980150.90807        44.000          42.700          39.950          47.200
G27  25267944.177    25267946.894    25267946.502    25267946.354       -3882.657       -3025.451       -3025.449       -2899.356   132783920.31107 103467989.78906 103467982.78706  99156818.81907        44.350          41.050          39.350          45.300
G28  21810358.263                    21810355.338                         494.160                         385.060                   114614208.26308                  89309763.34207                        51.150                          45.450
G32  23600786.723    23600788.085    23600787.498    23600786.026        2071.553        1614.197        1614.198        1546.741   124022982.97208  96641296.80207  96641296.79806  92614576.25607        49.400          43.700          41.100          45.000
I06  41069621.545          36.531                          29.800
R03  22823723.808    22823722.337    22823722.513       -3612.195       -2809.485       -2809.486   122177193.45708  95026701.49006  95026705.48406        48.900          41.600          41.650
R05  21685707.255    21685708.874    21685708.952        3796.470        2952.811        2952.812   115922556.81608  90162001.35507  90162001.35307        51.100          46.400          45.750
R11  21131053.113    21131054.885    21131054.898       -1668.503       -1297.724       -1297.724   112917953.15108  87825079.25707  87825078.25707        51.450          47.650          46.950
R12  21891944.877    21891946.878    21891946.954        2182.929        1697.837        1697.835   116942844.00308  90955574.12607  90955581.11207        50.550          44.250          44.100
R19  22692914.073    22692914.283    22692914.050       -3952.707       -3074.329       -3074.329   121391779.03906  94415833.90506  94415829.91106        39.000          38.750          37.950
R20  19357495.100    19357498.126    19357497.042        -781.231        -607.624        -607.624   103513235.93807  80510299.09508  80510297.09208        46.750          48.900          48.700
R21  21059942.850    21059943.355    21059943.396        3277.239        2548.965        2548.965   112696010.54008  87652450.81108  87652456.80507        51.850          48.050          47.650
S23  40948915.939           -.863   215188004.62307        44.100
S36  40095280.251           2.973   210702120.45406        41.350
> 2019 09 27 10 05 30.0000000  0 41
C06  39275469.627    39275464.188        -169.316        -130.879   204517679.76707 158146036.52607        45.300          43.000
C09  38987363.816    38987360.302         793.255         613.351   203017443.31307 156985969.39307        47.150          45.000
C11  21994708.869    21994706.093       -1298.203       -1003.864   114532240.10708  88563585.48508        49.600          52.200
C16  39129946.931    39129947.289          23.030          17.884   203759908.43007 157560095.74807        47.250          43.350
C21  22952340.385                         282.200                   119518883.88608                        51.750
C22  25258976.887                       -2590.622                   131530126.25308                        50.150
C23  26390201.409                       -3195.860                   137420692.40907                        42.000
C28  24242451.105                        2917.397                   126236801.03608                        49.300
E01  25415205.212    25415207.256    25415205.659    25415205.835        -315.154        -235.323        -241.427        -238.379   133557802.55248  99734733.62308 102336496.83608 101035613.66108        51.000          50.150          50.350          53.750
E03  25670786.452    25670788.594    25670787.204    25670787.617        1147.341         856.853         879.166         867.987   134900913.50448 100737716.40908 103365645.74408 102051678.51008        50.150          48.450          49.650          52.600
E05  26931061.664    26931064.598    26931063.589    26931063.559       -1612.852       -1204.358       -1235.785       -1220.075   141523693.99948 105683293.98507 108440242.80407 107061767.82508        48.850          45.700          47.350          50.050
E08  25421635.587    25421637.747    25421635.992    25421636.338        3116.049        2327.006        2387.619        2357.287   133591608.67247  99759983.01707 102362410.54707 101061195.21707        46.700          42.650          43.150          46.350
E13  23208307.374    23208308.611    23208307.203    23208307.630         271.038         202.464         207.754         205.125   121960476.39048  91074406.83008  93450260.06508  92262330.87809        53.950          53.100          53.700          56.900
E15  24929915.733    24929918.861    24929917.677    24929917.904       -2337.628       -1745.657       -1791.217       -1768.444   131007602.24248  97830369.47308 100382461.36508  99106414.84908        51.850          49.300          50.650          53.550
E18  17950487.385    17950488.450    17950487.335    17950487.497       -2563.599       -1914.371       -1964.315       -1939.339    94330447.37549  70441569.25509  72279169.13009  71360366.62409        55.400          55.450          56.550          59.550
E21  26475006.631    26475008.635    26475007.827    26475007.997       -2850.549       -2128.712       -2184.241       -2156.489   139127087.29848 103893607.30307 106603869.34107 105248736.75308        50.750          46.100          47.600          50.400
E26  24718243.519    24718246.474    24718245.082    24718245.378        2628.586        1962.932        2014.115        1988.562   129895241.97548  96999708.02707  99530133.83707  98264919.86008        50.200          47.450          47.900          51.250
E31  27403980.912    27403984.357    27403983.102    27403983.403        2315.632        1729.325        1774.433        1751.941   144008896.04947 107539128.25007 110344490.26507 108941806.68607        46.050          43.050          44.250          47.300
G01  20434919.255    20434920.549    20434920.427    20434918.822        1356.840        1057.278        1057.278        1013.297   107386232.00409  83677599.81408  83677603.80908  80191038.31009        54.350          51.450          49.900          55.600
G03  24538777.547    24538780.020    24538779.523    24538779.229        3992.920        3111.369        3111.369        2981.864   128952148.39507 100482205.31107 100482202.29906  96295446.49007        45.050          42.800          40.000          46.800
G08  22089539.921    22089541.844    22089541.106    22089539.823       -2926.572       -2280.448       -2280.448       -2185.385   116081311.10108  90452979.11208  90452976.10507  86684086.03808        53.000          49.000          47.200          51.700
G10  23449097.041    23449098.356    23449098.319    23449096.149       -2888.071       -2250.445       -2250.445       -2156.636   123225843.15707  96020147.22507  96020130.21407  92019305.26508        46.600          47.500          44.850          49.100
G11  20144387.635                    20144385.141                         494.539                         385.355                   105859479.50208                  82487898.91308                        51.200                          48.900
G14  24846335.261                    24846334.706                        2991.050                        2330.689                   130568383.60707                 101741597.55805                        42.900                          34.600
G17  24351939.421    24351938.366    24351938.008                        3367.790        2624.258        2624.258                   127970303.85207  99717115.50707  99717108.49906                        46.200          42.450          40.900
G18  19934477.580                    19934475.945                        -465.086                        -362.405                   104756424.67609                  81628354.92207                        54.050                          47.700
G22  22992218.243                    22992215.277                        3133.793                        2441.919                   120824942.39408                  94149295.90207                        49.450                          45.200
G24  24449675.554    24449677.613    24449677.115    24449678.040        1524.927        1188.256        1188.255        1138.617   128483911.90907 100117355.32406 100117334.31406  95945791.88507        43.600          41.700          39.300          46.150
G27  25290111.713    25290114.335    25290113.896    25290113.935       -3883.465       -3026.078       -3026.079       -2900.084   132900411.28407 103558761.91306 103558754.91706  99243808.71807        44.400          40.600          39.900          44.300
G28  21807587.291                    21807584.440                         476.437                         371.249                   114599646.92208                  89298416.84307                        51.600                          44.800
G32  23589005.572    23589006.984    23589006.523    23589004.655        2055.845        1601.958        1601.959        1535.281   123961072.12908  96593054.61207  96593054.60406  92568344.12307        49.950          44.150          41.850          45.100
I06  41069338.804          37.077                          29.350
R03  22844009.015    22844007.494    22844007.697       -3627.164       -2821.129       -2821.128   122285781.38008  95111158.72607  95111162.72506        48.600          42.000          41.950
R05  21664443.186    21664444.828    21664444.892        3781.194        2940.932        2940.931   115808888.69508  90073592.84507  90073592.83607        50.500          46.400          45.950
R11  21140492.127    21140493.912    21140493.894       -1694.357       -1317.831       -1317.833   112968392.41208  87864309.79807  87864308.79007        51.600          47.900          47.150
R12  21879752.018    21879753.919    21879753.993        2159.061        1679.269        1679.269   116877711.67808  90904915.63407  90904922.62307        51.100          44.100          44.000
R19  22715096.699    22715096.902    22715096.540       -3958.448       -3078.795       -3078.795   121510441.05006  94508126.57006  94508122.56506        39.200          38.750          38.700
R20  19361933.564    19361936.547    19361935.526        -801.140        -623.110        -623.110   103536970.24807  80528759.10508  80528757.10308        46.850          48.950          48.850
R21  21041600.610    21041600.883    21041600.893        3266.212        2540.386        2540.386   112597856.57308  87576108.83908  87576114.83007        52.450          48.350          47.600
S23  40948919.842           -.616   215188026.12207        44.300
S36  40095257.894           3.805   210702003.56006        41.400
> 2019 09 27 10 06 00.0000000  0 41
C06  39276460.563    39276455.153        -174.585        -134.858   204522839.72807 158150026.51707        45.300          43.150
C09  38982810.252    38982806.808         787.863         609.126   202993732.24407 156967634.49007        46.850          45.100
C11  22002225.961    22002223.236       -1311.099       -1013.730   114571383.80608  88593853.86108        49.150          52.300
C16  39129832.304    39129832.547          17.052          13.276   203759311.27507 157559634.01207        47.000          43.600
C21  22950766.751                         264.291                   119510689.85908                        51.700
C22  25273934.420                       -2601.772                   131608013.90908                        49.950
C23  26408628.838                       -3200.512                   137516647.83507                        42.900
C28  24225661.519                        2911.296                   126149373.60908                        48.400
E01  25417049.812    25417051.846    25417050.251    25417050.448        -330.739        -246.999        -253.478        -250.232   133567495.98348  99741972.21708 102343924.27108 101042946.67608        51.200          51.250          50.450          53.550
E03  25664276.829    25664279.500    25664278.230    25664278.672        1133.186         846.245         868.283         857.246   134866708.77348 100712173.94808 103339436.96108 102025802.88808        49.450          49.650          50.000          52.550
E05  26940305.830    26940308.755    26940307.724    26940307.776       -1625.563       -1213.898       -1245.483       -1229.713   141572272.47948 105719570.12307 108477465.27207 107098517.13208        48.800          46.350          47.100          49.500
E08  25403859.150    25403861.573    25403859.837    25403860.145        3111.784        2323.792        2384.430        2354.162   133498193.88547  99690225.31107 102290833.05407 100990527.61007        46.250          43.800          42.900          46.050
E13  23206791.434    23206792.666    23206791.282    23206791.688         260.259         194.381         199.451         196.922   121952510.05448  91068457.94009  93444155.99008  92256304.39709        53.950          54.050          53.800          56.700
E15  24943279.797    24943282.921    24943281.739    24943281.956       -2343.985       -1750.319       -1795.984       -1773.145   131077830.73548  97882812.79908 100436272.78108  99159542.21908        52.350          50.350          50.600          53.150
E18  17965258.554    17965259.613    17965258.512    17965258.708       -2610.980       -1949.740       -2000.598       -1975.167    94408070.59549  70499534.64309  72338646.65609  71419088.08309        55.200          56.400          56.600          59.150
E21  26491302.896    26491304.768    26491303.771    26491304.297       -2858.390       -2134.413       -2190.080       -2162.302   139212724.26048 103957556.94307 106669487.24407 105313520.52408        50.950          46.600          47.250          49.650
E26  24703252.129    24703255.203    24703253.611    24703254.024        2623.682        1959.233        2010.331        1984.778   129816462.03748  96940878.86408  99469769.98607  98205323.35708        50.600          48.700          47.800          50.950
E31  27390790.749    27390793.964    27390792.877    27390793.282        2305.417        1721.734        1766.562        1744.136   143939581.13447 107487367.13107 110291378.86307 108889370.42907        46.600          44.150          44.150          46.900
G01  20427224.199    20427225.573    20427225.452    20427223.866        1339.109        1043.461        1043.460        1000.025   107345794.66109  83646090.19608  83646094.19108  80160841.59209        54.400          51.800          50.000          56.650
G03  24515991.339    24515993.781    24515993.183    24515993.639        3990.000        3109.093        3109.092        2979.586   128832406.77407 100388900.22106 100388897.20406  96206029.14908        44.500          40.850          38.400          49.250
G08  22106278.730    22106280.717    22106280.007    22106278.664       -2937.357       -2288.852       -2288.851       -2193.448   116169274.08608  90521521.67208  90521518.66807  86749772.65808        52.900          49.200          47.750          52.750
G10  23465619.233    23465620.566    23465620.495    23465618.442       -2900.070       -2259.794       -2259.794       -2165.540   123312667.73207  96087802.71207  96087785.70307  92084141.76008        47.100          47.800          45.450          50.250
G11  20141621.200                    20141618.682                         474.868                         370.027                   105844941.67608                  82476570.72508                        51.250                          49.650
G14  24829281.032                    24829280.472                        2984.083                        2325.259                   130478763.66107                 101671763.88506                        43.950                          37.150
G17  24332725.560    24332724.326    24332723.932                        3363.994        2621.292        2621.292                   127869333.62708  99638437.40707  99638430.40506                        49.750          42.250          38.600
G18  19937190.458                    19937188.746                        -485.142                        -378.033                   104770680.70208                  81639463.50908                        53.900                          48.150
G22  22974357.057                    22974354.375                        3123.733                        2434.078                   120731081.99108                  94076157.96507                        49.950                          44.700
G24  24441023.162    24441025.188    24441024.707    24441025.712        1506.648        1174.013        1174.012        1125.188   128438443.46007 100081925.39007 100081904.37906  95911838.18607        43.350          42.050          38.700          47.550
G27  25312286.554    25312289.190    25312288.653    25312288.918       -3884.712       -3027.053       -3027.054       -2900.790   133016940.50307 103649563.79506 103649556.79906  99330827.13707        44.650          41.850          39.200          43.750
G28  21804919.460                    21804916.682                         458.532                         357.297                   114585627.74708                  89287492.80907                        52.000                          44.700
G32  23577313.853    23577315.210    23577314.781    23577313.247        2040.253        1589.810        1589.809        1523.649   123899631.46008  96545178.76907  96545178.76606  92522463.12107        49.500          43.850          41.350          46.550
I06  41069055.219          37.334   161163794.19505        30.550
R03  22864379.269    22864377.901    22864377.969       -3642.176       -2832.806       -2832.806   122394825.39108  95195970.69206  95195974.69106        48.350          41.300          41.300
R05  21643266.955    21643268.761    21643268.764        3765.593        2928.794        2928.795   115695690.17208  89985549.58807  89985549.59107        50.650          45.850          45.250
R11  21150077.517    21150079.341    21150079.365       -1720.202       -1337.936       -1337.936   113019613.83508  87904148.65907  87904147.65507        51.850          47.000          46.750
R12  21867694.621    21867696.804    21867696.883        2134.939        1660.508        1660.508   116813305.49808  90854821.95607  90854828.94507        50.350          43.200          43.550
R19  22737312.317    22737312.658    22737312.324       -3963.990       -3083.107       -3083.105   121629279.59506  94600556.46606  94600552.48406        39.650          38.600          37.950
R20  19366484.852    19366487.823    19366486.803        -821.120        -638.649        -638.649   103561307.78207  80547688.29408  80547686.29108        47.400          48.400          48.450
R21  21023321.967    21023322.158    21023322.171        3254.997        2531.664        2531.665   112500043.09708  87500031.69807  87500037.69507        52.850          47.950          47.200
S23  40948923.988           -.691   215188048.36107        44.250
S36  40095238.199           3.672   210701897.70106        41.500
> 2019 09 27 10 06 30.0000000  0 41
C06  39277482.494    39277477.166        -180.057        -139.286   204528161.25207 158154141.47607        45.550          43.000
C09  38978287.916    38978284.606         782.194         604.684   202970183.95207 156949425.46407        46.800          45.100
C11  22009817.194    22009814.511       -1324.129       -1023.952   114610913.53208  88624420.76008        49.450          52.250
C16  39129751.796    39129751.894          11.036           8.422   203758891.74507 157559309.61507        47.400          43.750
C21  22949296.312                         246.163                   119503032.93008                        52.100
C22  25288955.460                       -2612.897                   131686232.54508                        49.800
C23  26427082.327                       -3205.131                   137612738.04607                        43.700
C28  24208907.233                        2904.936                   126062129.57708                        49.000
E01  25418984.146    25418986.184    25418984.562    25418984.799        -346.763        -259.030        -265.786        -262.390   133577660.97448  99749562.94208 102351713.02608 101050636.41408        51.250          50.800          50.400          53.900
E03  25657848.972    25657851.792    25657850.651    25657850.969        1118.781         835.402         857.103         846.249   134832930.86048 100686950.20408 103313555.21308 102000250.13908        51.350          49.400          50.150          53.050
E05  26949622.431    26949625.393    26949624.398    26949624.478       -1638.359       -1223.522       -1255.505       -1239.522   141621231.95948 105756130.74607 108514979.67107 107135554.64208        48.900          46.000          47.350          50.000
E08  25386107.118    25386109.337    25386107.403    25386107.912        3107.351        2320.502        2380.838        2350.774   133404905.92847  99620562.27207 102219352.72007 100919955.92307        45.200          43.300          42.750          46.450
E13  23205337.643    23205338.859    23205337.521    23205337.904         249.149         185.985         190.861         188.438   121944870.35449  91062752.96308  93438302.19208  92250525.00709        54.100          53.700          53.700          57.000
E15  24956680.018    24956683.113    24956681.908    24956682.145       -2350.501       -1755.318       -1801.124       -1778.226   131148249.06948  97935397.88908 100490229.66508  99212813.20908        52.300          49.900          50.550          53.600
E18  17980299.771    17980300.840    17980299.799    17980299.986       -2658.374       -1985.222       -2037.036       -2011.118    94487113.08649  70558559.86009  72399211.67009  71478883.19709        55.300          55.950          56.500          59.550
E21  26507643.225    26507645.320    26507644.184    26507644.668       -2866.193       -2140.350       -2196.209       -2168.291   139298593.18048 104021679.79707 106735282.87907 105378479.77308        51.300          46.400          47.600          50.300
E26  24688288.981    24688292.114    24688290.585    24688290.915        2618.406        1955.322        2006.276        1980.773   129737830.85548  96882160.78408  99409520.13408  98145839.39508        49.950          48.050          48.050          51.450
E31  27377659.384    27377662.643    27377661.353    27377661.847        2294.980        1713.663        1758.395        1736.070   143870575.23747 107435836.78707 110238504.24107 108837167.94307        47.000          44.000          44.000          47.350
G01  20419631.125    20419632.546    20419632.421    20419630.868        1321.003        1029.353        1029.353         986.389   107305893.10809  83614998.07008  83615002.06608  80131044.97809        54.600          51.800          50.000          56.300
G03  24493222.738    24493224.388    24493223.676    24493225.168        3986.859        3106.642        3106.642        2977.042   128712756.31807 100295666.10106 100295663.09405  96116679.91008        46.650          37.650          34.200          48.200
G08  22123079.355    22123081.364    22123080.612    22123079.267       -2948.344       -2297.413       -2297.412       -2201.773   116257561.76108  90590317.23208  90590314.22407  86815701.73208        53.350          49.400          47.550          52.200
G10  23482209.445    23482210.721    23482210.598    23482208.637       -2912.167       -2269.220       -2269.220       -2174.615   123399849.60208  96155736.59707  96155719.58907  92149245.07508        48.350          47.100          44.150          49.700
G11  20138966.592                    20138964.028                         455.065                         354.596                   105830991.19708                  82465700.21708                        51.800                          49.350
G14  24812268.596                    24812268.134                        2976.206                        2319.125                   130389363.77007                 101602101.69406                        42.800                          36.450
G17  24313532.996    24313531.598    24313531.095                        3360.011        2618.189        2618.190                   127768475.95807  99559846.98406  99559839.98706                        47.850          41.750          38.650
G18  19940018.165                    19940016.464                        -505.389                        -393.810                   104785540.46409                  81651042.53608                        54.000                          48.050
G22  22956553.961                    22956551.444                        3113.398                        2426.025                   120637526.64908                  94003257.73207                        49.800                          45.200
G24  24432474.041    24432476.107    24432475.593    24432476.402        1488.398        1159.790        1159.788        1111.419   128393517.47807 100046918.12707 100046897.11206  95878289.56307        43.600          42.350          38.800          46.800
G27  25334468.168    25334470.704    25334470.186    25334470.377       -3885.760       -3027.869       -3027.868       -2901.957   133133504.42907 103740392.72906 103740385.73206  99417871.57307        44.300          40.750          37.250          43.800
G28  21802354.562                    21802351.885                         440.344                         343.127                   114572149.46108                  89276990.24607                        51.650                          45.000
G32  23565711.273    23565712.886    23565712.505    23565711.140        2024.358        1577.423        1577.425        1511.525   123838661.48208  96497669.70207  96497669.70306  92476933.62107        49.200          43.700          40.750          45.650
I06  41068770.193          37.424   161162676.09705        30.750
R03  22884833.660    22884832.396    22884832.384       -3657.263       -2844.541       -2844.541   122504319.55408  95281132.73406  95281136.74106        48.400          41.300          41.650
R05  21622178.994    21622180.649    21622180.664        3749.534        2916.307        2916.307   115582963.30908  89897873.16907  89897873.17307        51.000          46.000          44.950
R11  21159808.598    21159810.146    21159810.104       -1746.173       -1358.135       -1358.134   113071612.55908  87944592.10807  87944591.10307        51.900          47.300          46.600
R12  21855773.636    21855776.002    21855776.089        2110.356        1641.388        1641.388   116749626.48008  90805293.80307  90805300.79307        50.900          43.350          43.250
R19  22759560.085    22759560.539    22759560.127       -3969.882       -3087.687       -3087.687   121748290.74406  94693120.70906  94693116.70106        38.850          38.550          38.150
R20  19371148.473    19371151.442    19371150.386        -841.285        -654.332        -654.333   103586246.11807  80567084.77608  80567082.77208        46.900          48.600          48.600
R21  21005106.936    21005107.045    21005107.069        3243.319        2522.582        2522.582   112402570.32008  87424219.53808  87424225.53807        52.800          48.000          47.350
S23  40948928.275           -.954   215188070.43407        44.350
S36  40095219.115           3.724   210701797.99606        41.350
> 2019 09 27 10 07 00.0000000  0 41
C06  39278535.921    39278530.629        -185.783        -143.558   204533646.67407 158158383.13207        45.500          42.650
C09  38973797.270    38973794.195         776.579         600.496   202946800.93607 156931344.23307        46.650          44.950
C11  22017482.917    22017480.251       -1337.212       -1033.975   114650830.98508  88655287.45808        49.450          52.100
C16  39129705.823    39129705.843           4.854           3.804   203758652.18607 157559124.37707        47.550          43.550
C21  22947929.517                         228.098                   119495915.62308                        51.850
C22  25304040.095                       -2623.947                   131764782.51608                        49.950
C23  26445561.476                       -3209.947                   137708963.06707                        43.200
C28  24192188.669                        2898.566                   125975072.72508                        48.650
E01  25421008.690    25421010.692    25421009.052    25421009.328        -362.699        -270.804        -277.846        -274.310   133588299.81548  99757507.52508 102359864.84908 101058684.61908        51.100          50.850          50.250          53.700
E03  25651503.498    25651506.024    25651504.938    25651505.122        1104.366         824.599         846.155         835.424   134799583.11348 100662047.67108 103288003.04008 101975022.78408        51.100          49.550          49.950          52.800
E05  26959011.895    26959014.819    26959013.900    26959013.866       -1651.240       -1232.989       -1265.246       -1249.090   141670573.63348 105792976.79107 108552786.90707 107172881.28008        49.000          45.950          47.100          49.650
E08  25368379.911    25368381.828    25368380.304    25368380.737        3103.028        2317.094        2377.495        2347.345   133311749.07247  99550997.18207 102147972.88407 100849483.46107        46.000          42.950          42.400          45.950
E13  23203946.502    23203947.697    23203946.385    23203946.773         238.083         177.767         182.400         180.092   121937559.85148  91057293.81908  93432700.63508  92244994.65909        53.950          53.650          53.600          56.750
E15  24970116.747    24970119.766    24970118.585    24970118.744       -2357.003       -1760.061       -1806.011       -1783.063   131218858.88548  97988125.97508 100544333.26608  99266229.05308        52.550          49.900          50.350          53.250
E18  17995610.379    17995611.437    17995610.423    17995610.614       -2705.524       -2020.368       -2073.080       -2046.721    94567571.00249  70618642.05909  72460861.22209  71539749.07209        55.250          55.900          56.250          59.150
E21  26524027.864    26524029.787    26524028.844    26524029.200       -2873.960       -2146.187       -2202.170       -2174.140   139384694.69748 104085976.36907 106801256.73907 105443614.98408        51.250          46.150          47.100          49.850
E26  24673354.789    24673357.938    24673356.534    24673356.837        2613.202        1951.511        2002.333        1976.958   129659351.72648  96823556.24208  99349386.77607  98086470.43708        50.250          48.100          47.950          51.100
E31  27364587.728    27364590.784    27364589.653    27364590.076        2284.493        1705.904        1750.379        1728.184   143801882.53047 107384540.29707 110185869.58507 108785202.36807        46.950          44.150          44.100          47.300
G01  20412140.660    20412142.081    20412141.976    20412140.427        1303.000        1015.325        1015.325         973.001   107266530.58409  83584325.98408  83584329.97908  80101650.89009        54.050          51.800          50.250          56.300
G03  24470472.422    24470473.339    24470472.620    24470474.860        3983.300        3103.870        3103.872        2974.578   128593202.01807 100202506.90406 100202503.90806  96027402.44407        47.500          39.050          37.150          46.650
G08  22139942.053    22139943.959    22139943.211    22139941.786       -2959.337       -2305.978       -2305.978       -2209.856   116346174.95508  90659366.46208  90659363.45307  86881873.90108        53.300          48.700          46.900          52.100
G10  23498867.686    23498868.854    23498868.782    23498866.760       -2924.060       -2278.489       -2278.489       -2183.550   123487388.76907  96223948.91407  96223931.90807  92214615.21008        47.850          46.950          44.800          49.350
G11  20136424.239                    20136421.643                         435.367                         339.247                   105817630.88308                  82455289.58608                        51.400                          49.200
G14  24795299.082                    24795298.657                        2968.505                        2313.117                   130300189.26507                 101532615.07806                        43.200                          36.400
G17  24294362.107    24294361.286    24294360.872                        3355.809        2614.919        2614.919                   127667734.35908  99481347.13707  99481340.14006                        49.300          43.400          40.700
G18  19942961.069                    19942959.381                        -525.737                        -409.665                   104801005.78408                  81663093.44207                        53.600                          47.900
G22  22938809.850                    22938807.337                        3102.948                        2417.884                   120544280.81408                  93930598.69207                        49.350                          44.550
G24  24424028.923    24424030.976    24424030.541    24424031.208        1470.121        1145.548        1145.547        1097.729   128349138.11507 100012336.79706 100012315.78306  95845149.14307        43.900          41.950          39.650          47.300
G27  25356656.219    25356658.833    25356658.271    25356658.736       -3887.163       -3028.962       -3028.963       -2902.889   133250103.99007 103831249.46306 103831242.45106  99504942.53807        43.800          39.900          38.300          44.850
G28  21799893.179                    21799890.606                         422.103                         328.911                   114559215.07608                  89266911.50607                        51.350                          44.750
G32  23554199.444    23554201.013    23554200.503    23554199.118        2008.356        1564.952        1564.953        1499.759   123778166.97208  96450531.12207  96450531.12206  92431759.13607        49.800          43.750          40.850          45.600
I06  41068484.571          37.587   161161554.99204        29.700
R03  22905371.898    22905370.656    22905370.634       -3672.274       -2856.213       -2856.213   122614262.44707  95366643.81306  95366647.81806        47.850          40.850          40.800
R05  21601180.521    21601182.085    21601182.191        3733.589        2903.906        2903.905   115470714.55508  89810568.63607  89810568.62407        51.350          44.950          44.750
R11  21169685.046    21169686.558    21169686.565       -1772.320       -1378.472       -1378.472   113124388.95608  87985640.40707  87985639.40207        51.900          47.200          46.400
R12  21843989.950    21843992.255    21843992.416        2085.853        1622.330        1622.330   116686680.01908  90756335.47107  90756342.46407        49.750          43.950          43.200
R19  22781840.382    22781841.111    22781840.667       -3975.910       -3092.378       -3092.378   121867474.99706  94785819.49106  94785815.49106        38.450          39.150          37.950
R20  19375924.779    19375927.756    19375926.638        -861.586        -670.122        -670.122   103611786.98707  80586949.89708  80586947.89208        47.100          48.400          48.300
R21  20986956.447    20986956.486    20986956.451        3231.703        2513.548        2513.548   112305443.06808  87348676.13707  87348682.13007        52.750          47.700          47.050
S23  40948933.001          -1.018   215188094.00507        44.350
S36  40095198.465           3.557   210701694.37406        41.250
> 2019 09 27 10 07 30.0000000  0 41
C06  39279619.833    39279614.460        -190.602        -147.363   204539290.74707 158162747.49007        45.900          43.250
C09  38969337.360    38969334.663         771.541         596.603   202923578.32007 156913387.03807        46.700          45.300
C11  22025222.085    22025219.383       -1349.554       -1043.570   114691130.63208  88686449.69408        49.750          52.450
C16  39129693.456    39129693.514           -.610           -.364   203758587.41907 157559074.29407        47.550          44.000
C21  22946665.440                         210.654                   119489332.97508                        52.150
C22  25319187.029                       -2634.334                   131843656.66308                        49.600
C23  26464065.042                       -3213.740                   137805315.42607                        44.550
C28  24175505.655                        2892.881                   125888199.35408                        48.250
E01  25423122.335    25423124.348    25423122.733    25423123.004        -377.911        -282.216        -289.562        -285.871   133599407.18248  99765801.97708 102368375.68108 101067087.26108        51.000          51.250          50.550          53.600
E03  25645238.737    25645241.297    25645240.146    25645240.293        1090.370         814.258         835.486         824.929   134766661.22948 100637463.14308 103262777.17808 101950117.58708        49.900          49.900          50.050          52.700
E05  26968472.812    26968475.716    26968474.802    26968474.848       -1663.441       -1242.099       -1274.541       -1258.353   141720291.06548 105830103.42707 108590882.07107 107210492.18208        49.000          46.050          47.200          49.400
E08  25350677.203    25350679.110    25350677.214    25350677.828        3098.961        2314.073        2374.463        2344.180   133218720.19647  99481527.60407 102076691.02307 100779107.75107        46.300          44.050          42.550          46.000
E13  23202617.042    23202618.217    23202616.934    23202617.327         227.660         169.974         174.421         172.209   121930573.51049  91052076.75409  93427347.46608  92239709.54009        54.000          54.000          53.900          56.650
E15  24983588.796    24983591.678    24983590.486    24983590.674       -2362.787       -1764.378       -1810.442       -1787.451   131289654.21248  98040992.59808 100598579.01808  99319785.24208        52.200          50.350          50.550          53.100
E18  18011188.225    18011189.212    18011188.177    18011188.413       -2751.938       -2055.027       -2108.650       -2081.831    94649432.87949  70679772.67009  72523586.54809  71601677.03909        55.650          56.150          56.450          59.050
E21  26540455.450    26540457.502    26540456.460    26540456.700       -2881.210       -2151.580       -2207.677       -2179.605   139471021.85448 104150441.42207 106867403.48907 105508920.88608        51.300          46.850          47.500          49.850
E26  24658448.739    24658451.981    24658450.576    24658450.809        2608.782        1948.056        1998.903        1973.438   129581020.27548  96765062.00408  99289366.58708  98027213.23008        50.150          48.350          48.650          51.150
E31  27351574.753    27351578.004    27351576.631    27351577.212        2274.232        1698.324        1742.655        1720.547   143733499.56547 107333475.14107 110133472.27407 108733471.13707        46.500          44.750          43.600          46.900
G01  20404752.000    20404753.416    20404753.296    20404751.750        1285.401        1001.611        1001.611         959.907   107227702.87309  83554070.61908  83554074.61308  80072656.16409        54.250          51.700          50.300          56.750
G03  24447739.775    24447740.838    24447740.126    24447741.935        3980.567        3101.744        3101.745        2972.517   128473741.11607 100109420.53807 100109417.54206  95938194.69807        46.650          42.850          40.850          44.550
G08  22156865.260    22156867.049    22156866.270    22156864.884       -2969.504       -2313.899       -2313.899       -2217.516   116435106.70308  90728663.89408  90728660.88607  86948283.94108        53.550          48.800          46.650          52.350
G10  23515592.279    23515593.498    23515593.461    23515591.407       -2935.152       -2287.131       -2287.131       -2191.874   123575277.59407  96292433.68007  96292416.67407  92280246.43508        47.600          47.350          44.650          49.900
G11  20133993.345                    20133990.749                         416.183                         324.298                   105804856.50508                  82445335.51808                        51.650                          49.150
G14  24778372.181                    24778371.724                        2961.604                        2307.745                   130211237.65807                 101463302.21505                        44.100                          35.400
G17  24275213.464    24275212.313    24275211.924                        3352.532        2612.362        2612.362                   127567105.87408  99402935.30007  99402928.30306                        50.500          43.100          41.500
G18  19946018.078                    19946016.434                        -545.293                        -424.904                   104817070.78408                  81675611.62208                        53.450                          48.100
G22  22921124.081                    22921121.553                        3092.995                        2410.126                   120451341.70708                  93858178.62807                        49.050                          44.750
G24  24415687.296    24415689.302    24415688.774    24415689.697        1452.337        1131.692        1131.692        1084.467   128305302.20307  99978178.94506  99978157.93306  95812414.52608        43.800          41.650          39.000          48.300
G27  25378849.744    25378852.662    25378852.209    25378852.387       -3887.862       -3029.509       -3029.509       -2903.383   133366732.38307 103922128.62906 103922121.62806  99592035.07807        43.900          41.500          39.100          43.600
G28  21797534.460                    21797531.975                         404.257                         315.006                   114546820.10008                  89257253.08307                        51.400                          45.050
G32  23542777.831    23542779.427    23542778.936    23542777.377        1992.957        1552.954        1552.955        1488.180   123718145.07608  96403760.82107  96403760.81906  92386937.60807        49.500          44.750          41.550          46.500
I06  41068196.883          37.619                          29.750
R03  22925992.291    22925990.987    22925990.840       -3686.459       -2867.250       -2867.249   122724644.51107  95452496.45906  95452500.46606        47.300          41.600          41.750
R05  21580271.398    21580272.775    21580272.786        3717.836        2891.650        2891.650   115358943.09008  89723635.28107  89723635.27707        50.850          45.800          45.350
R11  21179705.532    21179706.919    21179706.887       -1797.478       -1398.038       -1398.039   113177934.82408  88027287.18407  88027286.18007        52.100          47.350          46.800
R12  21832342.990    21832345.238    21832345.265        2061.874        1603.679        1603.680   116624463.93908  90707945.17007  90707952.16507        50.550          44.750          44.000
R19  22804151.922    22804152.195    22804151.759       -3981.101       -3096.413       -3096.413   121986825.33606  94878647.53306  94878643.52206        38.200          37.500          37.850
R20  19380812.673    19380815.646    19380814.514        -881.158        -685.345        -685.345   103637924.71207  80607279.22808  80607277.22408        47.150          49.100          49.000
R21  20968869.944    20968869.940    20968869.876        3220.599        2504.910        2504.910   112208658.39408  87273399.15508  87273405.15207        53.650          48.550          47.800
S23  40948937.899           -.582   215188116.78707        44.550
S36  40095177.131           3.827   210701584.20006        41.650
> 2019 09 27 10 08 00.0000000  0 41
C06  39280735.123    39280729.714        -196.486        -152.007   204545098.27307 158167238.24407        45.950          43.400
C09  38964909.257    38964906.755         765.580         591.964   202900521.20107 156895557.81807        46.650          45.550
C11  22033035.464    22033032.732       -1363.002       -1053.902   114731816.86808  88717910.87108        49.700          52.600
C16  39129715.587    39129715.650          -7.041          -5.459   203758702.32307 157559163.15407        47.650          44.050
C21  22945504.975                         192.128                   119483290.10908                        52.100
C22  25334396.875                       -2645.778                   131922857.90608                        49.550
C23  26482593.647                       -3218.495                   137901797.70107                        44.500
C28  24158858.780                        2886.081                   125801515.81608                        48.950
E01  25425326.099    25425328.066    25425326.477    25425326.795        -394.126        -294.375        -302.075        -298.199   133610987.95048  99774449.95308 102377249.26408 101075848.03808        51.200          51.000          50.800          53.100
E03  25639055.451    25639058.561    25639057.340    25639057.626        1075.543         803.170         824.085         813.636   134734171.09848 100613201.07008 103237882.17508 101925539.05208        49.200          49.350          50.000          52.000
E05  26978006.005    26978008.747    26978008.042    26978007.952       -1676.538       -1251.956       -1284.614       -1268.271   141770387.99148 105867513.46407 108629268.01407 107248390.16908        48.900          46.100          47.600          49.100
E08  25332999.794    25333001.904    25333000.152    25333000.460        3093.823        2310.363        2370.637        2340.524   133125826.04247  99412158.68207 102005512.46907 100708834.00307        47.100          43.350          43.650          45.750
E13  23201350.255    23201351.417    23201350.147    23201350.546         216.130         161.368         165.602         163.470   121923916.49249  91047105.60008  93422246.63009  92234673.54509        54.000          53.850          54.050          56.250
E15  24997096.807    24997099.752    24997098.449    24997098.751       -2369.613       -1769.497       -1815.635       -1792.604   131360639.33248  98094000.94008 100652970.19008  99373484.99908        52.000          50.100          50.650          52.650
E18  18027032.985    18027033.892    18027032.812    18027033.119       -2799.087       -2090.203       -2144.742       -2117.471    94732697.30949  70741950.64109  72587386.55209  71664666.02909        55.400          56.000          56.600          58.600
E21  26556926.467    26556928.524    26556927.432    26556927.864       -2889.303       -2157.549       -2213.832       -2185.701   139557577.89248 104215077.38807 106933725.62607 105574399.94108        50.800          46.150          47.100          48.950
E26  24643571.961    24643575.169    24643573.964    24643574.124        2603.051        1943.841        1994.580        1969.204   129502842.45948  96706682.45908  99229464.10608  97968072.21508        49.850          48.250          49.050          50.900
E31  27338622.124    27338625.527    27338624.007    27338624.373        2263.464        1690.141        1734.181        1712.123   143665433.08047 107282646.31007 110081317.46407 108681979.32107        46.600          44.900          44.250          46.850
G01  20397466.203    20397467.650    20397467.513    20397465.978        1266.960         987.241         987.241         946.082   107189415.81909  83524236.55008  83524240.54608  80044065.18709        54.500          52.550          51.050          56.600
G03  24425026.295    24425027.822    24425027.273    24425027.885        3976.588        3098.642        3098.643        2969.616   128354381.12607 100016412.85707 100016409.85207  95849062.28207        46.250          44.950          42.250          42.250
G08  22173849.700    22173851.502    22173850.752    22173849.415       -2980.759       -2322.671       -2322.672       -2225.909   116524360.86108  90798212.54708  90798209.54107  87014934.73008        53.200          49.050          47.100          52.000
G10  23532383.952    23532385.208    23532385.169    23532383.128       -2947.540       -2296.788       -2296.788       -2201.083   123663518.68507  96361192.92507  96361175.92307  92346140.71408        47.850          47.700          45.750          49.650
G11  20131675.054                    20131672.417                         395.980                         308.553                   105792673.49808                  82435842.26308                        51.850                          49.800
G14  24761489.164                    24761488.413                        2953.057                        2301.085                   130122516.85707                 101394169.15906                        42.350                          37.300
G17  24256087.057    24256085.828    24256085.434                        3347.972        2608.809        2608.809                   127466596.10708  99324616.02407  99324609.02406                        49.600          43.750          41.250
G18  19949190.063                    19949188.495                        -565.944                        -440.996                   104833740.03408                  81688600.64008                        53.500                          48.450
G22  22903498.031                    22903495.389                        3081.911                        2401.488                   120358716.60908                  93786003.27107                        49.800                          44.800
G24  24407450.423    24407452.298    24407451.700    24407452.905        1433.283        1116.842        1116.842        1070.369   128262016.94907  99944450.15506  99944429.15006  95780091.09808        43.400          41.450          39.800          48.450
G27  25401049.741    25401052.717    25401052.251    25401052.197       -3889.385       -3030.694       -3030.696       -2904.535   133483393.16207 104013033.05206 104013026.05206  99679151.83407        43.700          41.250          38.150          43.950
G28  21795279.497                    21795277.013                         385.644                         300.501                   114534970.17608                  89248019.37607                        51.450                          45.700
G32  23531447.230    23531449.201    23531448.798    23531447.077        1976.390        1540.044        1540.043        1475.989   123658603.18508  96357364.57507  96357364.57307  92342474.52207        48.700          45.800          43.300          46.550
I06  41067908.262          37.509   161159295.85204        29.650
R03  22946694.960    22946693.696    22946693.620       -3701.660       -2879.073       -2879.072   122835467.11707  95538691.75407  95538695.76307        47.600          42.700          42.050
R05  21559453.196    21559454.640    21559454.661        3701.165        2878.683        2878.684   115247658.05408  89637080.28707  89637080.29107        51.650          47.050          46.400
R11  21189870.519    21189871.825    21189871.769       -1823.713       -1418.446       -1418.445   113232253.14608  88069534.76008  88069533.75707        51.850          48.300          47.400
R12  21820834.381    21820836.461    21820836.523        2036.645        1584.053        1584.055   116562986.09408  90660129.07407  90660136.07407        50.400          45.250          44.550
R19  22826494.983    22826495.357    22826495.016       -3987.383       -3101.302       -3101.301   122106345.05106  94971607.22106  94971603.21906        39.100          40.550          39.800
R20  19385813.111    19385815.988    19385814.864        -901.670        -701.300        -701.299   103664663.70507  80628076.22108  80628074.21808        47.600          49.600          49.700
R21  20950848.926    20950848.778    20950848.695        3208.375        2495.403        2495.403   112112223.65108  87198394.36408  87198400.36108        53.900          48.450          48.400
S23  40948942.862          -1.172   215188142.39207        44.500
S36  40095157.751           3.107   210701477.23106        41.550
> 2019 09 27 10 08 30.0000000  0 41
C06  39281881.415    39281875.979        -201.582        -155.776   204551067.13807 158171853.72307        45.850          42.350
C09  38960512.662    38960510.168         760.331         587.962   202877627.78707 156877855.17207        46.700          44.200
C11  22040922.539    22040919.862       -1375.593       -1063.580   114772887.08208  88749668.96208        49.450          51.800
C16  39129771.823    39129771.806         -12.762          -9.899   203758994.77807 157559389.29807        47.850          43.150
C21  22944447.804                         174.400                   119477785.07508                        52.250
C22  25349668.669                       -2656.241                   132002382.18108                        49.750
C23  26501146.269                       -3222.441                   137998405.53807                        44.550
C28  24142248.434                        2879.804                   125715021.54408                        48.450
E01  25427619.605    25427621.353    25427619.874    25427620.225        -409.763        -305.849        -313.889        -309.855   133623039.92048  99783449.77508 102386483.87508 101084965.25508        51.050          50.850          49.950          53.200
E03  25632954.575    25632957.550    25632956.565    25632956.905        1061.320         792.580         813.278         802.922   134702111.61748 100589260.54808 103213317.12208 101901286.26608        50.750          49.100          49.150          52.000
E05  26987610.770    26987613.594    26987612.778    26987612.704       -1688.850       -1261.102       -1293.936       -1277.520   141820861.11948 105905204.40807 108667942.20907 107286572.74208        49.050          45.650          46.300          48.800
E08  25315348.346    25315350.096    25315348.932    25315349.122        3089.528        2307.182        2367.350        2337.238   133033066.65347  99342890.33507 101934437.14406 100638662.17507        45.750          42.750          41.900          45.100
E13  23200145.786    23200146.930    23200145.649    23200146.053         205.420         153.487         157.471         155.477   121917586.85948  91042378.90908  93417396.64408  92229885.21009        53.850          53.700          53.150          56.200
E15  25010640.398    25010643.368    25010642.088    25010642.349       -2375.694       -1773.906       -1820.202       -1797.080   131431811.37748  98147148.86408 100707504.58908  99427326.16108        51.550          49.950          49.750          52.700
E18  18043143.004    18043143.843    18043142.760    18043143.061       -2845.155       -2124.562       -2179.992       -2152.269    94817355.71449  70805169.57509  72652254.68109  71728709.55909        55.350          55.850          55.750          58.650
E21  26573440.378    26573442.600    26573441.357    26573441.756       -2896.495       -2162.948       -2219.336       -2191.158   139644358.95048 104279881.39107 107000220.17507 105640049.21608        50.650          46.550          46.550          49.300
E26  24628724.249    24628727.428    24628726.247    24628726.424        2598.226        1940.292        1990.841        1965.545   129424817.03748  96648416.72507  99169678.40708  97909046.50008        50.150          47.950          48.000          50.900
E31  27325729.744    27325733.096    27325731.515    27325731.747        2252.799        1682.579        1726.413        1704.432   143597682.78447 107232053.53807 110029404.87207 108630726.64107        46.850          44.000          43.250          46.500
G01  20390283.095    20390284.512    20390284.370    20390282.839        1249.122         973.341         973.341         932.832   107151668.19609  83494822.82008  83494826.81508  80015877.02009        54.100          52.400          51.400          56.550
G03  24402331.954    24402333.918    24402333.317    24402332.837        3973.570        3096.291        3096.291        2967.322   128235122.43807  99923484.13907  99923481.13407  95760005.50207        46.150          45.000          42.850          43.900
G08  22190894.686    22190896.442    22190895.670    22190894.508       -2991.117       -2330.743       -2330.743       -2233.568   116613933.05208  90868009.03408  90868006.02107  87081823.00108        52.750          48.950          47.500          51.850
G10  23549241.750    23549243.102    23549243.076    23549241.028       -2958.844       -2305.595       -2305.596       -2209.435   123752107.51407  96430223.16307  96430206.15107  92412294.66808        47.300          47.150          45.500          49.350
G11  20129469.116                    20129466.387                         376.426                         293.318                   105781080.71608                  82426808.92108                        51.800                          49.700
G14  24744650.336                    24744649.598                        2945.765                        2295.402                   130034027.68407                 101325216.59306                        43.050                          39.600
G17  24236983.591    24236982.315    24236981.909                        3344.250        2605.909        2605.909                   127366206.38908  99246390.28607  99246383.28806                        51.450          43.600          41.850
G18  19952476.507                    19952474.937                        -585.840                        -456.499                   104851010.54408                  81702058.17608                        53.150                          48.550
G22  22885931.860                    22885929.125                        3071.729                        2393.556                   120266405.79808                  93714072.79207                        49.050                          45.800
G24  24399318.091    24399319.969    24399319.265    24399320.681        1414.623        1102.303        1102.303        1056.919   128219281.41607  99911149.76606  99911128.76306  95748178.20608        42.400          40.850          40.550          48.100
G27  25423255.182    25423258.201    25423257.749    25423257.525       -3890.199       -3031.323       -3031.323       -2904.867   133600082.83207 104103960.04506 104103953.04106  99766290.12507        42.100          41.350          40.600          43.550
G28  21793128.106                    21793125.550                         367.747                         286.555                   114523664.17308                  89239209.49007                        51.600                          45.600
G32  23520208.202    23520210.042    23520209.603    23520207.993        1960.607        1527.744        1527.744        1464.220   123599541.55308  96311342.54207  96311342.53906  92298370.06807        49.700          44.750          41.800          46.050
I06  41067618.677          37.842                          29.500
R03  22967478.672    22967477.380    22967477.482       -3715.919       -2890.161       -2890.160   122946724.24207  95625225.04107  95625229.04506        47.000          42.050          41.750
R05  21538726.179    21538727.828    21538727.873        3684.897        2866.031        2866.033   115136861.14408  89550904.96707  89550904.97007        50.900          46.400          45.800
R11  21200179.081    21200180.456    21200180.420       -1849.038       -1438.140       -1438.140   113287339.43008  88112379.63707  88112378.63407        52.650          47.650          47.050
R12  21809463.780    21809466.047    21809466.120        2012.104        1564.970        1564.971   116502247.33908  90612887.84607  90612894.84407        50.400          44.500          43.900
R19  22848868.765    22848868.995    22848868.653       -3992.437       -3105.233       -3105.232   122226030.12906  95064695.59106  95064691.58806        38.000          37.600          37.100
R20  19390925.318    19390928.288    19390927.174        -921.428        -716.667        -716.667   103692001.40207  80649338.87308  80649336.86608        47.200          48.950          49.150
R21  20932893.342    20932893.038    20932893.014        3196.880        2486.462        2486.462   112016139.08808  87123661.92308  87123667.92107        53.450          48.600          47.750
S23  40948947.651           -.957   215188167.54407        44.100
S36  40095138.030           3.677   210701374.42406        41.200
> 2019 09 27 10 09 00.0000000  0 41
C06  39283058.378    39283052.964        -207.075        -160.117   204557195.89107 158176592.86507        45.700          43.250
C09  38956147.351    38956144.857         754.866         583.726   202854896.80207 156860278.14407        46.250          44.650
C11  22048882.934    22048880.387       -1388.335       -1073.505   114814339.33308  88781722.46508        49.200          52.550
C16  39129861.744    39129861.825         -18.855         -14.469   203759463.41607 157559751.67007        47.600          43.700
C21  22943493.758                         156.351                   119472816.62008                        52.600
C22  25365001.993                       -2666.971                   132082226.01808                        48.950
C23  26519722.289                       -3226.650                   138095135.19907                        45.000
C28  24125674.522                        2873.450                   125628716.54708                        48.450
E01  25430002.445    25430003.994    25430002.669    25430003.010        -425.487        -317.619        -325.916        -321.795   133635561.47248  99792800.28808 102396078.30508 101094437.72908        50.900          50.550          50.650          53.650
E03  25626936.110    25626938.515    25626937.733    25626938.053        1046.934         781.842         802.254         792.074   134670482.25248 100565641.21108 103189081.63108 101877358.84908        51.300          49.150          49.950          52.600
E05  26997286.679    26997289.314    26997288.477    26997288.511       -1701.294       -1270.422       -1303.519       -1286.949   141871707.75248 105943174.29107 108706902.60607 107325037.87808        49.550          45.450          47.050          49.300
E08  25297722.608    25297724.157    25297722.560    25297723.230        3085.061        2303.726        2363.869        2333.836   132940442.43847  99273722.96507 101863465.36807 100568592.59407        47.350          43.200          42.600          45.950
E13  23199003.376    23199004.510    23199003.219    23199003.617         194.434         145.249         149.042         147.159   121911583.35648  91037895.77708  93412796.55408  92225343.59809        53.750          53.400          53.900          56.700
E15  25024219.094    25024222.114    25024220.826    25024221.124       -2381.865       -1778.637       -1824.989       -1801.841   131503168.20548  98200434.78608 100762180.57508  99481307.11408        51.400          49.650          50.350          53.000
E18  18059516.795    18059517.585    18059516.506    18059516.765       -2891.369       -2159.087       -2215.404       -2187.232    94903400.15749  70869423.54709  72718184.83509  71793801.62009        55.450          55.700          56.400          59.000
E21  26589996.537    26589998.554    26589997.394    26589997.905       -2904.114       -2168.545       -2225.095       -2196.780   139731361.87148 104344851.08007 107066884.72207 105705866.33008        50.800          45.700          46.800          49.400
E26  24613905.433    24613908.439    24613907.444    24613907.600        2593.000        1936.419        1986.952        1961.652   129346943.49948  96590264.40607  99110009.07108  97850135.67408        49.700          47.800          49.050          51.450
E31  27312897.640    27312900.670    27312899.302    27312899.587        2242.425        1674.535        1718.173        1696.258   143530248.98347 107181697.16007 109977734.85207 108579713.44607        47.000          43.850          44.250          47.150
G01  20383202.581    20383203.921    20383203.780    20383202.271        1231.079         959.281         959.281         919.363   107114459.47409  83465828.99808  83465832.99408  79988091.29109        54.600          51.950          50.550          56.300
G03  24379657.155    24379659.497    24379658.901    24379658.327        3969.923        3093.451        3093.452        2964.643   128115966.22707  99830635.25807  99830632.25706  95671025.32807        45.450          43.400          41.600          46.250
G08  22207999.682    22208001.461    22208000.730    22207999.537       -3001.717       -2339.003       -2339.003       -2241.477   116703820.37608  90938051.05908  90938048.04807  87148946.61908        53.000          48.550          46.700          51.750
G10  23566165.103    23566166.464    23566166.424    23566164.388       -2970.458       -2314.646       -2314.645       -2218.081   123841040.23707  96499521.35107  96499504.34507  92478705.44608        47.400          46.600          44.850          49.250
G11  20127375.135                    20127372.408                         356.667                         277.922                   105770076.78108                  82418234.41608                        51.450                          49.300
G14  24727855.755                    24727855.059                        2937.496                        2288.957                   129945771.43307                 101256445.50306                        43.100                          36.500
G17  24217903.016    24217901.634    24217901.204                        3339.984        2602.584        2602.584                   127265936.30108  99168257.73507  99168250.73306                        50.550          43.550          41.550
G18  19955877.001                    19955875.467                        -605.922                        -472.149                   104868880.53108                  81715982.82508                        53.000                          48.000
G22  22868425.803                    22868422.890                        3060.979                        2385.180                   120174410.07108                  93642387.82107                        49.150                          45.100
G24  24391290.280    24391292.178    24391291.589    24391292.985        1396.913        1088.501        1088.502        1043.077   128177095.79407  99878277.82806  99878256.82405  95716676.01207        42.600          40.300          34.500          47.650
G27  25445465.563    25445468.540    25445468.101    25445467.826       -3891.224       -3032.123       -3032.123       -2905.725   133716798.44107 104194907.15306 104194900.15305  99853447.82307        42.050          38.200          35.350          42.800
G28  21791079.989                    21791077.344                         349.500                         272.336                   114512900.67408                  89230822.33807                        51.650                          45.100
G32  23509060.862    23509062.380    23509061.842    23509060.243        1944.374        1515.097        1515.096        1452.118   123540961.14908  96265695.45507  96265695.44807  92254624.96407        48.750          44.450          42.100          45.700
I06  41067327.915          38.697                          30.250
R03  22988342.584    22988341.315    22988341.319       -3730.290       -2901.341       -2901.342   123058410.41307  95712091.98606  95712095.98806        45.700          41.700          41.400
R05  21518091.188    21518092.912    21518092.991        3668.428        2853.222        2853.222   115026555.57108  89465111.77607  89465111.77107        50.800          46.050          45.800
R11  21210630.736    21210632.085    21210632.067       -1874.654       -1458.066       -1458.067   113343189.50808  88155818.56207  88155817.55507        51.900          47.050          46.500
R12  21798232.095    21798234.236    21798234.275        1987.307        1545.682        1545.683   116442249.14008  90566222.58407  90566229.58807        49.850          43.950          43.550
R19  22871272.953    22871273.594    22871273.252       -3997.877       -3109.464       -3109.465   122345877.14106  95157909.86606  95157905.86506        38.200          40.000          39.300
R20  19396149.138    19396152.163    19396151.044        -941.405        -732.206        -732.206   103719935.71407  80671065.53908  80671063.53608        46.400          48.650          48.600
R21  20915003.265    20915002.964    20915002.946        3184.969        2477.197        2477.197   111920405.67008  87049202.58908  87049208.59007        52.750          48.300          47.550
S23  40948952.171           -.912   215188191.80207        44.200
S36  40095117.762           3.012   210701270.43906        41.200
> 2019 09 27 10 09 30.0000000  0 41
C06  39284266.482    39284261.293        -212.604        -164.475   204563487.27207 158181457.75907        45.800          43.250
C09  38951813.726    38951811.337         749.305         579.379   202832331.38707 156842829.14607        46.050          44.550
C11  22056917.126    22056914.731       -1401.099       -1083.478   114856176.01108  88814073.23408        49.150          52.650
C16  39129986.021    39129986.143         -24.846         -19.154   203760111.02107 157560252.44607        47.650          43.600
C21  22942643.370                         138.418                   119468387.75508                        52.800
C22  25380396.789                       -2677.707                   132162390.34108                        49.900
C23  26538321.931                       -3230.673                   138191987.24507                        46.200
C28  24109137.784                        2866.868                   125542605.18008                        49.200
E01  25432475.173    25432476.593    25432475.371    25432475.678        -441.158        -329.448        -337.998        -333.709   133648555.40148  99802503.54108 102406034.68508 101104267.54508        51.100          50.500          50.650          53.150
E03  25621000.087    25621002.337    25621001.573    25621001.783        1032.418         770.979         791.130         781.039   134639286.81848 100542345.91608 103165178.63208 101853759.70808        51.000          49.300          49.950          52.200
E05  27007033.800    27007036.627    27007035.679    27007035.710       -1713.793       -1279.717       -1313.135       -1296.436   141922929.63948 105981424.36407 108746150.51507 107363786.87308        48.950          45.700          46.950          48.900
E08  25280123.384    25280125.006    25280123.564    25280123.929        3080.229        2300.275        2360.253        2330.259   132847958.34047  99204660.18007 101792600.95907 100498628.99807        46.150          42.700          43.500          45.650
E13  23197923.560    23197924.732    23197923.446    23197923.832         183.355         137.030         140.570         138.769   121905909.07748  91033658.48608  93408448.72708  92221051.04009        53.900          53.300          53.950          56.200
E15  25037833.357    25037836.488    25037835.118    25037835.504       -2388.131       -1783.302       -1829.821       -1806.572   131574712.01148  98253860.32708 100816999.83408  99535429.51308        51.700          49.550          50.450          52.600
E18  18076153.689    18076154.405    18076153.309    18076153.518       -2937.415       -2193.452       -2250.691       -2222.069    94990826.92149  70934709.75709  72785174.16609  71859939.39209        55.850          55.650          56.400          58.600
E21  26606595.003    26606597.208    26606595.910    26606596.427       -2911.416       -2174.147       -2230.808       -2202.483   139818587.81148 104409987.30407 107133720.15307 105771852.15508        50.300          46.150          46.850          49.050
E26  24599116.210    24599119.260    24599118.219    24599118.425        2587.748        1932.473        1982.929        1957.694   129269225.64248  96532228.36008  99050459.04108  97791342.63408        50.100          48.000          49.100          51.050
E31  27300126.555    27300129.592    27300128.196    27300128.508        2231.438        1666.401        1709.857        1688.172   143463136.37947 107131580.59707 109926310.89007 108528943.17307        46.700          43.850          44.100          46.600
G01  20376225.356    20376226.626    20376226.480    20376224.945        1212.934         945.147         945.147         905.789   107077793.42209  83437258.06508  83437262.06308  79960710.79609        54.900          51.800          50.300          56.200
G03  24357003.126    24357005.239    24357004.651    24357004.482        3966.355        3090.672        3090.671        2961.898   127996917.98407  99737870.47106  99737867.46306  95582125.74007        46.600          41.350          39.750          47.600
G08  22225165.032    22225166.772    22225166.035    22225164.894       -3012.279       -2347.228       -2347.228       -2249.339   116794024.17608  91008339.72508  91008336.71907  87216306.57008        53.550          48.700          46.550          51.800
G10  23583153.946    23583155.377    23583155.304    23583153.339       -2982.017       -2323.646       -2323.648       -2226.656   123930317.37908  96569087.94107  96569070.93407  92545373.40408        48.450          46.650          44.800          49.100
G11  20125393.867                    20125391.173                         336.922                         262.540                   105759665.24108                  82410121.54508                        51.900                          49.150
G14  24711106.690                    24711105.862                        2929.652                        2282.850                   129857754.04007                 101187860.58006                        42.750                          38.200
G17  24198845.931    24198844.548    24198844.127                        3335.879        2599.390        2599.390                   127165790.52808  99090222.11707  99090215.11406                        51.650          43.600          40.850
G18  19959391.947                    19959390.497                        -626.131                        -487.890                   104887352.17408                  81730376.33007                        52.800                          47.750
G22  22850980.737                    22850977.677                        3050.312                        2376.869                   120082734.99408                  93570952.73407                        49.750                          44.400
G24  24383368.203    24383369.852    24383369.373    24383370.959        1378.364        1074.056        1074.056        1029.273   128135464.94607  99845838.26806  99845817.26606  95685588.09407        43.650          40.000          36.850          47.250
G27  25467680.978    25467683.853    25467683.368    25467683.521       -3892.227       -3032.900       -3032.900       -2906.211   133833541.66307 104285875.83806 104285868.83906  99940626.06707        44.050          39.050          36.350          42.900
G28  21789135.825                    21789133.211                         331.266                         258.135                   114502683.88408                  89222861.22407                        51.650                          45.400
G32  23498005.933    23498007.604    23498007.159    23498005.376        1928.013        1502.353        1502.352        1439.783   123482867.20308  96220427.47607  96220427.46907  92211243.12107        48.600          45.650          42.950          46.150
I06  41067036.300          37.959                          30.700
R03  23009286.415    23009285.243    23009285.188       -3744.508       -2912.393       -2912.392   123170524.53607  95799291.81507  95799295.81506        46.800          42.650          41.900
R05  21497549.545    21497551.150    21497551.210        3651.683        2840.204        2840.203   114916748.10008  89379706.02607  89379706.01307        51.350          46.200          45.700
R11  21221225.314    21221226.672    21221226.598       -1900.046       -1477.811       -1477.811   113399803.71708  88199851.83807  88199850.83707        52.300          47.600          46.850
R12  21787139.962    21787142.165    21787142.240        1962.311        1526.250        1526.248   116382997.26208  90520137.81407  90520144.80607        50.200          44.350          44.200
R19  22893707.431    22893708.251    22893707.815       -4003.424       -3113.771       -3113.771   122465887.50106  95251251.23806  95251247.20806        37.950          38.200          37.350
R20  19401485.094    19401487.950    19401486.851        -961.330        -747.697        -747.697   103748468.92607  80693258.04908  80693256.04808        47.050          49.200          49.100
R21  20897179.713    20897179.506    20897179.543        3172.955        2467.859        2467.858   111825028.67908  86975020.51508  86975026.50907        53.050          48.750          47.850
S23  40948957.699          -1.198   215188219.90807        44.300
S36  40095097.697           3.073   210701166.19506        41.600
> 2019 09 27 10 10 00.0000000  0 41
C06  39285505.427    39285500.374        -217.819        -168.672   204569938.85707 158186446.53307        45.700          42.550
C09  38947511.409    38947509.161         743.847         575.191   202809929.41807 156825506.52007        45.800          44.150
C11  22065024.609    22065022.369       -1413.809       -1093.243   114898394.25208  88846719.03708        49.100          52.050
C16  39130144.305    39130144.245         -30.556         -23.730   203760935.23807 157560889.79407        47.600          42.800
C21  22941896.100                         120.632                   119464496.19208                        52.700
C22  25395852.201                       -2688.027                   132242870.75108                        49.000
C23  26556944.041                       -3234.509                   138288957.02707                        45.000
C28  24092638.043                        2860.548                   125456686.56408                        48.600
E01  25435037.239    25435038.651    25435037.448    25435037.760        -456.689        -341.217        -350.102        -345.630   133662019.13448  99812557.62908 102416351.06008 101114452.77608        50.700          50.400          50.100          53.100
E03  25615145.802    25615148.583    25615147.621    25615147.778        1017.888         760.104         779.958         770.022   134608523.79248 100519373.54108 103141606.97708 101830487.69008        50.250          49.250          49.100          52.000
E05  27016851.748    27016854.621    27016853.450    27016853.691       -1726.227       -1288.992       -1322.685       -1305.809   141974523.05348 106019951.90007 108785683.12707 107402816.94408        49.250          45.250          46.000          48.400
E08  25262550.539    25262552.355    25262551.139    25262551.471        3075.720        2296.626        2356.678        2326.646   132755613.86747  99135701.69007 101721843.55307 100428771.05407        47.450          42.700          42.700          45.550
E13  23196905.982    23196907.174    23196905.906    23196906.267         172.644         128.816         132.229         130.520   121900561.75548  91029665.37108  93404351.43908  92217005.83509        53.600          53.250          53.300          56.100
E15  25051482.690    25051485.821    25051484.542    25051484.847       -2394.139       -1787.914       -1834.581       -1811.267   131646439.67148  98307423.16308 100871959.96608  99589690.99808        51.800          49.250          49.800          52.350
E18  18093051.851    18093052.580    18093051.440    18093051.597       -2982.969       -2227.620       -2285.744       -2256.657    95079626.91149  71001021.43609  72853215.71409  71927116.00609        55.600          55.650          55.800          58.550
E21  26623235.235    26623237.497    26623235.939    26623236.741       -2918.552       -2179.516       -2236.418       -2207.904   139906032.61448 104475286.96507 107200723.30107 105838003.56108        50.350          45.850          45.600          48.650
E26  24584356.363    24584359.545    24584358.313    24584358.524        2582.632        1928.590        1978.897        1953.752   129191662.04048  96474307.49107  98991027.19108  97732666.27108        49.350          47.850          48.550          51.000
E31  27287416.434    27287419.415    27287418.105    27287418.436        2220.903        1658.414        1701.607        1680.086   143396344.37247 107081703.47507 109875132.64307 108478415.48507        46.850          43.750          43.600          46.550
G01  20369351.040    20369352.300    20369352.131    20369350.603        1194.956         931.133         931.133         892.286   107041668.51309  83409108.78208  83409112.77808  79933734.40609        54.800          51.700          50.150          56.150
G03  24334369.421    24334371.307    24334370.484    24334371.313        3962.632        3087.762        3087.760        2959.029   127877977.79707  99645189.85906  99645186.84905  95493306.88708        47.300          36.950          34.800          48.000
G08  22242389.795    22242391.582    22242390.856    22242389.601       -3022.631       -2355.298       -2355.297       -2257.156   116884540.42108  91078871.83408  91078868.82607  87283899.84308        53.350          48.300          46.600          51.500
G10  23600207.513    23600208.986    23600208.865    23600206.919       -2993.193       -2332.359       -2332.359       -2235.115   124019934.15608  96638919.15707  96638902.15307  92612294.99508        48.950          46.300          44.100          48.850
G11  20123525.022                    20123522.299                         317.277                         247.229                   105749844.28408                  82402468.84408                        51.700                          48.750
G14  24694403.188                    24694402.208                        2921.714                        2276.658                   129769976.06407                 101119462.16805                        43.400                          34.950
G17  24179812.317    24179810.807    24179810.392                        3331.906        2596.289        2596.290                   127065767.63108  99012282.19207  99012275.19706                        51.750          42.950          41.050
G18  19963020.763                    19963019.460                        -645.868                        -503.274                   104906422.29708                  81745236.15607                        53.050                          47.250
G22  22833596.464                    22833593.549                        3039.682                        2368.586                   119991380.03508                  93499767.10507                        49.650                          45.200
G24  24375551.567    24375553.077    24375552.540    24375554.157        1359.961        1059.712        1059.711        1015.384   128094387.93907  99813830.23506  99813809.22705  95654913.75807        44.400          39.450          35.950          46.850
G27  25489901.068    25489903.815    25489903.306    25489903.416       -3892.668       -3033.254       -3033.256       -2906.979   133950308.34207 104376862.81406 104376855.80906 100027821.93607        42.600          40.250          38.100          42.800
G28  21787295.347                    21787292.757                         313.027                         243.916                   114493011.94308                  89215324.62507                        51.550                          45.000
G32  23487043.574    23487045.408    23487045.053    23487043.245        1912.152        1489.991        1489.991        1427.738   123425259.66908  96175538.50507  96175538.49707  92168224.53907        48.900          45.100          42.300          46.550
I06  41066743.809          37.547                          29.300
R03  23030308.968    23030307.908    23030307.779       -3758.287       -2923.115       -2923.114   123283060.24607  95886819.53306  95886823.53806        46.650          41.350          41.050
R05  21477101.418    21477102.744    21477102.811        3635.104        2827.304        2827.304   114807440.64708  89294689.13307  89294689.13007        51.000          45.500          45.050
R11  21231962.155    21231963.370    21231963.316       -1925.216       -1497.390       -1497.390   113457177.15908  88244475.63507  88244474.62707        52.550          47.200          46.400
R12  21776187.751    21776189.869    21776189.881        1937.552        1506.985        1506.985   116324492.29308  90474633.96407  90474640.95807        49.950          43.750          42.800
R19  22916172.012    22916172.805    22916172.457       -4008.436       -3117.674       -3117.675   122586056.60406  95344716.06106  95344712.06106        37.350          40.300          39.500
R20  19406932.348    19406935.219    19406934.131        -980.972        -762.977        -762.977   103777597.97807  80715913.97808  80715911.97908        47.150          48.600          48.450
R21  20879422.770    20879422.591    20879422.619        3161.223        2458.728        2458.728   111730008.06508  86901115.59107  86901121.58907        53.300          47.850          47.150
S23  40948962.418           -.830   215188247.77207        44.100
S36  40095077.164           3.205   210701063.39306        41.250
> 2019 09 27 10 10 30.0000000  0 41
C06  39286775.470    39286770.365        -222.854        -172.395   204576552.32507 158191560.47707        45.650          42.600
C09  38943240.804    38943238.798         738.632         571.076   202787692.77407 156808311.74307        45.600          44.500
C11  22073205.668    22073203.496       -1426.189       -1102.843   114940995.19808  88879660.78208        49.050          52.400
C16  39130336.886    39130336.666         -36.237         -28.055   203761937.79107 157561665.03507        47.400          43.300
C21  22941252.328                         102.960                   119461143.80308                        52.800
C22  25411368.256                       -2698.299                   132323666.98208                        49.100
C23  26575588.565                       -3237.930                   138386043.94507                        45.450
C28  24076176.028                        2854.271                   125370963.93008                        49.150
E01  25437688.932    25437690.441    25437689.224    25437689.552        -472.158        -352.642        -361.776        -357.218   133675954.28048  99822963.73708 102427028.62708 101124994.61508        50.750          50.300          50.450          53.700
E03  25609374.469    25609377.510    25609376.169    25609376.532        1003.883         749.625         769.187         759.381   134578195.83048 100496726.05708 103118368.68708 101807544.80308        50.850          48.950          49.050          52.300
E05  27026740.510    27026743.337    27026742.094    27026742.431       -1738.143       -1298.000       -1331.792       -1314.912   142026488.56248 106058757.30007 108825500.83607 107442128.50208        49.500          45.100          46.400          49.050
E08  25245005.350    25245007.233    25245005.917    25245006.178        3071.023        2293.372        2353.213        2323.293   132663412.79347  99066850.26807 101651196.00407 100359021.56507        46.700          42.400          42.750          46.000
E13  23195950.992    23195952.193    23195950.966    23195951.298         161.998         120.969         124.130         122.574   121895543.35648  91025917.85408  93400506.16208  92213209.43909        53.550          53.100          53.650          56.650
E15  25065167.260    25065170.307    25065169.052    25065169.356       -2399.972       -1792.266       -1838.963       -1815.595   131718352.21748  98361124.07008 100927061.76008  99644092.34408        51.650          49.200          50.050          52.900
E18  18110210.267    18110211.092    18110209.943    18110210.047       -3028.127       -2261.293       -2320.241       -2290.763    95169795.13449  71068354.83809  72922305.63809  71995327.67009        55.250          55.600          56.200          59.100
E21  26639917.060    26639919.336    26639917.773    26639918.681       -2925.596       -2184.690       -2241.711       -2213.208   139993696.34748 104540750.09707 107267894.17207 105904320.56608        50.150          46.050          46.500          49.650
E26  24569626.302    24569629.496    24569628.369    24569628.523        2577.719        1924.932        1975.180        1950.137   129114255.30148  96416503.77107  98931715.54708  97674108.58608        49.650          47.900          49.100          51.850
E31  27274768.060    27274771.003    27274769.563    27274769.952        2210.329        1650.582        1693.681        1672.091   143329876.48847 107032068.39207 109824202.71507 108428132.98707        47.500          43.750          43.750          47.050
G01  20362580.212    20362581.418    20362581.275    20362579.705        1177.167         917.274         917.274         879.068   107006087.30509  83381383.17108  83381387.16708  79907164.02209        54.750          52.600          51.600          56.050
G03  24311757.162    24311758.021    24311756.966    24311759.462        3959.249        3085.131        3085.130        2956.573   127759150.04307  99552596.75606  99552593.75606  95404571.96207        45.950          39.550          36.900          47.350
G08  22259674.001    22259675.807    22259675.112    22259673.830       -3032.686       -2363.133       -2363.134       -2264.657   116975369.32408  91149647.57108  91149644.56207  87351726.58008        53.300          49.400          47.950          51.400
G10  23617325.548    23617327.032    23617326.955    23617325.048       -3003.923       -2340.720       -2340.720       -2243.260   124109889.90707  96709014.52107  96708997.51007  92679469.71408        47.850          47.300          45.450          48.700
G11  20121769.047                    20121766.340                         297.911                         232.138                   105740616.63408                  82395278.46208                        51.450                          49.950
G14  24677745.907                    24677745.010                        2913.903                        2270.575                   129682442.16507                 101051253.97506                        43.800                          36.600
G17  24160802.755    24160801.218    24160800.799                        3327.868        2593.146        2593.146                   126965871.98008  98934441.45407  98934434.45206                        50.900          43.550          40.950
G18  19966763.727                    19966762.498                        -665.455                        -518.536                   104926091.91408                  81760563.13108                        52.750                          48.950
G22  22816273.922                    22816271.033                        3029.055                        2360.302                   119900349.34108                  93428834.12707                        49.900                          46.050
G24  24367841.045    24367842.600    24367841.945    24367843.613        1341.575        1045.386        1045.385        1001.808   128053868.80207  99782256.92006  99782235.90606  95624656.00007        43.800          40.950          38.550          46.700
G27  25512125.776    25512128.400    25512127.882    25512127.808       -3893.267       -3033.719       -3033.716       -2907.385   134067098.85407 104467868.33706 104467861.33405 100115035.61807        42.550          39.750          35.600          42.250
G28  21785558.974                    21785556.296                         295.200                         230.024                   114483886.85608                  89208214.16907                        51.400                          46.200
G32  23476174.668    23476176.357    23476175.879    23476174.276        1895.810        1477.256        1477.256        1415.750   123368142.65508  96131031.74507  96131031.74707  92125572.23007        48.700          46.350          43.900          46.150
I06  41066450.306          38.567                          28.650
R03  23051410.001    23051409.012    23051408.895       -3771.929       -2933.724       -2933.725   123396015.38907  95974673.49007  95974677.48907        47.650          42.750          42.100
R05  21456747.809    21456749.167    21456749.104        3618.359        2814.280        2814.280   114698639.05208  89210065.70607  89210065.70907        50.550          46.400          45.800
R11  21242840.749    21242842.026    21242842.037       -1950.120       -1516.761       -1516.761   113515308.99808  88289689.26007  88289688.25707        53.150          47.750          47.000
R12  21765376.249    21765378.179    21765378.296        1912.617        1487.598        1487.596   116266738.79908  90429714.58307  90429721.57307        49.850          43.800          43.800
R19  22938665.817    22938666.947    22938666.662       -4013.431       -3121.557       -3121.555   122706384.92406  95438304.64106  95438300.64506        38.700          36.950          36.550
R20  19412491.220    19412494.165    19412493.111       -1000.614        -778.254        -778.255   103807324.06407  80739034.26108  80739032.25708        46.950          49.050          49.250
R21  20861733.237    20861733.107    20861733.111        3149.498        2449.610        2449.610   111635347.99108  86827491.10008  86827497.09807        53.000          48.350          47.800
S23  40948966.822           -.614   215188274.60607        43.950
S36  40095057.427           3.630   210700964.67506        41.050
> 2019 09 27 10 11 00.0000000  0 41
C06  39288076.091    39288070.969        -228.432        -176.674   204583325.16907 158196797.66107        45.600          43.300
C09  38939001.704    38938999.767         732.938         566.960   202765619.25407 156791243.11307        45.600          44.750
C11  22081459.687    22081457.574       -1439.048       -1112.776   114983975.98308  88912896.23308        49.100          52.950
C16  39130563.076    39130562.982         -42.036         -32.467   203763116.17707 157562576.22407        47.150          43.850
C21  22940711.580                          84.909                   119458328.19808                        52.750
C22  25426943.989                       -2708.818                   132404774.55408                        48.600
C23  26594254.577                       -3241.750                   138483243.29207                        45.500
C28  24059751.373                        2847.667                   125285436.25708                        49.350
E01  25440429.791    25440431.463    25440430.256    25440430.527        -487.890        -364.359        -373.786        -369.096   133690358.17348  99833719.87608 102438065.36208 101135891.05408        50.900          51.100          50.900          53.100
E03  25603686.075    25603688.673    25603687.129    25603687.754         989.211         738.744         758.076         748.393   134548301.40148 100474402.28508 103095462.54808 101784929.85008        51.600          49.350          49.350          51.550
E05  27036699.319    27036702.238    27036700.959    27036701.217       -1750.576       -1307.154       -1341.271       -1324.236   142078822.41748 106097837.73707 108865600.77607 107481718.69108        49.600          46.200          46.600          48.400
E08  25227487.344    25227489.006    25227487.736    25227488.107        3066.191        2289.765        2349.514        2319.647   132571354.59447  98998105.53007 101580657.93107 100289380.16207        46.800          43.100          43.000          45.250
E13  23195058.140    23195059.358    23195058.149    23195058.478         150.938         112.718         115.672         114.213   121890851.52248  91022414.20208  93396911.11409  92209660.08509        53.650          53.750          54.050          55.950
E15  25078886.417    25078889.439    25078888.127    25078888.471       -2406.229       -1796.784       -1843.691       -1820.265   131790446.46248  98414960.64508 100982302.77808  99698631.14408        51.700          49.900          50.600          52.250
E18  18127627.229    18127628.209    18127627.057    18127627.093       -3073.446       -2295.055       -2354.947       -2324.988    95261322.28149  71136703.01809  72992436.82009  72064567.34809        55.250          56.300          56.650          58.500
E21  26656639.741    26656642.091    26656640.542    26656641.430       -2932.858       -2190.036       -2247.158       -2218.597   140081574.69648 104606373.50807 107335229.50407 105970799.93708        49.600          46.350          46.900          48.750
E26  24554925.863    24554929.062    24554927.887    24554928.070        2572.428        1921.021        1971.065        1946.092   129037003.89348  96358816.03908  98872522.91708  97615668.40508        49.500          48.700          49.700          51.200
E31  27262181.293    27262184.223    27262182.550    27262182.955        2199.319        1642.464        1685.255        1663.845   143263731.99547 106982674.79307 109773520.56407 108378095.11307        47.500          44.350          44.050          46.250
G01  20355912.551    20355913.678    20355913.547    20355911.973        1158.806         902.966         902.967         865.431   106971048.19309  83354079.96208  83354083.96008  79880998.44609        55.100          51.400          50.050          56.800
G03  24289166.219    24289167.205    24289166.328    24289168.763        3955.220        3081.993        3081.992        2953.571   127640434.73107  99460091.35206  99460088.34806  95315920.98607        45.650          40.550          39.000          46.350
G08  22277016.845    22277018.723    22277018.018    22277016.663       -3042.945       -2371.127       -2371.126       -2272.361   117066506.53208  91220663.53608  91220660.53207  87419783.54908        53.250          48.050          46.100          51.700
G10  23634507.137    23634508.617    23634508.553    23634506.736       -3015.083       -2349.416       -2349.416       -2251.544   124200179.77307  96779370.22407  96779353.21607  92746893.93008        47.850          45.400          43.700          49.350
G11  20120125.525                    20120122.869                         278.058                         216.670                   105731980.13708                  82388548.72208                        51.400                          48.750
G14  24661135.185                    24661134.435                        2905.457                        2263.993                   129595152.33707                 100983235.93905                        43.200                          35.300
G17  24141817.467    24141815.787    24141815.292                        3323.488        2589.731        2589.731                   126866103.02408  98856699.39807  98856692.39806                        51.750          42.750          40.200
G18  19970620.241                    19970619.043                        -685.384                        -534.064                   104946358.01208                  81776354.88807                        52.850                          47.550
G22  22799013.072                    22799010.047                        3018.145                        2351.803                   119809642.74808                  93358153.71107                        50.450                          44.500
G24  24360236.367    24360237.972    24360237.557    24360238.884        1322.935        1030.858        1030.857         987.967   128013906.10207  99751117.16506  99751096.16106  95594813.73807        44.250          39.600          37.400          47.250
G27  25534354.056    25534356.713    25534356.171    25534356.460       -3893.929       -3034.225       -3034.225       -2907.860   134183909.42907 104558889.54606 104558882.53705 100202264.18707        43.050          37.200          32.600          43.000
G28  21783926.328                    21783923.568                         276.940                         215.798                   114475306.97108                  89201528.53607                        51.750                          44.700
G32  23465399.074    23465400.507    23465399.909    23465398.278        1879.329        1464.412        1464.413        1403.409   123311515.94508  96086907.02707  96086907.02807  92083286.04407        48.450          44.650          42.650          46.500
I06  41066155.129          38.799                          30.000
R03  23072588.216    23072587.201    23072587.144       -3785.684       -2944.421       -2944.421   123509383.50607  96062848.63506  96062852.63206        47.350          41.200          41.300
R05  21436489.066    21436490.290    21436490.273        3601.328        2801.034        2801.035   114590344.86908  89125836.94407  89125836.94107        50.300          45.400          45.200
R11  21253860.426    21253861.483    21253861.483       -1975.296       -1536.341       -1536.340   113574193.98608  88335488.69407  88335487.69207        53.100          46.700          46.350
R12  21754705.576    21754707.383    21754707.520        1887.527        1468.082        1468.082   116209737.21008  90385380.03507  90385387.02307        49.450          43.900          43.200
R19  22961188.830    22961189.851    22961189.464       -4018.667       -3125.636       -3125.635   122826867.79705  95532013.55806  95532009.56406        35.150          39.700          39.650
R20  19418161.207    19418164.212    19418163.191       -1020.552        -793.763        -793.762   103837644.18407  80762616.56608  80762614.55908        47.050          48.700          48.700
R21  20844111.015    20844110.950    20844110.944        3137.309        2440.130        2440.130   111541048.42008  86754146.98807  86754152.98607        53.150          47.800          47.250
S23  40948971.383          -1.002   215188299.72007        43.850
S36  40095036.688           3.502   210700860.39506        41.650
> 2019 09 27 10 11 30.0000000  0 41
C06  39289408.012    39289402.870        -233.928        -180.958   204590261.01907 158202160.89207        45.350          42.400
C09  38934794.822    38934792.820         727.183         562.337   202743712.71507 156774303.60307        45.700          43.900
C11  22089787.298    22089785.118       -1451.851       -1122.777   115027339.57708  88946427.70308        49.350          52.100
C16  39130823.723    39130823.889         -48.312         -37.430   203764474.08907 157563626.23907        47.000          43.250
C21  22940274.644                          66.849                   119456053.11008                        52.800
C22  25442579.968                       -2719.257                   132486195.10808                        48.600
C23  26612942.542                       -3245.646                   138580556.41107                        45.350
C28  24043365.308                        2840.895                   125200108.74108                        49.550
E01  25443260.556    25443262.350    25443261.074    25443261.373        -503.814        -376.242        -386.107        -381.178   133705234.31548  99844828.68008 102449463.96908 101147144.75708        51.100          50.900          50.150          53.850
E03  25598081.051    25598083.118    25598081.662    25598082.360         974.379         727.598         746.574         737.087   134518845.03848 100452405.64108 103072892.07608 101762646.29208        51.550          49.250          48.750          52.350
E05  27046728.760    27046731.629    27046730.300    27046730.682       -1762.988       -1316.643       -1350.950       -1333.793   142131527.06448 106137195.09007 108905984.84507 107521589.40108        49.850          45.600          45.650          48.950
E08  25209997.499    25209999.174    25209997.722    25209998.264        3060.984        2285.864        2345.474        2315.640   132479444.94748  98929471.72607 101510233.67707 100219851.13507        48.100          43.500          42.400          46.300
E13  23194228.167    23194229.411    23194228.208    23194228.539         139.825         104.315         107.055         105.703   121886490.18248  91019157.36308  93393569.31108  92206360.76909        53.650          53.600          53.300          56.800
E15  25092640.646    25092643.677    25092642.467    25092642.694       -2412.476       -1801.621       -1848.547       -1825.093   131862725.38548  98468935.14408 101037685.30208  99753309.65708        51.450          49.650          49.700          53.000
E18  18145302.144    18145303.317    18145302.132    18145302.128       -3118.752       -2328.962       -2389.726       -2359.326    95354205.14749  71206063.58709  73063606.79609  72134832.62209        55.300          56.200          55.850          59.300
E21  26673403.670    26673405.982    26673404.546    26673405.312       -2940.172       -2195.554       -2252.926       -2224.274   140169669.70048 104672158.71107 107402730.84007 106037443.20808        50.000          46.750          46.300          49.850
E26  24540255.791    24540259.004    24540257.911    24540258.080        2566.880        1916.838        1966.864        1941.831   128959912.47948  96301247.77608  98813452.87408  97557349.25808        49.900          48.450          49.150          52.150
E31  27249656.990    27249659.776    27249658.357    27249658.598        2188.161        1633.945        1676.622        1655.280   143197916.39247 106933526.82007 109723090.46707 108328306.07707        47.400          43.900          43.650          47.050
G01  20349348.862    20349349.958    20349349.846    20349348.290        1140.532         888.727         888.727         851.655   106936555.68109  83327202.68308  83327206.68008  79855241.05109        55.100          52.250          51.300          56.700
G03  24266597.786    24266599.432    24266598.674    24266600.449        3951.148        3078.822        3078.822        2950.416   127521838.14407  99367678.52107  99367675.51906  95227358.69107        45.200          43.850          41.600          43.900
G08  22294418.745    22294420.567    22294419.839    22294418.422       -3053.515       -2379.362       -2379.361       -2280.270   117157954.04508  91291921.32708  91291918.31907  87488072.25808        53.200          48.850          46.650          51.400
G10  23651752.459    23651754.006    23651753.943    23651752.206       -3026.468       -2358.288       -2358.288       -2260.096   124290805.05108  96849987.27607  96849970.27207  92814568.59808        48.750          46.350          43.250          48.950
G11  20118595.262                    20118592.656                         258.024                         201.058                   105723938.78608                  82382282.73808                        51.850                          49.400
G14  24644571.960                    24644571.452                        2896.848                        2257.288                   129508113.38607                 100915413.42106                        43.150                          36.800
G17  24122857.166    24122855.563    24122855.087                        3318.978        2586.217        2586.217                   126766465.99008  98779060.17107  98779053.16706                        52.000          43.100          40.550
G18  19974590.856                    19974589.672                        -705.610                        -549.824                   104967223.52408                  81792613.73308                        52.900                          48.650
G22  22781815.212                    22781811.852                        3007.000                        2343.117                   119719266.15608                  93287730.41307                        49.800                          45.600
G24  24352738.744    24352740.265    24352739.695    24352741.136        1303.700        1015.872        1015.872         973.598   127974505.61107  99720415.51306  99720394.50806  95565391.33107        44.150          40.400          37.750          47.100
G27  25556586.484    25556589.393    25556588.734    25556589.038       -3894.721       -3034.848       -3034.851       -2908.482   134300742.29307 104649928.04106 104649921.02906 100289509.39706        42.550          39.950          36.650          41.250
G28  21782398.138                    21782395.351                         258.424                         201.370                   114467276.40208                  89195270.94607                        51.300                          45.600
G32  23454717.815    23454719.299    23454718.809    23454716.975        1862.638        1451.407        1451.408        1390.841   123255385.59408  96043169.10407  96043169.11207  92041370.53007        48.000          46.200          43.800          46.850
I06  41065859.747          38.988                          29.750
R03  23093843.531    23093842.545    23093842.528       -3799.663       -2955.295       -2955.295   123623164.38007  96151344.80306  96151348.79806        47.150          40.950          40.650
R05  21416326.630    21416328.062    21416328.076        3583.928        2787.503        2787.503   114482566.05308  89042009.03507  89042009.03407        50.150          45.800          45.400
R11  21265021.092    21265022.371    21265022.312       -2000.616       -1556.033       -1556.033   113633833.47808  88381874.96107  88381873.95307        52.650          47.100          46.350
R12  21744176.785    21744178.460    21744178.464        1861.984        1448.213        1448.213   116153493.84308  90341635.15907  90341642.15907        49.400          43.250          42.600
R19  22983741.039    22983742.298    22983741.949       -4024.045       -3129.809       -3129.810   122947507.30006  95625844.17706  95625840.17506        38.450          37.850          36.850
R20  19423942.871    19423945.883    19423944.906       -1040.576        -809.335        -809.336   103868561.51007  80786663.36808  80786661.36408        46.900          48.250          48.200
R21  20826557.273    20826557.320    20826557.242        3124.924        2430.498        2430.498   111447115.27408  86681087.89207  86681093.89007        53.100          47.250          46.700
S23  40948976.781           -.850   215188329.61607        43.950
S36  40095017.673           3.197   210700760.23906        41.550
> 2019 09 27 10 12 00.0000000  0 41
C06  39290770.421    39290765.203        -239.023        -184.728   204597355.38107 158207646.69507        45.000          43.000
C09  38930619.274    38930617.104         722.284         558.527   202721969.11007 156757490.07207        45.450          44.000
C11  22098187.565    22098185.246       -1464.128       -1132.149   115071081.29708  88980251.56808        49.400          52.750
C16  39131118.063    39131118.370         -53.763         -41.509   203766007.08507 157564811.65407        47.100          43.500
C21  22939940.760                          49.288                   119454314.23608                        52.800
C22  25458274.900                       -2729.047                   132567922.29908                        48.750
C23  26631651.040                       -3248.933                   138677976.73707                        44.300
C28  24027017.072                        2834.639                   125114978.52708                        49.800
E01  25446180.413    25446182.280    25446180.942    25446181.212        -519.089        -387.612        -397.748        -392.646   133720578.11848  99856286.70808 102461220.90308 101158752.23508        51.050          51.250          50.700          53.800
E03  25592558.418    25592560.451    25592559.072    25592559.671         960.501         717.160         735.885         726.536   134489823.16048 100430733.46608 103050654.54108 101740691.43708        51.550          49.750          49.250          52.350
E05  27056827.650    27056830.600    27056829.198    27056829.548       -1774.894       -1325.417       -1359.952       -1342.649   142184596.88248 106176825.12607 108946648.71107 107561736.34908        49.900          46.250          46.350          49.100
E08  25192535.496    25192537.317    25192535.751    25192536.138        3056.569        2282.565        2341.996        2312.381   132387681.43147  98860947.05207 101439921.39807 100150432.65207        47.800          43.100          42.850          45.900
E13  23193460.281    23193461.552    23193460.339    23193460.685         129.266          96.532          99.081          97.821   121882455.08448  91016144.13108  93390477.47308  92203308.23309        53.600          53.800          53.800          56.650
E15  25106428.993    25106432.087    25106430.834    25106431.097       -2418.017       -1805.595       -1852.836       -1829.201   131935183.90448  98523043.73908 101093205.44208  99808124.02008        51.350          50.000          50.000          52.800
E18  18163232.792    18163234.204    18163232.986    18163232.994       -3162.971       -2361.984       -2423.589       -2392.777    95448432.36149  71276428.04209  73135806.84909  72206114.87609        55.300          56.400          56.300          59.100
E21  26690207.630    26690210.302    26690208.627    26690209.332       -2946.742       -2200.534       -2257.897       -2229.163   140257975.18748 104738101.06407 107470393.44407 106104245.68308        49.950          47.200          46.200          49.700
E26  24525615.575    24525618.801    24525617.747    24525617.919        2562.062        1913.292        1963.158        1938.210   128882977.53648  96243796.36608  98754502.73908  97499148.48608        50.050          48.800          49.550          52.000
E31  27237194.740    27237197.635    27237196.104    27237196.348        2177.930        1626.301        1668.666        1647.426   143132427.00047 106884622.42007 109672910.30607 108278763.79507        47.950          44.100          44.100          46.850
G01  20342888.435    20342889.603    20342889.480    20342887.932        1122.673         874.810         874.810         838.408   106902606.19909  83300748.53708  83300752.53208  79829889.16509        54.950          51.900          50.350          56.900
G03  24244051.858    24244053.954    24244053.341    24244053.465        3947.668        3076.105        3076.106        2947.954   127403358.53307  99275356.80007  99275353.80507  95138883.63907        45.200          44.650          43.250          43.700
G08  22311878.608    22311880.444    22311879.724    22311878.310       -3063.221       -2386.927       -2386.926       -2287.530   117249706.38508  91363416.62007  91363413.61707  87556588.58808        53.300          47.650          46.050          51.550
G10  23669060.471    23669061.991    23669061.920    23669060.085       -3037.037       -2366.523       -2366.524       -2267.932   124381758.93708  96920860.40907  96920843.40007  92882488.67908        48.850          45.250          42.900          48.800
G11  20117177.587                    20117174.964                         238.791                         186.070                   105716488.79008                  82376477.52708                        51.750                          48.800
G14  24628056.405                    24628055.717                        2889.165                        2251.296                   129421323.88307                 100847785.26506                        43.750                          36.250
G17  24103921.470    24103919.818    24103919.332                        3314.913        2583.049        2583.048                   126666958.42808  98701521.80807  98701514.80806                        52.050          42.600          40.550
G18  19978674.567                    19978673.360                        -724.992                        -564.930                   104988683.40108                  81809335.69307                        53.050                          47.750
G22  22764679.761                    22764675.960                        2996.322                        2334.797                   119629217.79308                  93217562.87507                        50.750                          43.800
G24  24345347.468    24345348.974    24345348.462    24345349.858        1285.576        1001.744        1001.745         959.935   127935664.34807  99690149.59906  99690128.59506  95536386.53207        44.300          39.850          38.400          47.300
G27  25578822.012    25578825.141    25578824.545    25578824.859       -3895.140       -3035.182       -3035.179       -2908.653   134417591.54706 104740979.28906 104740972.28706 100376766.87006        41.900          38.800          37.900          41.650
G28  21780973.702                    21780971.003                         240.605                         187.483                   114459791.41308                  89189438.47707                        51.600                          44.500
G32  23444130.569    23444132.253    23444131.859    23444130.115        1846.479        1438.813        1438.813        1378.866   123199749.50308  95999816.32007  95999816.31307  91999824.11007        48.600          46.000          43.150          47.650
I06  41065562.234          39.328                          30.600
R03  23115174.339    23115173.210    23115173.154       -3812.665       -2965.408       -2965.408   123737349.62507  96240155.48806  96240159.48806        46.800          40.500          40.400
R05  21396260.872    21396262.138    21396262.111        3567.129        2774.433        2774.433   114375302.49808  88958581.84107  88958581.84107        50.850          46.250          45.650
R11  21276321.702    21276322.876    21276322.824       -2025.092       -1575.072       -1575.073   113694220.03508  88428842.25907  88428841.25707        52.950          46.850          46.300
R12  21733789.611    21733791.181    21733791.302        1837.111        1428.862        1428.864   116098007.12908  90298478.81907  90298485.82107        50.550          43.600          43.250
R19  23006321.412    23006322.460    23006322.025       -4028.843       -3133.548       -3133.548   123068297.14705  95719791.82306  95719787.82106        35.400          38.000          38.150
R20  19429835.302    19429838.229    19429837.239       -1060.007        -824.451        -824.451   103900070.70907  80811170.50108  80811168.50208        47.050          48.200          48.300
R21  20809071.670    20809071.746    20809071.681        3113.084        2421.286        2421.286   111353546.52008  86608312.19407  86608318.18807        53.000          47.250          46.850
S23  40948982.093           -.410   215188357.57907        44.050
S36  40094997.885           3.472   210700656.88706        41.550
> 2019 09 27 10 12 30.0000000  0 41
C06  39292163.219    39292158.078        -244.290        -188.903   204604608.20107 158213255.03207        45.550          43.000
C09  38926474.988    38926472.692         716.879         554.172   202700388.58807 156740802.67507        45.550          44.000
C11  22106660.353    22106657.837       -1476.741       -1141.964   115115200.49308  89014367.31708        49.800          52.500
C16  39131446.138    39131446.369         -59.774         -46.129   203767715.17107 157566132.44707        47.350          43.350
C21  22939709.938                          31.333                   119453111.57608                        53.150
C22  25474028.387                       -2739.216                   132649954.08508                        48.550
C23  26650379.579                       -3252.464                   138775501.86907                        44.600
C28  24010706.817                        2827.755                   125030047.05008                        50.200
E01  25449189.277    25449191.176    25449189.710    25449190.008        -534.653        -399.303        -409.712        -404.525   133736389.31848  99868093.77308 102473335.97908 101170713.31108        51.400          51.050          50.550          53.200
E03  25587118.459    25587120.837    25587119.407    25587119.826         945.643         706.206         724.637         715.412   134461236.66448 100409386.40508 103028750.60008 101719065.93008        51.550          49.750          49.150          51.900
E05  27066995.770    27066998.679    27066997.426    27066997.600       -1786.868       -1334.494       -1369.251       -1351.871   142238030.51348 106216726.85307 108987591.34207 107602158.52808        50.000          45.850          45.800          48.250
E08  25175101.449    25175103.361    25175101.688    25175102.402        3051.403        2278.768        2338.274        2308.439   132296066.00547  98792532.95007 101369722.57207 100081126.19607        47.300          43.500          42.100          45.350
E13  23192754.492    23192755.820    23192754.572    23192754.930         118.415          88.359          90.667          89.505   121878746.32848  91013374.60808  93387635.70108  92200502.58409        53.550          53.650          53.700          56.100
E15  25120251.375    25120254.600    25120253.308    25120253.585       -2423.978       -1810.217       -1857.429       -1833.806   132007821.27548  98577285.90408 101148862.61908  99863073.69208        51.400          49.750          49.950          52.250
E18  18181417.978    18181419.503    18181418.302    18181418.328       -3207.524       -2395.246       -2457.744       -2426.515    95543996.85149  71347791.12209  73209031.57709  72278408.78209        55.050          56.200          56.150          58.600
E21  26707051.389    26707054.042    26707052.414    26707053.198       -2953.814       -2205.816       -2263.347       -2234.536   140346489.36748 104804199.28607 107538215.97707 106171206.05908        49.850          46.900          46.750          49.250
E26  24511005.300    24511008.414    24511007.495    24511007.683        2556.698        1909.269        1959.024        1934.107   128806199.99348  96186462.48508  98695673.20308  97441066.77808        49.700          48.750          49.600          51.650
E31  27224795.006    27224797.668    27224796.448    27224796.512        2166.728        1617.912        1660.226        1639.131   143067265.58248 106835962.93807 109622981.43407 108229469.61307        48.150          43.600          44.500          46.500
G01  20336531.495    20336532.753    20336532.604    20336531.036        1104.610         860.735         860.735         824.862   106869200.49209  83274718.12208  83274722.11708  79804943.34709        54.950          52.750          51.600          56.800
G03  24221528.533    24221531.186    24221530.739    24221529.811        3943.360        3072.751        3072.752        2944.694   127284998.42708  99183128.24607  99183125.24707  95050497.86707        48.600          45.250          42.200          44.800
G08  22329396.177    22329397.955    22329397.198    22329395.811       -3073.376       -2394.839       -2394.838       -2295.102   117341761.69908  91435148.01908  91435145.01507  87625331.16908        53.550          48.600          46.900          51.300
G10  23686430.576    23686432.021    23686431.964    23686430.093       -3047.826       -2374.930       -2374.929       -2276.040   124473038.98808  96991987.69707  96991970.69207  92950652.31408        48.750          46.350          44.200          48.200
G11  20115872.440                    20115869.801                         218.777                         170.476                   105709630.18608                  82371133.16408                        51.900                          49.450
G14  24611588.893                    24611588.137                        2880.414                        2244.481                   129334786.54307                 100780353.61606                        43.950                          37.950
G17  24085010.567    24085008.816    24085008.384                        3310.426        2579.555        2579.555                   126567580.87308  98624084.75407  98624077.75906                        50.600          43.300          41.050
G18  19982871.201                    19982869.994                        -744.792                        -580.357                   105010736.79708                  81826520.16108                        53.100                          48.700
G22  22747607.207                    22747603.079                        2985.287                        2326.200                   119539499.99908                  93147652.93507                        50.750                          44.700
G24  24338063.058    24338064.537    24338064.094    24338065.481        1266.766         987.091         987.092         946.037   127897384.18407  99660320.92306  99660299.91306  95507800.70607        44.350          40.650          37.550          47.100
G27  25601060.878    25601063.918    25601063.261    25601063.387       -3895.542       -3035.484       -3035.483       -2908.948   134534455.78907 104832042.32306 104832035.34006 100464035.55107        42.000          39.900          38.500          43.000
G28  21779653.252                    21779650.623                         222.324                         173.241                   114452852.57608                  89184031.59507                        51.750                          45.750
G32  23433637.799    23433639.578    23433639.087    23433637.381        1830.128        1426.075        1426.074        1366.486   123144609.88307  95956850.40707  95956850.39707  91958648.43007        47.450          46.600          43.850          47.000
I06  41065263.263          38.641   161148914.95104        29.050
R03  23136579.771    23136578.926    23136579.057       -3825.948       -2975.741       -2975.740   123851935.42707  96329277.68806  96329281.70306        46.600          41.500          41.000
R05  21376292.122    21376293.464    21376293.449        3549.635        2760.827        2760.828   114268557.99008  88875558.39507  88875558.39807        51.200          46.800          46.400
R11  21287761.562    21287762.739    21287762.735       -2049.850       -1594.327       -1594.327   113755351.02808  88476388.58307  88476387.58207        53.100          47.800          47.150
R12  21723544.564    21723546.187    21723546.243        1811.686        1409.091        1409.092   116043279.54908  90255912.95607  90255919.95207        50.850          45.400          44.100
R19  23028929.995    23028930.976    23028930.734       -4033.855       -3137.443       -3137.444   123189235.66706  95813855.04706  95813851.04606        37.000          39.550          39.200
R20  19435838.342    19435841.193    19435840.189       -1079.790        -839.836        -839.836   103932171.29107  80836137.63408  80836135.62408        47.650          48.900          48.950
R21  20791654.631    20791654.758    20791654.726        3100.737        2411.686        2411.686   111260344.58208  86535821.81208  86535827.81107        52.750          48.150          47.650
S23  40948987.521           -.620   215188384.96607        44.200
S36  40094978.906           3.666   210700557.40706        41.700
> 2019 09 27 10 13 00.0000000  0 41
C06  39293587.278    39293582.167        -250.035        -193.339   204612023.35907 158218988.88907        45.750          43.300
C09  38922362.808    38922360.458         710.697         549.642   202678975.38207 156724244.61507        45.600          44.650
C11  22115206.215    22115203.572       -1489.846       -1152.087   115159700.46008  89048777.52308        49.750          53.100
C16  39131808.570    39131808.663         -66.133         -51.115   203769602.23907 157567591.64507        47.350          43.950
C21  22939582.810                          12.852                   119452449.11608                        53.000
C22  25489840.606                       -2749.859                   132732292.46208                        48.900
C23  26669128.725                       -3256.320                   138873133.50607                        43.550
C28  23994435.842                        2820.584                   124945319.77508                        49.800
E01  25452287.781    25452289.680    25452288.118    25452288.464        -550.779        -411.296        -422.006        -416.648   133752671.70348  99880252.68808 102485812.08408 101183030.81808        51.400          51.100          51.100          53.550
E03  25581762.336    25581764.945    25581763.321    25581763.731         930.644         695.056         713.107         704.061   134433090.32048 100388368.04508 103007183.93208 101697773.42008        51.800          49.700          49.300          51.850
E05  27077233.663    27077236.498    27077235.077    27077235.580       -1799.645       -1343.951       -1378.928       -1361.418   142291830.73448 106256902.31107 109028814.87407 107642858.02308        50.300          45.650          46.250          48.350
E08  25157696.858    25157699.022    25157697.016    25157697.655        3045.851        2274.569        2333.815        2304.119   132204604.56048  98724233.87707 101299641.77007 100011936.25807        48.800          43.750          43.550          45.900
E13  23192111.603    23192112.984    23192111.721    23192112.073         106.878          79.856          81.955          80.897   121875368.09948  91010851.89308  93385047.17609  92197946.96709        53.450          53.700          54.200          56.300
E15  25134108.384    25134111.752    25134110.427    25134110.692       -2430.540       -1814.991       -1862.345       -1838.651   132080640.79948  98631664.08708 101204659.36308  99918161.15508        50.900          49.750          50.300          52.400
E18  18199857.167    18199858.681    18199857.449    18199857.552       -3252.337       -2428.678       -2492.021       -2460.344    95640895.50149  71420150.49209  73283278.58209  72351711.96909        55.450          56.250          56.600          58.800
E21  26723935.173    26723938.131    26723936.429    26723937.076       -2961.184       -2211.189       -2268.923       -2240.043   140435214.51448 104870455.01507 107606200.12707 106238326.00108        49.800          46.950          47.250          49.550
E26  24496425.955    24496429.037    24496428.016    24496428.348        2550.936        1904.964        1954.558        1929.735   128729584.73948  96129249.80308  98636968.01808  97383107.84708        50.250          49.050          49.950          51.900
E31  27212458.726    27212461.378    27212460.177    27212460.271        2155.257        1609.307        1651.323        1630.350   143002437.84047 106787552.62107 109573308.25007 108180427.86407        47.900          44.050          44.900          46.850
G01  20330278.978    20330280.236    20330280.120    20330278.519        1085.993         846.228         846.228         810.958   106836343.32309  83249115.12808  83249119.12208  79780407.14509        55.150          52.950          51.750          56.850
G03  24199029.291    24199032.093    24199031.700    24199030.586        3938.757        3069.165        3069.164        2941.266   127166764.36308  99090997.88407  99090994.88006  94962206.25107        48.650          43.300          40.900          47.000
G08  22346971.837    22346973.644    22346972.838    22346971.561       -3083.880       -2403.024       -2403.023       -2302.959   117434122.12108  91507117.16608  91507114.16207  87694301.59708        53.300          49.050          46.850          51.600
G10  23703862.977    23703864.471    23703864.389    23703862.344       -3059.132       -2383.741       -2383.740       -2284.493   124564646.82408  97063370.38707  97063353.37307  93019060.73008        48.700          46.550          43.500          48.050
G11  20114680.830                    20114678.247                         198.588                         154.745                   105703368.47608                  82366253.91108                        51.600                          50.150
G14  24595170.595                    24595169.788                        2871.359                        2237.426                   129248508.12407                 100713123.73906                        43.650                          37.400
G17  24066125.760    24066124.006    24066123.645                        3305.573        2575.772        2575.772                   126468340.58508  98546754.67807  98546747.67306                        50.850          43.350          40.900
G18  19987181.389                    19987180.162                        -765.166                        -596.233                   105033386.90108                  81844169.59708                        53.400                          48.900
G22  22730598.644                    22730594.295                        2973.527                        2317.034                   119450118.65908                  93078005.15907                        51.050                          44.650
G24  24330886.342    24330887.971    24330887.436    24330888.739        1247.453         972.042         972.043         931.579   127859670.39207  99630933.57206  99630912.56206  95479637.83407        44.200          40.350          37.550          46.850
G27  25623302.875    25623305.916    25623305.636    25623305.346       -3896.486       -3036.228       -3036.224       -2909.761   134651337.83707 104923119.07106 104923112.07005 100551317.45006        43.750          39.750          35.850          41.000
G28  21778437.566                    21778435.021                         203.599                         158.649                   114446464.30308                  89179053.71407                        51.450                          45.850
G32  23423240.287    23423242.351    23423241.809    23423239.755        1812.718        1412.507        1412.507        1353.570   123089972.98107  95914276.21607  95914276.21207  91917848.17307        47.200          47.000          43.950          46.950
I06  41064963.916          38.863                          30.500
R03  23158060.485    23158059.205    23158059.172       -3839.597       -2986.353       -2986.353   123966921.60007  96418711.37106  96418715.37306        47.700          40.400          40.350
R05  21356421.883    21356423.228    21356423.264        3531.495        2746.719        2746.719   114162340.67608  88792944.96907  88792944.96407        50.600          46.300          46.150
R11  21299340.984    21299342.102    21299342.071       -2075.138       -1613.997       -1613.997   113817227.65708  88524514.84107  88524513.83607        53.350          47.500          46.800
R12  21713442.837    21713444.444    21713444.448        1785.724        1388.897        1388.896   115989318.15808  90213942.99207  90213949.99107        51.550          44.200          43.750
R19  23051566.257    23051567.067    23051566.787       -4038.975       -3141.423       -3141.423   123310325.01206  95908035.58706  95908031.58706        36.150          38.050          37.600
R20  19441952.485    19441955.445    19441954.387       -1100.056        -855.599        -855.599   103964866.57007  80861567.29308  80861565.28608        47.250          48.850          48.750
R21  20774307.297    20774307.444    20774307.482        3087.831        2401.647        2401.647   111167515.93608  86463621.75307  86463627.75107        52.800          47.800          47.350
S23  40948993.516          -1.248   215188417.71107        44.250
S36  40094958.987           3.170   210700455.93006        41.700
> 2019 09 27 10 13 30.0000000  0 41
C06  39295042.108    39295036.847        -255.062        -197.188   204619598.30707 158224846.31407        45.900          43.100
C09  38918282.394    38918279.997         705.535         545.685   202657727.05807 156707814.07607        46.000          44.250
C11  22123824.578    22123821.841       -1502.254       -1161.536   115204578.31108  89083479.90508        50.000          52.650
C16  39132204.879    39132204.869         -71.726         -55.381   203771665.85707 157569187.36207        47.550          43.650
C21  22939558.888                          -4.768                   119452324.38408                        53.300
C22  25505710.968                       -2759.656                   132814932.89208                        48.200
C23  26687897.220                       -3259.403                   138970866.92507                        42.250
C28  23978204.016                        2814.112                   124860795.75108                        51.000
E01  25455475.431    25455477.312    25455475.697    25455476.051        -566.122        -422.669        -433.725        -428.230   133769422.51748  99892761.39808 102498647.11208 101195702.69208        51.500          50.900          50.750          53.700
E03  25576489.744    25576492.339    25576490.479    25576491.032         916.424         684.317         702.210         693.256   134405382.53648 100367677.17208 102985953.28308 101676812.65808        51.850          49.100          48.750          51.850
E05  27087540.536    27087543.376    27087542.051    27087542.389       -1811.444       -1352.675       -1387.892       -1370.209   142345993.76848 106297348.70807 109070316.38307 107683831.97308        50.050          45.800          45.950          48.750
E08  25140321.755    25140323.890    25140321.838    25140322.263        3041.238        2271.012        2330.197        2300.554   132113296.69947  98656049.46607 101229678.63807  99942862.48607        47.450          42.950          43.200          45.950
E13  23191531.206    23191532.595    23191531.338    23191531.666          96.259          71.932          73.763          72.850   121872318.06748  91008574.26708  93382710.13908  92195639.63409        53.550          53.350          53.850          56.450
E15  25147999.574    25148002.865    25148001.515    25148001.861       -2436.185       -1819.187       -1866.604       -1842.917   132153639.26948  98686175.90808 101260593.23108  99973384.00108        51.200          49.550          49.850          52.500
E18  18218548.567    18218549.880    18218548.611    18218548.810       -3296.072       -2461.282       -2525.499       -2493.381    95739118.63749  71493498.91009  73358540.44309  72426017.10709        55.750          55.950          56.250          58.950
E21  26740858.417    26740861.131    26740859.648    26740860.323       -2967.834       -2216.017       -2273.928       -2244.986   140524146.39048 104936865.13807 107674342.69307 106305602.35008        49.450          46.250          47.050          49.550
E26  24481877.233    24481880.304    24481879.144    24481879.523        2545.874        1901.154        1950.745        1925.923   128653130.24148  96072157.17608  98578386.00708  97325270.52708        50.300          48.850          49.650          52.100
E31  27200185.734    27200188.285    27200187.229    27200187.298        2144.372        1601.290        1643.119        1622.237   142937943.08947 106739390.97407 109523890.21507 108131638.02207        47.600          43.550          44.800          47.050
G01  20324130.489    20324131.810    20324131.675    20324130.082        1068.001         832.209         832.209         797.516   106804033.02809  83223938.27808  83223942.27508  79756279.32809        55.000          52.450          51.250          56.600
G03  24176553.995    24176556.459    24176555.832    24176555.826        3934.789        3066.071        3066.072        2938.403   127048656.43308  98998965.75206  98998962.75206  94874008.84008        48.200          39.900          37.750          48.300
G08  22364604.725    22364606.580    22364605.826    22364604.553       -3093.629       -2410.620       -2410.620       -2310.182   117526783.52808  91579320.83408  91579317.82707  87763496.76708        53.350          48.650          46.600          51.250
G10  23721356.743    23721358.332    23721358.206    23721356.208       -3069.717       -2391.988       -2391.989       -2292.257   124656577.58808  97135004.70007  97134987.68907  93087710.27607        48.800          45.300          42.700          47.550
G11  20113602.274                    20113599.742                         179.018                         139.495                   105697700.80808                  82361837.54008                        51.800                          49.500
G14  24578801.818                    24578801.392                        2862.791                        2230.748                   129162489.42707                 100646096.25006                        44.400                          36.950
G17  24047267.084    24047265.144    24047264.720                        3301.224        2572.382        2572.383                   126369237.20408  98469531.24307  98469524.25006                        50.800          43.200          40.050
G18  19991604.521                    19991603.273                        -784.597                        -611.374                   105056630.57308                  81862281.55008                        53.350                          48.400
G22  22713654.095                    22713649.661                        2962.550                        2308.482                   119361073.71408                  93008619.51407                        50.800                          44.700
G24  24323817.099    24323818.577    24323817.978    24323819.448        1228.949         957.624         957.622         917.778   127822521.91607  99601986.69406  99601965.68706  95451897.08707        44.550          39.600          37.550          46.450
G27  25645547.539    25645550.508    25645550.078    25645549.768       -3896.544       -3036.265       -3036.267       -2909.684   134768233.51606 105014206.61406 105014199.60705 100638609.60506        41.900          37.950          34.650          40.950
G28  21777326.341                    21777323.834                         185.504                         144.550                   114440624.88408                  89174503.50807                        51.600                          45.600
G32  23412938.700    23412940.945    23412940.506    23412938.397        1796.228        1399.661        1399.661        1341.347   123035838.62008  95872093.62607  95872093.62907  91877423.17807        48.050          46.950          44.150          47.400
I06  41064663.516          39.604                          31.400
R03  23179614.437    23179613.552    23179613.388       -3852.556       -2996.434       -2996.436   124082301.94307  96508451.53407  96508455.52907        47.500          42.250          42.000
R05  21336650.524    21336651.986    21336651.958        3514.182        2733.253        2733.253   114056652.33908  88710742.96307  88710742.96207        50.800          47.550          47.050
R11  21311059.005    21311060.003    21311060.016       -2099.475       -1632.924       -1632.924   113879844.73608  88573216.99808  88573215.99607        53.600          48.400          47.600
R12  21703484.504    21703486.175    21703486.236        1760.422        1369.219        1369.219   115936122.85708  90172568.88607  90172575.87707        51.650          45.750          45.100
R19  23074230.350    23074231.223    23074230.925       -4043.724       -3145.121       -3145.120   123431560.92706  96002330.15406  96002326.15506        36.250          41.200          40.650
R20  19448177.245    19448180.245    19448179.171       -1119.359        -870.612        -870.612   103998153.36807  80887457.00608  80887455.00608        47.250          49.600          49.550
R21  20757029.814    20757029.922    20757029.899        3075.673        2392.191        2392.191   111075060.43208  86391711.91708  86391717.92008        52.450          48.450          48.000
S23  40948999.547           -.935   215188449.50607        44.400
S36  40094940.125           3.321   210700355.59106        41.600
> 2019 09 27 10 14 00.0000000  0 42
C06  39296527.443    39296522.108        -260.411        -201.349   204627332.60207 158230826.95807        46.050          42.850
C09  38914233.732    38914231.234         700.153         541.401   202636643.56507 156691511.00607        46.350          44.200
C11  22132515.301    22132512.510       -1514.763       -1171.312   115249833.07408  89118473.75408        49.850          52.650
C16  39132634.953    39132634.956         -77.559         -59.937   203773905.52207 157570919.21807        47.400          43.650
C21  22939638.076                         -22.637                   119452736.92608                        53.450
C22  25521638.656                       -2769.755                   132897872.95908                        48.700
C23  26706684.853                       -3262.599                   139068699.49306                        41.950
C28  23962011.271                        2807.217                   124776476.04008                        50.900
E01  25458752.077    25458753.892    25458752.264    25458752.663        -581.725        -434.412        -445.717        -440.096   133786641.10748  99905619.43908 102511840.58008 101208728.44308        51.450          50.950          50.650          53.650
E03  25571300.739    25571303.105    25571301.250    25571301.872         901.534         673.301         690.898         682.075   134378113.68148 100347314.06108 102965058.95708 101656183.94208        52.050          49.050          48.800          51.750
E05  27097916.232    27097919.112    27097917.716    27097918.002       -1823.550       -1361.646       -1397.245       -1379.475   142400517.88148 106338064.73707 109112094.58407 107725079.09308        49.850          45.650          45.250          48.250
E08  25122975.792    25122977.826    25122975.925    25122976.511        3035.835        2267.020        2326.285        2296.619   132022143.91048  98587980.85307 101159834.30707  99873906.01407        48.300          43.200          43.000          45.950
E13  23191013.230    23191014.596    23191013.346    23191013.662          85.260          63.699          65.385          64.535   121869595.97148  91006541.53808  93380624.37508  92193580.38909        53.600          53.500          53.750          56.400
E15  25161924.625    25161927.979    25161926.574    25161926.899       -2442.213       -1823.680       -1871.228       -1847.452   132226815.55648  98740820.51108 101316663.35408 100028741.36308        50.850          49.550          49.850          52.550
E18  18237490.608    18237491.692    18237490.371    18237490.666       -3339.850       -2493.980       -2559.063       -2526.519    95838658.56549  71567830.65309  73434811.27809  72501318.39809        55.900          56.100          56.100          58.900
E21  26757820.571    26757823.272    26757821.949    26757822.336       -2974.612       -2221.267       -2279.210       -2250.224   140613282.80448 105003428.01107 107742641.98907 106373033.43208        50.050          46.900          46.850          49.750
E26  24467359.144    24467362.205    24467360.918    24467361.399        2540.307        1897.107        1946.673        1921.887   128576837.00948  96015184.94708  98519927.54908  97267555.18008        50.350          49.300          49.450          52.200
E31  27187976.399    27187979.013    27187977.864    27187977.956        2133.181        1592.840        1634.411        1613.714   142873782.61848 106691478.96107 109474728.30607 108083101.06007        48.300          43.650          44.500          46.900
G01  20318086.052    20318087.493    20318087.359    20318085.783        1049.663         817.919         817.919         783.902   106772269.87209  83199187.76408  83199191.76208  79732560.08609        55.000          52.450          51.300          56.800
G03  24154103.320    24154104.958    24154104.296    24154105.392        3930.368        3062.625        3062.624        2935.173   126930676.83108  98907033.58406  98907030.58005  94785907.26008        48.350          38.900          35.550          48.150
G08  22382294.562    22382296.330    22382295.580    22382294.374       -3103.639       -2418.421       -2418.421       -2317.600   117619743.71008  91651757.31508  91651754.30707  87832915.05508        53.600          48.700          46.500          51.300
G10  23738911.561    23738913.055    23738913.024    23738910.896       -3080.380       -2400.297       -2400.296       -2300.268   124748828.41908  97206888.43207  97206871.42307  93156598.84907        49.000          45.550          42.600          47.750
G11  20112636.824                    20112634.299                         159.148                         124.012                   105692627.31108                  82357884.16608                        51.450                          49.300
G14  24562482.931                    24562481.680                        2854.055                        2223.942                   129076732.55307                 100579272.74306                        43.650                          36.000
G17  24028434.081    24028432.472    24028432.109                        3296.555        2568.744        2568.743                   126270270.64308  98392414.49907  98392407.49606                        51.050          42.250          39.850
G18  19996140.347                    19996139.090                        -804.368                        -626.780                   105080466.44608                  81880854.95507                        53.500                          47.900
G19  25702944.615                    25702942.576                        4015.655                        3129.081                   135069885.94107                 105249246.64606                        43.700                          38.800
G22  22696773.785                    22696769.397                        2951.291                        2299.708                   119272367.02008                  92939497.44707                        51.050                          44.750
G24  24316855.847    24316857.227    24316856.751    24316858.152        1209.784         942.687         942.688         903.596   127785940.22907  99573481.47106  99573460.46706  95424579.59907        44.900          40.250          38.750          46.750
G27  25667794.132    25667797.447    25667797.098    25667796.504       -3897.372       -3036.916       -3036.916       -2910.175   134885141.18106 105105303.33606 105105296.33706 100725910.62006        41.150          39.300          37.000          40.600
G28  21776319.475                    21776316.970                         167.241                         130.318                   114435334.06108                  89170380.78107                        51.100                          45.350
G32  23402733.713    23402735.596    23402735.271    23402733.450        1779.204        1386.391        1386.392        1328.640   122982208.58107  95830303.99507  95830303.99407  91837374.78807        47.800          46.600          43.800          47.850
I06  41064361.950          39.483                          30.550
R03  23201241.316    23201240.400    23201240.122       -3865.413       -3006.436       -3006.436   124198071.79407  96598494.67807  96598498.67006        47.750          42.050          41.450
R05  21316978.726    21316980.246    21316980.284        3496.321        2719.361        2719.361   113951496.38008  88628955.04307  88628955.03907        50.700          47.850          47.150
R11  21322914.985    21322916.008    21322916.053       -2124.040       -1652.032       -1652.033   113943199.16208  88622492.65508  88622491.65007        52.950          48.000          47.550
R12  21693669.962    21693671.850    21693671.859        1734.707        1349.219        1349.219   115883695.84508  90131792.33307  90131799.32407        51.450          46.100          45.300
R19  23096921.205    23096921.816    23096921.451       -4048.613       -3148.916       -3148.916   123552941.55306  96096737.22106  96096733.22806        37.750          37.050          37.300
R20  19454512.481    19454515.385    19454514.350       -1139.133        -885.991        -885.992   104032030.40207  80913805.81708  80913803.81008        47.550          49.200          49.450
R21  20739822.366    20739822.438    20739822.332        3063.040        2382.364        2382.364   110982980.02608  86320093.83008  86320099.83007        52.800          48.700          47.850
S23  40949005.657          -1.237   215188480.70507        44.250
S36  40094921.008           3.487   210700254.60506        41.350
> 2019 09 27 10 14 30.0000000  0 42
C06  39298043.753    39298038.513        -265.670        -205.330   204635228.57407 158236932.61107        45.900          43.100
C09  38910217.285    38910214.523         694.756         537.255   202615727.56207 156675337.43507        46.550          43.850
C11  22141278.637    22141275.933       -1527.241       -1180.737   115295466.53508  89153760.41308        49.700          52.850
C16  39133099.337    39133099.377         -83.225         -64.237   203776323.66107 157572789.06807        47.650          43.750
C21  22939820.888                         -40.561                   119453689.19808                        53.250
C22  25537624.053                       -2779.374                   132981113.06407                        47.000
C23  26725491.638                       -3265.787                   139166631.25007                        42.050
C28  23945858.725                        2800.547                   124692364.60908                        50.850
E01  25462118.076    25462119.862    25462118.325    25462118.696        -597.194        -445.876        -457.485        -451.656   133804329.66148  99918828.40808 102525394.13408 101222109.70108        51.600          51.250          50.850          53.350
E03  25566195.810    25566197.992    25566196.370    25566196.890         887.116         662.489         679.752         671.158   134351286.97548 100327281.13608 102944503.43408 101635889.71508        51.700          49.350          49.100          51.600
E05  27108360.763    27108363.619    27108361.956    27108362.633       -1835.396       -1370.481       -1406.269       -1388.279   142455404.24148 106379051.29307 109154150.36007 107766600.25507        49.750          45.650          45.550          47.950
E08  25105660.370    25105662.458    25105660.735    25105660.970        3030.646        2263.286        2322.304        2292.766   131931150.63148  98520031.36607 101090112.22207  99805070.22407        48.350          43.500          43.650          45.850
E13  23190558.148    23190559.473    23190558.239    23190558.564          74.520          55.698          57.137          56.411   121867204.37148  91004755.60108  93378791.85308  92191771.16009        53.450          53.900          53.850          56.200
E15  25175883.817    25175887.108    25175885.723    25175886.075       -2447.878       -1827.906       -1875.582       -1851.742   132300171.38448  98795599.17508 101372871.03408 100084234.53408        50.800          49.800          49.750          52.100
E18  18256682.264    18256683.139    18256681.840    18256682.181       -3383.154       -2526.346       -2592.258       -2559.284    95939510.47349  71643142.13309  73512087.40609  72577612.20009        55.800          56.400          56.200          58.650
E21  26774821.845    26774824.505    26774823.005    26774823.628       -2981.273       -2226.149       -2284.151       -2255.155   140702624.47248 105070144.13907 107811098.54807 106440619.77908        49.600          46.850          46.850          49.150
E26  24452872.355    24452875.535    24452874.126    24452874.564        2535.146        1893.184        1942.604        1917.948   128500708.42248  95958335.69508  98461595.26608  97209964.41008        50.700          49.650          49.700          51.950
E31  27175831.593    27175833.942    27175833.141    27175833.057        2121.995        1584.692        1626.057        1605.402   142809960.66548 106643819.71507 109425825.79307 108034820.18407        48.200          44.150          44.850          46.850
G01  20312146.413    20312147.924    20312147.790    20312146.204        1031.492         803.760         803.760         770.347   106741057.09809  83174866.12808  83174870.12308  79709251.84609        55.000          52.050          51.000          57.150
G03  24131678.007    24131679.146    24131678.253    24131680.159        3926.227        3059.398        3059.399        2931.949   126812830.55308  98815205.30906  98815202.31506  94697905.24507        48.000          40.350          37.950          47.600
G08  22400041.391    22400043.267    22400042.550    22400041.284       -3113.354       -2425.990       -2425.990       -2324.840   117713003.96208  91724427.62708  91724424.62007  87902557.42808        52.700          48.100          46.200          51.650
G10  23756527.308    23756528.750    23756528.725    23756526.643       -3090.814       -2408.428       -2408.427       -2308.007   124841399.37208  97279021.60607  97279004.59807  93225726.46907        48.900          44.350          42.000          47.800
G11  20111784.947                    20111782.433                         139.520                         108.717                   105688150.75808                  82354395.94108                        51.350                          49.100
G14  24546214.490                    24546213.488                        2845.385                        2217.187                   128991242.70707                 100512657.34106                        43.800                          37.050
G17  24009628.438    24009626.802    24009626.346                        3292.053        2565.238        2565.238                   126171445.86808  98315408.18207  98315401.18606                        51.050          42.350          40.550
G18  20000789.203                    20000787.955                        -823.908                        -642.005                   105104896.28908                  81899891.19607                        53.050                          47.850
G19  25680021.719                    25680019.260                        4015.476                        3128.937                   134949426.74506                 105155382.35005                        41.950                          34.000
G22  22679958.686                    22679954.373                        2939.967                        2290.883                   119184003.20808                  92870642.56707                        51.350                          44.250
G24  24310003.220    24310004.872    24310004.407    24310005.565        1191.097         928.127         928.127         889.522   127749929.34507  99545421.02106  99545400.02406  95397688.36807        45.700          40.400          36.950          47.100
G27  25690043.510    25690046.660    25690046.346    25690045.867       -3897.834       -3037.272       -3037.275       -2910.173   135002061.80007 105196410.24206 105196403.22106 100813221.36206        42.350          37.550          37.800          41.550
G28  21775417.531                    21775415.051                         149.046                         116.140                   114430594.59608                  89166687.69207                        51.050                          45.100
G32  23392624.838    23392626.855    23392626.391    23392624.943        1762.457        1373.346        1373.345        1316.137   122929087.46607  95788910.95007  95788910.94707  91797706.46007        45.700          46.100          43.200          47.900
I06  41064059.902          40.201   161144191.16905        30.950
R03  23222940.796    23222939.788    23222939.612       -3878.096       -3016.300       -3016.300   124314230.09807  96688839.93006  96688843.92906        47.300          41.000          40.550
R05  21297408.021    21297409.530    21297409.552        3478.545        2705.537        2705.538   113846879.54408  88547586.44607  88547586.44207        51.300          47.250          46.700
R11  21334908.742    21334909.651    21334909.685       -2148.385       -1670.965       -1670.965   114007290.33708  88672341.35207  88672340.34007        52.850          47.000          46.400
R12  21684000.519    21684002.304    21684002.365        1709.211        1329.386        1329.387   115832042.36308  90091617.37007  90091624.36807        50.850          45.550          44.900
R19  23119639.143    23119639.919    23119639.588       -4052.640       -3152.058       -3152.058   123674467.09505  96191257.05606  96191253.05806        34.900          40.550          39.950
R20  19460958.481    19460961.282    19460960.250       -1158.526        -901.077        -901.076   104066499.68207  80940615.24208  80940613.23708        47.200          48.750          48.700
R21  20722685.966    20722686.000    20722685.952        3050.595        2372.685        2372.686   110891279.47608  86248771.19207  86248777.19107        52.800          47.650          47.250
S23  40949011.903           -.857   215188513.74907        44.150
S36  40094902.508           3.710   210700157.86006        41.500
> 2019 09 27 10 15 00.0000000  0 42
C06  39299589.786    39299584.610        -271.108        -209.608   204643279.15907 158243157.83907        45.700          43.800
C09  38906231.585    38906228.593         688.987         533.124   202594972.25407 156659288.10607        46.350          44.550
C11  22150113.252    22150110.674       -1539.666       -1190.567   115341471.22808  89189334.15508        49.450          53.600
C16  39133596.680    39133596.813         -89.219         -69.020   203778913.25507 157574791.50507        47.300          44.350
C21  22940106.038                         -58.499                   119455174.07708                        53.100
C22  25553665.376                       -2789.207                   133064644.18708                        48.100
C23  26744315.626                       -3268.988                   139264653.02706                        40.800
C28  23929744.863                        2793.449                   124608455.95908                        51.000
E01  25465572.111    25465573.822    25465572.389    25465572.755        -612.764        -457.564        -469.498        -463.518   133822480.81648  99932382.83408 102539302.15408 101235840.92808        51.350          50.400          51.450          53.250
E03  25561173.629    25561175.971    25561174.565    25561174.892         872.207         651.432         668.406         659.910   134324896.21948 100307573.75608 102924281.95008 101615925.28608        51.350          48.700          49.800          51.500
E05  27118872.611    27118875.632    27118874.084    27118874.378       -1847.388       -1379.477       -1415.463       -1397.479   142510644.50248 106420302.11607 109196477.27807 107808389.13007        49.900          45.300          46.200          47.950
E08  25088374.119    25088376.184    25088374.524    25088374.932        3025.247        2259.163        2318.076        2288.590   131840311.76148  98452197.19507 101020508.46007  99736351.25807        48.700          42.350          43.800          45.450
E13  23190164.645    23190165.938    23190164.695    23190165.039          63.498          47.402          48.641          48.017   121865136.37848  91003211.31308  93377207.27709  92190206.72609        53.600          53.150          54.450          56.100
E15  25189875.727    25189878.916    25189877.562    25189877.953       -2453.850       -1832.351       -1880.155       -1856.272   132373699.02848  98850506.15708 101429210.37508 100139857.70008        50.300          48.950          50.300          51.950
E18  18276120.781    18276121.530    18276120.259    18276120.588       -3426.576       -2558.781       -2625.514       -2592.172    96041659.96049  71719422.59009  73590357.79009  72654887.62409        56.000          55.650          56.800          58.500
E21  26791860.404    26791862.991    26791861.626    26791862.162       -2987.944       -2231.176       -2289.385       -2260.265   140792162.57748 105137006.97607 107879705.62707 106508354.73408        49.850          46.250          47.650          49.250
E26  24438415.792    24438418.866    24438417.500    24438417.947        2529.647        1889.045        1938.352        1913.732   128424738.36648  95901604.81608  98403384.45208  97152493.56308        50.900          48.900          50.250          51.900
E31  27163750.023    27163752.453    27163751.386    27163751.521        2110.766        1576.250        1617.318        1596.751   142746471.86547 106596409.28007 109377178.55407 107986791.35007        47.850          43.500          45.400          46.800
G01  20306310.379    20306311.862    20306311.728    20306310.144        1013.206         789.510         789.509         756.631   106710388.32209  83150968.38108  83150972.37508  79686349.84109        55.200          52.750          51.600          56.550
G03  24109277.183    24109278.575    24109277.875    24109279.143        3921.696        3055.868        3055.867        2928.538   126695113.15008  98723477.51107  98723474.50706  94609999.42807        48.450          44.050          41.700          45.350
G08  22417843.634    22417845.456    22417844.707    22417843.353       -3123.288       -2433.731       -2433.731       -2332.251   117806555.17508  91797324.65808  91797321.65007  87972417.08808        52.600          48.100          46.300          50.300
G10  23774202.114    23774203.618    23774203.623    23774201.587       -3101.178       -2416.504       -2416.505       -2315.869   124934281.00408  97351396.88007  97351379.86707  93295086.08807        48.200          45.650          42.800          46.800
G11  20111045.415                    20111042.948                         119.536                          93.144                   105684264.71508                  82351367.85308                        51.100                          49.750
G14  24529996.502                    24529995.736                        2836.519                        2210.281                   128906015.90407                 100446246.90606                        44.000                          36.450
G17  23990848.740    23990847.000    23990846.552                        3287.188        2561.447        2561.447                   126072758.01108  98238508.55907  98238501.55406                        49.650          42.800          40.700
G18  20005549.532                    20005548.340                        -843.695                        -657.424                   105129912.18708                  81919384.09308                        52.550                          48.800
G19  25657101.249                    25657098.546                        4014.706                        3128.347                   134828978.88207                 105061526.99306                        43.550                          37.750
G22  22663207.966                    22663203.702                        2928.427                        2281.891                   119095977.62708                  92802051.23607                        51.250                          45.350
G24  24303258.247    24303259.860    24303259.405    24303260.509        1172.033         913.271         913.273         875.202   127714483.57207  99517800.94907  99517779.94506  95371219.14107        45.200          42.200          40.000          46.050
G27  25712293.755    25712296.932    25712296.421    25712295.984       -3897.594       -3037.090       -3037.086       -2910.603   135118987.13307 105287520.75306 105287513.75306 100900535.65406        43.050          39.200          37.800          40.750
G28  21774619.361                    21774616.910                         130.743                         101.876                   114426400.33008                  89163419.42007                        51.250                          45.800
G32  23382611.664    23382614.078    23382613.488    23382611.749        1745.365        1360.026        1360.025        1303.415   122876470.43707  95747910.72407  95747910.72107  91758414.58107        47.400          46.450          44.100          47.000
I06  41063755.546          39.524                          30.050
R03  23244710.656    23244709.800    23244709.639       -3890.777       -3026.165       -3026.164   124430765.57307  96779478.54906  96779482.55706        46.900          39.950          40.300
R05  21277937.734    21277939.130    21277939.183        3460.342        2691.380        2691.379   113742798.78508  88466634.77507  88466634.76607        51.750          47.400          46.800
R11  21347038.650    21347039.405    21347039.414       -2172.628       -1689.823       -1689.822   114072108.32308  88722755.32107  88722754.31707        52.800          46.900          46.400
R12  21674474.861    21674476.659    21674476.726        1683.179        1309.140        1309.139   115781157.68508  90052040.40207  90052047.40107        51.650          45.400          44.800
R19  23142382.780    23142383.440    23142383.059       -4057.852       -3156.105       -3156.106   123796128.74906  96285882.71906  96285878.71306        38.050          37.750          37.450
R20  19467513.629    19467516.447    19467515.385       -1178.245        -916.413        -916.413   104101553.01107  80967878.94008  80967876.93808        47.850          48.500          48.250
R21  20705619.643    20705619.662    20705619.603        3037.875        2362.790        2362.791   110799954.14108  86177740.37207  86177746.37007        52.750          47.600          46.800
S23  40949017.510           -.700   215188542.93107        44.550
S36  40094883.639           3.356   210700058.54206        41.200
> 2019 09 27 10 15 30.0000000  0 42
C06  39301166.473    39301161.349        -276.270        -213.824   204651489.31907 158249506.45007        45.750          43.250
C09  38902277.574    38902274.524         683.434         528.249   202574382.77707 156643367.06107        46.050          44.550
C11  22159020.028    22159017.583       -1552.459       -1200.483   115387851.54108  89225198.33608        49.750          53.300
C16  39134127.880    39134128.091         -95.441         -73.788   203781679.31707 157576930.37807        47.100          44.050
C21  22940494.450                         -76.612                   119457196.58208                        53.150
C22  25569763.016                       -2799.282                   133148469.38107                        47.350
C23  26763157.728                       -3272.358                   139362767.55306                        41.550
C28  23913671.114                        2786.280                   124524756.59608                        50.650
E01  25469115.165    25469116.649    25469115.416    25469115.744        -628.585        -469.426        -481.688        -475.513   133841099.37848  99946286.30608 102553568.32408 101249925.74608        51.500          50.700          51.350          53.800
E03  25556235.390    25556238.147    25556236.725    25556236.946         857.513         640.243         656.922         648.609   134298947.19448 100288196.27108 102904398.96008 101596295.04508        51.050          49.000          49.500          52.050
E05  27129452.537    27129455.675    27129453.805    27129454.377       -1859.523       -1388.547       -1424.809       -1406.607   142566242.42648 106461820.01307 109239078.26907 107850448.57107        49.800          45.100          45.250          47.950
E08  25071118.768    25071120.495    25071119.058    25071119.602        3019.759        2255.023        2313.703        2284.397   131749634.38248  98384483.60407 100951028.43907  99667754.45407        48.950          43.100          43.800          46.250
E13  23189833.718    23189835.003    23189833.728    23189834.095          52.303          39.043          40.054          39.562   121863397.23348  91001912.59808  93375874.68309  92188891.07309        53.350          53.400          54.200          56.650
E15  25203901.002    25203904.388    25203903.006    25203903.360       -2459.961       -1836.964       -1884.914       -1860.911   132447402.86648  98905544.70408 101485684.71608 100195614.14008        50.100          49.200          50.150          52.550
E18  18295805.722    18295806.399    18295805.157    18295805.465       -3469.894       -2591.145       -2658.750       -2624.950    96145104.61149  71796670.20209  73669620.56009  72733142.81309        55.900          55.900          56.600          59.000
E21  26808937.054    26808939.691    26808938.078    26808938.766       -2994.781       -2236.416       -2294.764       -2265.549   140881900.42748 105204018.97007 107948465.76707 106576240.79708        50.000          46.100          47.150          49.500
E26  24423990.492    24423993.576    24423992.241    24423992.641        2523.914        1884.647        1933.896        1909.294   128348932.85448  95844996.81208  98345299.71708  97095147.19308        50.850          49.300          50.100          52.600
E31  27151733.166    27151735.519    27151734.654    27151734.713        2098.965        1567.422        1608.384        1587.908   142683323.04247 106549252.70107 109328791.80307 107939019.68407        47.550          43.950          45.600          47.500
G01  20300578.940    20300580.415    20300580.280    20300578.699         994.634         775.040         775.040         742.700   106680269.37009  83127499.06608  83127503.06308  79663858.41809        55.200          51.850          50.400          56.800
G03  24086902.218    24086903.998    24086903.412    24086904.006        3916.920        3052.146        3052.146        2924.935   126577532.29108  98631856.13207  98631853.13206  94522195.57807        48.850          43.300          40.550          44.200
G08  22435701.820    22435703.688    22435702.982    22435701.460       -3133.257       -2441.501       -2441.501       -2339.717   117900400.95008  91870451.20007  91870448.19407  88042496.68708        52.400          47.650          45.600          50.350
G10  23791936.495    23791938.034    23791937.993    23791936.084       -3111.809       -2424.788       -2424.789       -2323.849   125027475.98108  97424016.30907  97423999.30107  93364679.71607        48.050          44.150          42.500          47.100
G11  20110419.271                    20110416.847                          99.553                          77.574                   105680974.57508                  82348804.09908                        51.300                          48.600
G14  24513829.968                    24513829.087                        2827.097                        2202.935                   128821060.19207                 100380047.66905                        43.350                          33.400
G17  23972096.441    23972094.692    23972094.235                        3282.205        2557.563        2557.562                   125974213.97808  98161720.99506  98161713.99506                        50.500          41.400          39.500
G18  20010422.170                    20010421.065                        -863.530                        -672.881                   105155518.49608                  81939337.05007                        52.250                          47.850
G19  25634184.375                    25634181.836                        4013.770                        3127.619                   134708548.80106                 104967685.43406                        41.900                          37.050
G22  22646523.046                    22646518.578                        2916.666                        2272.727                   119008297.47508                  92733729.06207                        51.300                          44.000
G24  24296621.885    24296623.684    24296623.204    24296624.077        1152.668         898.185         898.184         860.758   127679609.27107  99490626.17806  99490605.16806  95345176.65807        45.100          41.650          39.300          45.700
G27  25734545.371    25734548.993    25734548.312    25734547.976       -3898.154       -3037.522       -3037.523       -2910.839   135235920.97306 105378637.86706 105378630.86005 100987856.18906        41.300          37.250          34.000          38.850
G28  21773925.969                    21773923.540                         112.055                          87.316                   114422756.64208                  89160580.18807                        51.000                          44.650
G32  23372696.903    23372698.673    23372698.143    23372696.106        1728.094        1346.568        1346.567        1290.431   122824364.88408  95707308.99007  95707308.99107  91719504.58407        48.050          45.900          43.500          47.700
I06  41063450.309          40.048                          30.700
R03  23266551.193    23266550.488    23266550.279       -3903.550       -3036.097       -3036.096   124547679.25307  96870411.31606  96870415.31406        46.350          39.650          39.100
R05  21258569.197    21258570.577    21258570.657        3441.850        2676.996        2676.997   113639262.97008  88386106.93807  88386106.93907        51.600          47.350          47.000
R11  21359304.626    21359305.761    21359305.800       -2197.168       -1708.911       -1708.910   114137655.33808  88773736.31507  88773735.31207        52.000          47.250          46.400
R12  21665094.627    21665096.431    21665096.484        1657.109        1288.861        1288.862   115731049.58608  90013067.46107  90013074.46007        51.800          45.600          44.650
R19  23165152.014    23165152.752    23165152.283       -4062.802       -3159.961       -3159.961   123917930.14505  96380617.11406  96380613.10606        34.850          39.350          39.150
R20  19474178.810    19474181.684    19474180.604       -1198.075        -931.836        -931.836   104137195.18007  80995600.62808  80995598.62308        46.950          48.400          48.350
R21  20688624.835    20688624.917    20688624.901        3024.822        2352.640        2352.639   110709011.68708  86107007.37207  86107013.36407        53.300          47.600          46.950
S23  40949023.346          -1.493   215188575.94907        44.550
S36  40094864.841           3.429   210699962.32606        41.300
> 2019 09 27 10 16 00.0000000  0 42
C06  39302773.780    39302768.598        -282.120        -218.177   204659859.08607 158255978.47707        45.550          42.450
C09  38898355.436    38898352.401         677.491         523.860   202553959.57407 156627574.54807        45.800          43.600
C11  22167998.918    22167996.525       -1565.267       -1210.324   115434607.09208  89261352.68308        50.000          52.600
C16  39134692.935    39134693.132        -101.401         -78.453   203784621.88507 157579205.76807        47.300          43.050
C21  22940986.080                         -94.788                   119459756.72408                        53.100
C22  25585917.148                       -2809.195                   133232586.64907                        47.700
C23  26782017.137                       -3275.702                   139460972.70406                        41.850
C28  23897638.031                        2778.961                   124441268.17708                        50.400
E01  25472747.139    25472748.453    25472747.363    25472747.627        -644.392        -481.204        -493.769        -487.479   133860185.12548  99960538.64508 102568192.46008 101264363.98508        51.750          50.200          50.400          53.600
E03  25551381.657    25551384.500    25551382.968    25551383.201         842.493         629.084         645.547         637.313   134273440.85948 100269149.34508 102884855.15108 101576999.67908        51.700          48.450          48.450          51.750
E05  27140100.313    27140103.245    27140101.572    27140102.190       -1871.507       -1397.611       -1433.992       -1415.725   142622196.81248 106503604.13807 109281952.39207 107892777.69207        49.750          44.550          44.800          47.950
E08  25053894.519    25053896.341    25053895.019    25053895.373        3013.908        2250.742        2309.471        2280.066   131659120.55048  98316892.16007 100881673.73007  99599281.38107        48.550          42.700          42.950          46.100
E13  23189565.397    23189566.694    23189565.393    23189565.768          41.084          30.677          31.488          31.111   121861987.17148  91000859.63308  93374794.24808  92187824.37209        53.550          53.000          53.300          56.400
E15  25217959.768    25217963.098    25217961.822    25217962.159       -2466.040       -1841.465       -1889.518       -1865.464   132521282.28748  98960714.37908 101542293.60008 100251503.41908        49.750          48.600          49.100          52.150
E18  18315735.653    18315736.347    18315735.115    18315735.412       -3512.859       -2623.203       -2691.636       -2657.417    96249837.09549  71874879.51009  73749870.11409  72812372.24309        56.000          55.450          55.700          58.850
E21  26826051.356    26826053.885    26826052.415    26826053.016       -3001.565       -2241.436       -2299.943       -2270.661   140971836.38948 105271178.90207 108017377.69907 106644276.72908        50.050          45.650          46.600          49.350
E26  24409596.670    24409599.737    24409598.375    24409598.856        2518.121        1880.446        1929.505        1904.986   128273292.89648  95788512.43308  98287341.83708  97037926.06508        50.900          48.950          49.200          52.400
E31  27139781.173    27139783.863    27139782.839    27139782.882        2087.368        1558.764        1599.485        1579.098   142620515.99747 106502351.38907 109280666.97007 107891506.61007        47.900          43.500          44.500          47.300
G01  20294952.264    20294953.740    20294953.620    20294952.048         976.009         760.526         760.526         728.835   106650701.03809  83104458.80908  83104462.80308  79641778.16909        55.300          53.250          52.050          56.350
G03  24064553.859    24064555.880    24064555.323    24064555.193        3911.940        3048.268        3048.267        2921.263   126460090.68308  98540343.24607  98540340.24307  94434495.68507        48.600          45.250          43.650          45.450
G08  22453615.627    22453617.535    22453616.760    22453615.344       -3143.212       -2449.258       -2449.258       -2347.211   117994539.21708  91943805.66308  91943802.65407  88112794.71008        51.600          48.450          46.600          49.850
G10  23809730.086    23809731.707    23809731.662    23809729.700       -3122.442       -2433.073       -2433.073       -2331.668   125120982.01708  97496878.11807  97496861.11607  93434505.61507        48.750          45.650          43.850          46.350
G11  20109906.659                    20109904.227                          79.430                          61.892                   105678280.74108                  82346705.00108                        51.350                          50.150
G14  24497715.173                    24497714.281                        2817.643                        2195.567                   128736378.09207                 100314061.64006                        43.000                          37.850
G17  23953371.917    23953370.119    23953369.588                        3277.156        2553.626        2553.627                   125875815.43608  98085046.80107  98085039.80506                        50.600          43.700          41.500
G18  20015406.966                    20015405.960                        -883.446                        -688.401                   105181714.29508                  81959749.35008                        52.550                          49.100
G19  25611270.952                    25611267.989                        4013.003                        3127.015                   134588137.92607                 104873858.74606                        42.200                          37.350
G22  22629904.276                    22629899.668                        2904.766                        2263.454                   118920965.20608                  92665677.96907                        51.600                          45.050
G24  24290094.463    24290096.555    24290096.178    24290096.691        1133.207         883.018         883.020         846.389   127645307.94907  99463897.88407  99463876.87707  95319562.02507        44.000          44.550          42.600          44.350
G27  25756798.726    25756802.144    25756801.539    25756800.970       -3899.327       -3038.438       -3038.441       -2911.202   135352861.48606 105469760.24406 105469753.23806 101075181.72206        41.800          40.300          38.000          38.500
G28  21773337.512                    21773335.158                          93.582                          72.920                   114419664.38108                  89158170.62607                        50.600                          46.800
G32  23362879.554    23362881.059    23362880.644    23362878.766        1710.740        1333.045        1333.046        1277.538   122772772.94807  95667107.50607  95667107.50607  91680978.16507        46.850          47.500          43.750          47.800
I06  41063144.229          39.514                          30.300
R03  23288461.668    23288461.026    23288460.845       -3916.196       -3045.935       -3045.935   124664967.72107  96961635.62306  96961639.61906        46.750          40.000          39.250
R05  21239303.346    21239304.899    21239305.072        3423.256        2662.535        2662.534   113536276.53608  88306006.39608  88306006.38907        50.950          48.050          47.550
R11  21371706.781    21371707.743    21371707.718       -2221.595       -1727.906       -1727.908   114203928.46208  88825282.07607  88825281.07107        52.200          46.900          46.600
R12  21655860.240    21655861.922    21655861.976        1630.836        1268.429        1268.428   115681720.70308  89974700.54707  89974707.54907        52.000          46.100          45.600
R19  23187947.322    23187948.300    23187947.949       -4067.082       -3163.286       -3163.287   124039869.34106  96475458.62706  96475454.61906        37.700          40.400          39.600
R20  19480954.141    19480956.860    19480955.796       -1217.894        -947.252        -947.251   104173425.08508  81023779.42808  81023777.42308        48.350          48.800          48.950
R21  20671702.080    20671702.062    20671702.101        3011.662        2342.404        2342.404   110618454.42308  86036573.94408  86036579.93507        53.550          48.050          47.600
S23  40949029.027          -1.662   215188609.47807        44.250
S36  40094845.251           3.016   210699862.14006        41.350
> 2019 09 27 10 16 30.0000000  0 42
C06  39304411.740    39304406.508        -286.772        -221.709   204668388.39407 158262573.86807        45.550          42.700
C09  38894465.373    38894462.260         672.652         520.001   202533702.83007 156611910.75607        45.750          44.100
C11  22177049.828    22177047.401       -1577.125       -1219.547   115481737.23708  89297796.69808        49.900          53.050
C16  39135292.006    39135292.049        -106.732         -82.678   203787741.02707 157581617.69307        47.250          43.600
C21  22941580.911                        -112.085                   119462854.48208                        52.800
C22  25602126.413                       -2818.312                   133316994.15507                        47.250
C23  26800893.643                       -3277.543                   139559266.25006                        41.600
C28  23881645.817                        2772.529                   124357992.28808                        50.600
E01  25476468.033    25476469.189    25476468.142    25476468.368        -659.307        -492.421        -505.224        -498.827   133879737.82448  99975139.67908 102583174.38708 101279155.46708        51.750          50.950          50.950          53.750
E03  25546612.489    25546615.034    25546613.617    25546613.838         828.100         618.414         634.516         626.504   134248378.01148 100250433.58308 102865651.14508 101558039.79408        51.700          48.750          49.050          51.750
E05  27150815.618    27150818.737    27150817.057    27150817.406       -1882.808       -1405.929       -1442.591       -1424.269   142678506.44648 106545653.49307 109325098.69807 107935375.52708        49.450          45.850          44.800          48.150
E08  25036701.906    25036703.478    25036702.146    25036702.689        3008.956        2246.930        2305.526        2276.294   131568772.31348  98249424.36507 100812445.90207  99530933.56307        48.700          43.600          43.400          46.450
E13  23189359.775    23189361.058    23189359.733    23189360.093          30.675          22.914          23.504          23.212   121860906.40148  91000052.55108  93373966.11208  92187006.76409        53.300          53.700          53.800          56.550
E15  25232051.723    25232055.189    25232053.929    25232054.245       -2471.260       -1845.496       -1893.547       -1869.534   132595336.68748  99016014.71708 101599036.55208 100307525.06608        49.700          49.250          49.600          52.250
E18  18335909.146    18335909.952    18335908.726    18335908.994       -3554.855       -2654.655       -2723.895       -2689.290    96355849.93449  71954044.93809  73831100.72709  72892570.26609        55.650          56.100          56.250          59.000
E21  26843203.001    26843205.734    26843203.939    26843204.682       -3007.354       -2245.874       -2304.433       -2275.122   141061968.77648 105338485.50207 108086440.13707 106712461.25108        49.750          46.550          46.700          49.350
E26  24395234.553    24395237.655    24395236.280    24395236.750        2513.269        1876.644        1925.605        1901.189   128197819.52148  95732152.45208  98229511.59508  96980830.95008        50.400          49.750          49.800          52.600
E31  27127894.824    27127897.261    27127896.444    27127896.509        2076.533        1550.527        1591.028        1570.768   142558052.60247 106455706.64907 109232805.42207 107844253.46807        47.450          44.050          45.450          47.650
G01  20289430.553    20289432.015    20289431.861    20289430.313         958.234         746.676         746.676         715.487   106621684.05909  83081848.18008  83081852.17408  79620109.65109        55.200          52.200          51.300          57.100
G03  24042232.465    24042234.600    24042234.069    24042233.846        3907.726        3044.982        3044.982        2918.080   126342791.01408  98448940.96307  98448937.95706  94346901.80107        49.550          43.150          41.700          46.450
G08  22471585.089    22471586.983    22471586.234    22471584.706       -3152.226       -2456.281       -2456.281       -2354.048   118088969.37108  92017387.56307  92017384.55407  88183310.69208        52.200          47.900          45.550          50.550
G10  23827582.596    23827584.133    23827584.117    23827582.130       -3132.186       -2440.666       -2440.666       -2338.979   125214796.78608  97569980.50107  97569963.49907  93504562.06007        48.850          44.650          42.350          46.500
G11  20109507.633                    20109505.208                          59.977                          46.736                   105676183.74208                  82345070.97508                        50.950                          49.200
G14  24481653.604                    24481652.759                        2808.851                        2188.715                   128651972.92907                 100248291.42606                        43.600                          38.850
G17  23934675.162    23934673.553    23934673.039                        3272.735        2550.182        2550.182                   125777564.24308  98008487.45907  98008480.45906                        51.200          42.700          40.500
G18  20020503.848                    20020502.856                        -902.469                        -703.223                   105208498.76608                  81980620.37107                        52.800                          47.850
G19  25588361.526                    25588358.621                        4012.744                        3126.817                   134467748.35106                 104780048.76806                        41.650                          39.250
G22  22613352.002                    22613347.368                        2893.712                        2254.842                   118833983.13408                  92597899.76207                        51.050                          44.250
G24  24283676.350    24283678.804    24283678.402    24283678.549        1114.722         868.616         868.615         832.398   127611581.65907  99437617.69607  99437596.68906  95294376.82707        44.000          43.150          41.500          44.700
G27  25779053.021    25779056.475    25779055.854    25779055.326       -3897.857       -3037.301       -3037.297       -2910.908   135469807.76706 105560887.03106 105560880.02706 101162511.56807        40.650          39.200          38.300          42.000
G28  21772853.856                    21772851.679                          75.706                          58.992                   114417123.19108                  89156190.47207                        50.550                          45.600
G32  23353159.354    23353161.640    23353161.170    23353159.667        1694.203        1320.161        1320.161        1265.017   122721696.81607  95627307.98807  95627307.98707  91642836.97708        45.900          46.600          44.500          48.700
I06  41062836.940          40.854   161139393.15905        30.750
R03  23310441.471    23310440.857    23310440.692       -3927.857       -3054.996       -3054.996   124782626.69507  97053148.14806  97053152.13706        46.300          40.000          38.850
R05  21220141.062    21220142.590    21220142.660        3405.349        2648.605        2648.605   113433843.63208  88226336.37007  88226336.36507        51.650          47.350          46.650
R11  21384244.036    21384245.268    21384245.261       -2245.009       -1746.121       -1746.119   114270925.22908  88877390.64107  88877389.64607        51.950          46.900          46.100
R12  21646772.179    21646773.861    21646773.813        1605.367        1248.617        1248.618   115633173.47508  89936941.61807  89936948.61807        51.800          45.000          44.650
R19  23210768.217    23210768.789    23210768.502       -4071.362       -3166.613       -3166.615   124161945.02806  96570406.36906  96570402.35406        36.150          38.900          37.900
R20  19487839.270    19487841.888    19487840.841       -1236.882        -962.020        -962.020   104210242.42908  81052415.14708  81052413.14408        48.000          48.000          48.300
R21  20654851.853    20654851.712    20654851.646        2999.293        2332.783        2332.783   110528284.84808  85966442.04207  85966448.03507        53.650          47.400          47.100
S23  40949034.709          -1.176   215188642.88407        44.000
S36  40094826.447           3.239   210699766.41506        41.000
